     2.11           OBSERVATION DATA    G (GPS)             RINEX VERSION / TYPE
Linux 2.4.21-27.ELsmp|Opteron|gcc -static|Linux x86_64|=+   COMMENT
HEADER CHANGED BY EPN CB ON 2011-10-13                      COMMENT
TO BE CONFORM WITH THE INFORMATION IN                       COMMENT
ftp://epncb.oma.be/pub/station/log/brus.log                 COMMENT
                                                            COMMENT
teqc  2010Oct21                         20111013 00:01:17UTCPGM / RUN BY / DATE
teqc  2010Oct21                         20111013 00:01:03UTCCOMMENT
teqc  2010Oct21                         20111012 01:01:01UTCCOMMENT
BIT 2 OF LLI FLAGS DATA COLLECTED UNDER A/S CONDITION       COMMENT
BRUS                                                        MARKER NAME
13101M004                                                   MARKER NUMBER
Carine Bruyninx     ROB                                     OBSERVER / AGENCY
RT919994505         ASHTECH Z-XII3T     1L01-1D04           REC # / TYPE / VERS
CR519994604         ASH701945B_M    NONE                    ANT # / TYPE
  4027894.0130   307045.5980  4919474.9120                  APPROX POSITION XYZ
        3.9702        0.0000        0.0000                  ANTENNA: DELTA H/E/N
     1     1                                                WAVELENGTH FACT L1/2
     7    L1    L2    C1    P2    P1    S1    S2            # / TYPES OF OBSERV
    30.0000                                                 INTERVAL
 SNR is mapped to RINEX snr flag value [0-9]                COMMENT
  L1 & L2: min(max(int(snr_dBHz/6), 0), 9)                  COMMENT
pseudorange smoothing corrections not applied               COMMENT
COORDINATES IN ETRF2000                                     COMMENT
Forced Modulo Decimation to 30 seconds                      COMMENT
  2011    10    12     0     0    0.0000000     GPS         TIME OF FIRST OBS
                                                            END OF HEADER
 11 10 12  0  0  0.0000000  0  9G26G05G16G10G08G13G07G02G04
  -3031231.48149  -2342441.23549  23898984.3204   23898987.5594   23898982.2294
       210.0004        138.0004
 -14734641.96549 -11462144.32749  21800615.4594   21800618.1424   21800615.7364
       236.0004        190.0004
    655312.75449    515225.71049  24264297.8924   24264299.9014   24264298.9704
       210.0004        138.0004
 -20638219.56449 -15327313.00349  20474713.1914   20474716.3374   20474712.7354
       241.0004        199.0004
 -19400755.25049 -14530218.01749  21324014.7344   21324017.8814   21324013.8994
       239.0004        193.0004
 -14602696.33749 -11071531.68249  22202713.4154   22202715.9484   22202714.3074
       231.0004        170.0004
 -21706390.92849 -16895353.24849  20565132.0414   20565134.6564   20565132.7964
       241.0004        205.0004
 -16697615.84349 -12984965.96249  21847200.1914   21847202.2274   21847200.9504
       231.0004        180.0004
   -131688.49949    -86768.59949  23955306.3454   23955306.6414   23955304.3654
       211.0004        138.0004
 11 10 12  0  0 30.0000000  0  9G26G05G16G10G08G13G07G02G04
  -3140626.72649  -2427684.35549  23878165.2664   23878170.7254   23878166.6654
       211.0004        139.0004
 -14807410.54949 -11518847.10949  21786768.0044   21786770.5124   21786768.2174
       235.0004        190.0004
    699317.60249    549515.19949  24272673.0894   24272674.5234   24272670.8274
       209.0004        137.0004
 -20595281.27849 -15293854.61149  20482885.1064   20482887.3704   20482883.8054
       242.0004        199.0004
 -19466495.03349 -14581443.80849  21311504.4034   21311507.8544   21311504.0514
       239.0004        193.0004
 -14518305.92249 -11005772.92949  22218773.0124   22218774.5184   22218773.0394
       231.0004        169.0004
 -21708690.91149 -16897145.43749  20564694.9684   20564696.9614   20564695.3804
       241.0004        205.0004
 -16646716.74849 -12945304.34549  21856887.8294   21856887.8254   21856887.3304
       233.0004        180.0004
    -23362.81249     -2359.00749  23975918.4124   23975918.6654   23975918.4704
       215.0004        140.0004
 11 10 12  0  1  0.0000000  0  9G26G05G16G10G08G13G07G02G04
  -3249893.97849  -2512827.69749  23857369.3584   23857378.5064   23857371.1454
       196.0004        135.0004
 -14879842.22749 -11575287.36849  21772983.5934   21772986.8324   21772984.3434
       235.0004        189.0004
    743873.89949    584234.41649  24281151.1634   24281153.3494   24281152.0324
       210.0004        139.0004
 -20551864.35249 -15260023.25249  20491145.7424   20491148.8084   20491145.3804
       241.0004        199.0004
 -19531785.40849 -14632319.41249  21299080.7254   21299083.7344   21299080.0444
       240.0004        194.0004
 -14433721.91249 -10939863.32249  22234867.9684   22234871.1044   22234868.8104
       230.0004        168.0004
 -21710421.30949 -16898493.78249  20564365.3374   20564367.7374   20564365.5504
       241.0004        205.0004
 -16595283.28849 -12905226.33449  21866674.8054   21866675.7574   21866674.3224
       233.0004        180.0004
     85055.73649     82122.99049  23996550.3464   23996553.7034   23996548.9414
       214.0004        146.0004
 11 10 12  0  1 30.0000000  0  9G26G05G16G10G08G13G07G02G04
  -3359031.61049  -2597869.84849  23836605.6074   23836610.2814   23836606.2824
       214.0004        143.0004
 -14951934.52449 -11631463.17549  21759265.4664   21759268.1864   21759266.1074
       236.0004        190.0004
    788980.30249    619382.21049  24289734.6344   24289735.4454   24289734.6864
       211.0004        140.0004
 -20507969.34149 -15225819.36249  20499499.8604   20499502.2904   20499498.9514
       242.0004        199.0004
 -19596624.85149 -14682843.64049  21286741.2744   21286745.0984   21286740.5734
       240.0004        194.0004
 -14348945.48649 -10873803.78949  22251000.5574   22251003.3634   22251001.5094
       229.0004        168.0004
 -21711582.74649 -16899398.78749  20564144.3514   20564147.0094   20564144.9024
       241.0004        205.0004
 -16543317.35149 -12864733.41549  21876562.2934   21876564.7204   21876562.5994
       231.0004        180.0004
    193564.48549    166675.20849  24017196.4184   24017201.1884   24017196.4634
       208.0004        142.0004
 11 10 12  0  2  0.0000000  0  9G26G05G16G10G08G13G07G02G04
  -3468038.44949  -2682810.17349  23815862.7014   23815866.8394   23815862.6464
       211.0004        146.0004
 -15023685.41449 -11687372.95349  21745612.1184   21745613.9594   21745612.8574
       238.0004        190.0004
    834634.97249    654957.29749  24298421.9054   24298421.6744   24298421.0874
       210.0004        139.0004
 -20463597.35449 -15191243.81949  20507943.1594   20507945.8884   20507942.1704
       240.0004        200.0004
 -19661011.82449 -14733015.29549  21274488.7784   21274492.9254   21274488.9744
       240.0004        195.0004
 -14263978.09049 -10807595.44749  22267169.6494   22267172.5644   22267170.0904
       229.0004        168.0004
 -21712175.79649 -16899860.89649  20564031.0814   20564033.7824   20564031.7604
       241.0004        205.0004
 -16490820.85349 -12823827.07349  21886553.1684   21886553.7264   21886552.5784
       232.0004        179.0004
    302160.75749    251295.62149  24037864.7914   24037863.9764   24037863.8274
       212.0004        138.0004
 11 10 12  0  2 30.0000000  0  9G26G05G16G10G08G13G07G02G04
  -3576913.33349  -2767647.68149  23795140.5154   23795147.8944   23795142.0334
       203.0004        139.0004
 -15095093.07949 -11743015.28849  21732024.3234   21732026.0884   21732023.9874
       237.0004        190.0004
    880836.60049    690958.54849  24307214.7694   24307217.4154   24307213.5014
       211.0004        139.0004
 -20418748.68349 -15156296.81849  20516477.1354   20516480.3014   20516476.5474
       242.0004        199.0004
 -19724945.08149 -14782833.39549  21262323.2934   21262326.6104   21262322.7814
       241.0004        195.0004
 -14178820.53549 -10741238.94149  22283375.0894   22283377.4404   22283374.4414
       229.0004        167.0004
 -21712200.48849 -16899880.12049  20564027.3494   20564029.4284   20564027.2944
       241.0004        205.0004
 -16437795.88549 -12782508.93349  21896644.2694   21896644.6304   21896643.5534
       231.0004        179.0004
    410841.63649    335982.07149  24058543.6554   24058548.1324   24058543.9694
       212.0004        143.0004
 11 10 12  0  3  0.0000000  0  9G26G05G16G10G08G13G07G02G04
  -3685655.14749  -2852381.58549  23774449.4064   23774454.3154   23774448.8444
       208.0004        139.0004
 -15166155.50849 -11798388.59649  21718500.3504   21718503.6884   21718501.1914
       237.0004        191.0004
    927583.47749    727384.70449  24316110.5364   24316111.7394   24316111.8184
       213.0004        140.0004
 -20373424.37149 -15120979.20149  20525102.9034   20525105.5884   20525102.0284
       242.0004        200.0004
 -19788422.89149 -14832296.60849  21250243.4614   21250247.1234   21250243.4964
       241.0004        195.0004
 -14093474.69249 -10674735.71049  22299615.1624   22299618.8864   22299615.5684
       229.0004        167.0004
 -21711657.69649 -16899457.16049  20564129.6374   20564132.2794   20564130.2934
       241.0004        205.0004
 -16384244.85049 -12740780.87249  21906834.1374   21906834.4064   21906834.4004
       231.0004        180.0004
    519604.26649    420732.12449  24079238.8384   24079247.3484   24079239.4194
       208.0004        146.0004
 11 10 12  0  3 30.0000000  0  9G26G05G16G10G08G13G07G02G04
  -3794262.52749  -2937010.65149  23753784.4894   23753789.0674   23753783.8584
       212.0004        148.0004
 -15236870.69649 -11853491.32049  21705045.2394   21705046.6924   21705045.6554
       239.0004        192.0004
    974873.75249    764234.26149  24325107.5144   24325109.5144   24325105.9804
       206.0004        138.0004
 -20327625.23349 -15085291.58149  20533817.5234   20533820.7094   20533816.8704
       242.0004        199.0004
 -19851444.15149 -14881404.06449  21238252.4104   21238254.5224   21238251.5414
       243.0004        195.0004
 -14007941.75849 -10608086.69249  22315891.8514   22315895.3014   22315893.1924
       230.0004        167.0004
 -21710548.44449 -16898592.79449  20564341.5644   20564343.2144   20564341.2694
       241.0004        204.0004
 -16330170.13149 -12698644.73949  21917123.4644   21917124.7914   21917124.0424
       231.0004        179.0004
    628445.72249    505543.58649  24099949.2864   24099956.8404   24099951.5224
       208.0004        143.0004
 11 10 12  0  4  0.0000000  0  9G26G05G16G10G08G13G07G02G04
  -3902733.86849  -3021533.66249  23733140.4494   23733146.5304   23733142.2514
       208.0004        142.0004
 -15307235.88749 -11908321.34049  21691654.3914   21691656.4174   21691654.8724
       237.0004        191.0004
   1022706.51349    801506.49849  24334210.6614   24334212.5294   24334213.9604
       211.0004        140.0004
 -20281351.30549 -15049233.98449  20542623.6424   20542626.2254   20542622.9864
       242.0004        199.0004
 -19914006.70549 -14930154.08549  21226345.2564   21226349.2494   21226345.4734
       241.0004        196.0004
 -13922221.94749 -10541292.05649  22332203.5904   22332206.6714   22332203.6934
       229.0004        167.0004
 -21708871.85849 -16897286.35449  20564659.7884   20564662.7724   20564660.9034
       241.0004        205.0004
 -16275572.75849 -12656101.34449  21927513.3184   21927513.8474   21927513.5194
       231.0004        179.0004
    737364.13449    590415.07749  24120678.6544   24120682.7574   24120679.9544
       214.0004        141.0004
 11 10 12  0  4 30.0000000  0  9G26G05G16G10G08G13G07G02G04
  -4011068.33449  -3105950.12849  23712526.2804   23712531.1234   23712527.4744
       208.0004        144.0004
 -15377249.35349 -11962877.28149  21678330.5894   21678332.9874   21678331.1194
       236.0004        191.0004
   1071079.39249    839199.63549  24343415.6594   24343417.6064   24343416.4514
       211.0004        140.0004
 -20234604.29549 -15012807.74849  20551519.4474   20551522.0334   20551518.6204
       242.0004        199.0004
 -19976110.07549 -14978546.31249  21214528.3264   21214530.9754   21214527.8684
       242.0004        196.0004
 -13836317.98249 -10474353.93649  22348551.4624   22348553.9314   22348551.4134
       230.0004        167.0004
 -21706629.85549 -16895539.35149  20565087.0984   20565089.3114   20565087.1114
       241.0004        205.0004
 -16220456.34649 -12613153.51049  21938002.1994   21938002.1474   21938000.8474
       231.0004        178.0004
    846355.81849    675343.68849  24141420.5804   24141421.8544   24141420.1544
       212.0004        141.0004
 11 10 12  0  5  0.0000000  0  9G26G05G16G10G08G13G07G02G04
  -4119264.23449  -3190258.55049  23691937.7484   23691941.4384   23691937.7834
       208.0004        144.0004
 -15446908.77249 -12017157.33049  21665075.7394   21665077.6594   21665075.7744
       238.0004        193.0004
   1119991.68549    877313.09749  24352723.3364   24352724.9154   24352723.6804
       210.0004        141.0004
 -20187383.95749 -14976012.68249  20560504.1634   20560507.2254   20560503.7204
       241.0004        199.0004
 -20037752.05249 -15026578.99049  21202798.0614   21202801.2694   21202797.2664
       242.0004        196.0004
 -13750229.92649 -10407272.35649  22364933.3084   22364935.4204   22364933.5704
       229.0004        166.0004
 -21703821.98949 -16893351.40849  20565620.9894   20565623.3734   20565622.0144
       242.0004        205.0004
 -16164821.92449 -12569802.02349  21948589.1834   21948589.7234   21948588.6684
       232.0004        177.0004
    955418.96749    760327.87849  24162175.1664   24162179.2544   24162173.5204
       212.0004        145.0004
 11 10 12  0  5 30.0000000  0  9G26G05G16G10G08G13G07G02G04
  -4227320.59849  -3274458.26949  23671377.0644   23671379.3874   23671376.9684
       217.0004        144.0004
 -15516212.46549 -12071160.19749  21651887.1534   21651889.5624   21651887.8004
       238.0004        192.0004
   1169441.33649    915845.31449  24362134.0414   24362136.1754   24362133.8034
       212.0004        142.0004
 -20139691.46049 -14938849.71349  20569580.7314   20569583.0964   20569579.9714
       242.0004        199.0004
 -20098931.05849 -15074250.93549  21191155.6484   21191159.0454   21191155.7524
       241.0004        196.0004
 -13663959.45249 -10340048.61949  22381348.7804   22381351.4334   22381349.3064
       228.0004        166.0004
 -21700449.32649 -16890723.35049  20566263.3654   20566265.0494   20566263.4104
       241.0004        204.0004
 -16108671.96049 -12526048.83049  21959274.2084   21959275.0714   21959273.4804
       231.0004        178.0004
   1064550.25349    845365.18349  24182943.4914   24182944.7704   24182943.8654
       215.0004        146.0004
 11 10 12  0  6  0.0000000  0  9G26G05G16G10G08G13G07G02G04
  -4335236.74249  -3358548.75549  23650840.5134   23650842.9124   23650840.1424
       213.0004        145.0004
 -15585158.72649 -12124884.56149  21638768.0534   21638769.2794   21638768.2264
       238.0004        192.0004
   1219426.07549    954794.46049  24371645.5434   24371647.3474   24371645.2114
       212.0004        143.0004
 -20091528.37949 -14901320.04949  20578744.8224   20578748.4604   20578744.4694
       241.0004        199.0004
 -20159646.64649 -15121561.75949  21179602.2494   21179605.5134   21179601.2314
       241.0004        196.0004
 -13577508.35149 -10272684.16949  22397801.7344   22397802.8654   22397801.2294
       231.0004        166.0004
 -21696512.52049 -16887655.70549  20567012.1474   20567014.3934   20567012.8024
       242.0004        205.0004
 -16052009.31249 -12481896.12549  21970055.5754   21970057.3914   21970055.9834
       230.0004        178.0004
   1173746.35549    930453.07149  24203722.9084   24203724.5264   24203721.5894
       211.0004        137.0004
 11 10 12  0  6 30.0000000  0  9G26G05G16G10G08G13G07G02G04
  -4443010.78549  -3442528.43849  23630331.7784   23630335.6244   23630330.8754
       211.0004        145.0004
 -15653744.43449 -12178327.95449  21625715.2874   21625717.9324   21625716.1784
       236.0004        192.0004
   1269944.75349    994159.66649  24381261.2414   24381261.2104   24381259.7574
       211.0004        142.0004
 -20042894.86349 -14863423.81549  20587999.9074   20588002.7604   20587999.4234
       241.0004        198.0004
 -20219896.92449 -15168510.01749  21168136.2214   21168140.0464   21168136.5784
       241.0004        196.0004
 -13490877.36449 -10205179.50449  22414286.6054   22414288.8614   22414285.8424
       228.0004        164.0004
 -21692011.95449 -16884148.76249  20567868.7404   20567870.6694   20567868.8494
       241.0004        205.0004
 -15994835.86749 -12437345.40449  21980935.8494   21980936.4534   21980935.6344
       230.0004        176.0004
   1283005.48249   1015590.06149  24224512.5144   24224518.7504   24224511.4554
       211.0004        141.0004
 11 10 12  0  7  0.0000000  0  9G26G05G16G10G08G13G07G02G04
  -4550642.04049  -3526396.88549  23609848.9624   23609853.3624   23609849.8294
       214.0004        146.0004
 -15721968.59649 -12231489.62249  21612732.5894   21612735.7334   21612733.0674
       237.0004        192.0004
   1320994.91749   1033939.01549  24390972.9124   24390975.3954   24390973.3034
       209.0004        138.0004
 -19993792.31849 -14825162.10849  20597344.2024   20597346.9684   20597343.5574
       241.0004        198.0004
 -20279681.03649 -15215095.01349  21156760.9774   21156763.2174   21156759.9434
       242.0004        196.0004
 -13404068.23249 -10137536.03149  22430804.4714   22430808.0184   22430805.8874
       225.0004        162.0004
 -21686948.75049 -16880203.40549  20568832.2714   20568834.0704   20568832.9224
       243.0004        205.0004
 -15937154.42349 -12392398.84349  21991912.6854   21991913.2144   21991912.2334
       231.0004        176.0004
   1392323.90049   1100773.17249  24245315.5314   24245318.0594   24245316.2174
       215.0004        146.0004
 11 10 12  0  7 30.0000000  0  9G26G05G16G10G08G13G07G02G04
  -4658128.64249  -3610152.64849  23589396.4234   23589398.7064   23589395.4564
       216.0004        146.0004
 -15789828.56049 -12284367.51349  21599819.1204   21599822.5474   21599820.4544
       236.0004        194.0004
   1372575.49349   1074131.66349  24400788.1694   24400789.9164   24400788.3904
       211.0004        139.0004
 -19944221.04849 -14786535.15349  20606777.2744   20606780.2564   20606776.6404
       241.0004        198.0004
 -20338996.93649 -15261315.18549  21145472.6304   21145476.0034   21145472.4724
       241.0004        196.0004
 -13317081.47749 -10069754.17249  22447358.9864   22447361.8274   22447358.8954
       227.0004        165.0004
 -21681322.96549 -16875819.66649  20569902.5114   20569904.8834   20569902.6624
       241.0004        205.0004
 -15878966.38049 -12347057.53749  22002985.2054   22002985.8364   22002984.9354
       230.0004        176.0004
   1501700.02249   1186001.24449  24266128.9094   24266129.5964   24266129.1414
       206.0004        134.0004
 11 10 12  0  8  0.0000000  0  9G26G05G16G10G08G13G07G02G04
  -4765468.93149  -3693794.39449  23568968.6844   23568972.4344   23568969.7434
       212.0004        145.0004
 -15857321.93249 -12336959.73449  21586975.6874   21586978.8814   21586976.0994
       235.0004        192.0004
   1424684.77049   1114736.27349  24410705.2144   24410706.6434   24410705.6064
       210.0004        142.0004
 -19894181.61749 -14747543.41349  20616299.5374   20616302.0704   20616299.1624
       241.0004        198.0004
 -20397843.03249 -15307169.26149  21134275.2234   21134278.0824   21134274.8764
       243.0004        196.0004
 -13229918.17749 -10001834.73749  22463944.0014   22463946.6334   22463943.8504
       224.0004        162.0004
 -21675135.11349 -16870997.95249  20571080.4824   20571081.9504   20571080.9634
       243.0004        205.0004
 -15820274.29749 -12301323.45649  22014154.0344   22014155.1794   22014154.0494
       231.0004        177.0004
   1611130.91849   1271272.10349  24286949.9174   24286954.2604   24286952.5784
       206.0004        133.0004
 11 10 12  0  8 30.0000000  0  9G26G05G16G10G08G13G07G02G04
  -4872662.45949  -3777321.74849  23548570.1284   23548574.7064   23548571.6014
       212.0004        147.0004
 -15924446.81049 -12389264.81949  21574202.5794   21574204.8404   21574203.0104
       237.0004        192.0004
   1477321.05049   1155751.54649  24420722.3354   24420724.6374   24420721.8494
       213.0004        144.0004
 -19843675.28749 -14708187.85249  20625909.6124   20625913.1634   20625909.0584
       241.0004        198.0004
 -20456218.44949 -15352656.59149  21123166.0194   21123169.2444   21123166.0064
       241.0004        197.0004
 -13142579.89249  -9933778.92949  22480563.8874   22480567.4674   22480565.0274
       225.0004        163.0004
 -21668386.43349 -16865739.22949  20572364.0524   20572367.0784   20572364.7764
       241.0004        205.0004
 -15761080.50949 -12255198.45049  22025418.3284   22025419.7314   22025418.6674
       231.0004        177.0004
   1720613.52449   1356583.19949  24307783.3334   24307791.3824   24307785.8694
       209.0004        143.0004
 11 10 12  0  9  0.0000000  0  9G26G05G16G10G08G13G07G02G04
  -4979707.29249  -3860733.27849  23528199.8414   23528202.8494   23528201.1734
       213.0004        145.0004
 -15991201.08949 -12441281.13449  21561499.4784   21561502.2014   21561500.6404
       236.0004        194.0004
   1530482.91149   1197176.33649  24430837.3954   24430839.2804   24430838.5574
       210.0004        144.0004
 -19792702.43649 -14668468.76849  20635610.4894   20635613.1794   20635609.8184
       242.0004        197.0004
 -20514121.87049 -15397776.12349  21112148.2554   21112150.7914   21112147.2184
       242.0004        197.0004
 -13055067.54749  -9865587.48249  22497218.4274   22497221.2554   22497219.1254
       225.0004        162.0004
 -21661077.18849 -16860043.70049  20573755.6254   20573757.0714   20573755.7174
       242.0004        204.0004
 -15701387.38849 -12208684.34549  22036777.2224   22036777.6704   22036777.6354
       230.0004        176.0004
   1830145.56049   1441932.75149  24328627.9254   24328633.4694   24328629.0354
       204.0004        139.0004
 11 10 12  0  9 30.0000000  0  9G26G05G16G10G08G13G07G02G04
  -5086603.01749  -3944028.60049  23507857.2314   23507862.9284   23507859.1284
       209.0004        146.0004
 -16057583.51249 -12493007.68949  21548866.8324   21548870.3474   21548868.1304
       236.0004        194.0004
   1584167.39949   1239008.38649  24441053.9074   24441055.9654   24441054.0564
       214.0004        141.0004
 -19741264.74149 -14628387.46049  20645398.1274   20645401.2564   20645397.5774
       240.0004        197.0004
 -20571552.56749 -15442527.30049  21101218.2734   21101222.1184   21101217.8684
       241.0004        196.0004
 -12967383.05349  -9797261.91349  22513904.2794   22513906.1454   22513904.2684
       226.0004        162.0004
 -21653208.87449 -16853912.53849  20575252.2034   20575254.8194   20575253.0674
       242.0004        205.0004
 -15641197.86249 -12161783.43349  22048230.4084   22048231.0094   22048230.7584
       229.0004        174.0004
   1939723.60549   1527318.18849  24349478.5954   24349483.4844   24349481.0564
       205.0004        133.0004
 11 10 12  0 10  0.0000000  0  9G26G05G16G10G08G13G07G02G04
  -5193348.10449  -4027206.51349  23487548.8494   23487550.2274   23487547.5554
       218.0004        150.0004
 -16123591.68949 -12544442.61049  21536306.2244   21536309.1354   21536306.8244
       237.0004        193.0004
   1638372.89749   1281246.41649  24451368.8864   24451368.3734   24451370.3714
       213.0004        141.0004
 -19689363.10349 -14587944.64849  20655274.7064   20655277.7724   20655273.9164
       240.0004        197.0004
 -20628508.75549 -15486908.73249  21090380.0254   21090383.4224   21090380.2274
       241.0004        197.0004
 -12879527.25949  -9728802.87349  22530621.7084   22530625.3824   22530621.9684
       227.0004        162.0004
 -21644781.74849 -16847345.93749  20576856.8304   20576858.3204   20576856.4284
       242.0004        205.0004
 -15580513.64249 -12114497.03449  22059778.9254   22059779.9434   22059778.3794
       230.0004        175.0004
   2049344.99749   1612737.50549  24370340.8234   24370344.0024   24370342.5194
       207.0004        137.0004
 11 10 12  0 10 30.0000000  0  9G26G05G16G10G08G13G07G02G04
  -5299941.37649  -4110266.15649  23467261.2834   23467264.7714   23467262.7054
       212.0004        146.0004
 -16189223.45649 -12595584.24149  21523817.2704   21523819.7954   21523817.4864
       237.0004        194.0004
   1693097.66349   1323889.06149  24461782.6234   24461786.0644   24461781.5144
       211.0004        143.0004
 -19636998.40049 -14547141.00349  20665239.8254   20665242.5354   20665239.0364
       241.0004        197.0004
 -20684989.58649 -15530919.75549  21079632.5004   21079635.4764   21079632.3404
       242.0004        197.0004
 -12791501.61249  -9660211.45949  22547373.3904   22547374.9664   22547373.9314
       226.0004        163.0004
 -21635797.11149 -16840344.92549  20578565.7374   20578567.8984   20578566.4584
       241.0004        204.0004
 -15519337.93449 -12066827.67449  22071421.2934   22071420.8054   22071420.7264
       232.0004        175.0004
   2159007.33249   1698188.65749  24391208.3764   24391214.3574   24391209.1084
       201.0004        138.0004
 11 10 12  0 11  0.0000000  0  9G26G05G16G10G08G13G07G02G04
  -5406380.89649  -4193205.97149  23447005.6984   23447009.4864   23447006.1824
       211.0004        146.0004
 -16254475.83949 -12646430.24549  21511400.6714   21511402.8074   21511400.6864
       238.0004        194.0004
   1748340.38249   1366935.30949  24472296.0374   24472295.4694   24472295.7074
       214.0004        141.0004
 -19584170.67749 -14505976.55449  20675292.5414   20675295.4634   20675291.7004
       241.0004        196.0004
 -20740992.74149 -15574558.55849  21068975.3654   21068978.5964   21068975.2044
       242.0004        197.0004
 -12703306.40849  -9591487.93149  22564156.5204   22564158.5814   22564156.7504
       226.0004        162.0004
 -21626254.63249 -16832909.21549  20580382.1264   20580383.9544   20580381.8904
       241.0004        204.0004
 -15457671.99449 -12018776.30849  22083154.6384   22083155.6214   22083154.9564
       229.0004        175.0004
   2268708.12549   1783669.66849  24412082.8034   24412089.2614   24412084.8244
       205.0004        137.0004
 11 10 12  0 11 30.0000000  0  9G26G05G16G10G08G13G07G02G04
  -5512665.83149  -4276025.40849  23426783.3544   23426784.7344   23426783.2574
       213.0004        147.0004
 -16319347.42849 -12696979.52249  21499054.7354   21499058.1624   21499055.7044
       237.0004        194.0004
   1804098.74749   1410383.36949  24482905.8114   24482906.7794   24482906.1904
       213.0004        140.0004
 -19530881.80749 -14464452.77649  20685432.8014   20685435.7524   20685432.3194
       240.0004        196.0004
 -20796517.73449 -15617824.76649  21058409.0664   21058412.2164   21058408.7564
       241.0004        197.0004
 -12614943.39849  -9522633.64349  22580970.9624   22580974.2074   22580971.5674
       227.0004        163.0004
 -21616155.40349 -16825039.68149  20582303.2494   20582305.7534   20582303.8374
       241.0004        204.0004
 -15395518.73149 -11970345.20649  22094982.6254   22094982.3894   22094982.1354
       230.0004        175.0004
   2378444.83249   1869178.79649  24432968.1664   24432968.4384   24432968.5934
       212.0004        137.0004
 11 10 12  0 12  0.0000000  0  9G26G05G16G10G08G13G07G02G04
  -5618795.32549  -4358723.63449  23406587.1024   23406589.1824   23406586.8664
       214.0004        149.0004
 -16383836.60849 -12747230.82649  21486783.6624   21486786.3924   21486784.5184
       238.0004        195.0004
   1860371.12749   1454231.96749  24493613.4134   24493616.9484   24493613.3674
       211.0004        140.0004
 -19477132.77449 -14422570.43449  20695661.3144   20695664.2724   20695660.2864
       242.0004        196.0004
 -20851563.50749 -15660717.56749  21047933.4274   21047937.5264   21047934.0574
       241.0004        197.0004
 -12526414.54949  -9453650.16049  22597818.1734   22597820.7444   22597818.4684
       228.0004        163.0004
 -21605501.23249 -16816737.72949  20584330.5024   20584333.3374   20584331.1664
       240.0004        204.0004
 -15332880.89349 -11921536.52949  22106903.1764   22106901.8474   22106901.8814
       229.0004        174.0004
   2488214.25849   1954713.43849  24453855.8954   24453858.9694   24453853.4734
       202.0004        135.0004
 11 10 12  0 12 30.0000000  0  9G26G05G16G10G08G13G07G02G04
  -5724767.82649  -4441299.51849  23386419.1974   23386423.0824   23386419.8374
       213.0004        148.0004
 -16447940.87549 -12797182.20349  21474585.4514   21474587.4194   21474586.3704
       239.0004        195.0004
   1917155.10149   1498479.19449  24504418.6934   24504419.8184   24504418.2864
       211.0004        139.0004
 -19422924.34949 -14380330.11449  20705976.3354   20705979.8204   20705976.1614
       242.0004        197.0004
 -20906128.47949 -15703235.70849  21037551.2304   21037554.3784   21037551.0474
       242.0004        197.0004
 -12437720.09349  -9384537.61049  22614696.1744   22614697.6114   22614696.1904
       226.0004        161.0004
 -21594292.15149 -16808003.37149  20586463.8904   20586465.8964   20586463.7394
       241.0004        203.0004
 -15269761.09849 -11872352.28949  22118913.3184   22118914.1764   22118913.6204
       230.0004        173.0004
   2598013.63749   2040271.30249  24474750.4154   24474751.7854   24474750.4344
       209.0004        138.0004
 11 10 12  0 13  0.0000000  0  9G26G05G16G10G08G13G07G02G04
  -5830581.82449  -4523751.96349  23366284.4964   23366287.0704   23366284.8624
       213.0004        144.0004
 -16511658.40549 -12846832.21349  21462460.0424   21462462.3944   21462460.2454
       239.0004        195.0004
   1974448.87049   1543123.68349  24515323.0514   24515321.6934   24515324.3794
       210.0004        137.0004
 -19368257.28749 -14337732.41549  20716379.2484   20716382.4004   20716378.9474
       241.0004        196.0004
 -20960211.89449 -15745378.60749  21027260.2204   21027262.2564   21027259.4514
       243.0004        198.0004
 -12348861.35049  -9315297.04749  22631605.6204   22631607.4404   22631605.3524
       227.0004        161.0004
 -21582529.13649 -16798837.37549  20588702.1094   20588704.9074   20588702.8174
       241.0004        204.0004
 -15206161.12149 -11822793.87549  22131017.3044   22131016.5714   22131016.6664
       231.0004        175.0004
   2707840.72549   2125850.82749  24495649.5194   24495653.8704   24495648.8804
       208.0004        140.0004
 11 10 12  0 13 30.0000000  0  9G26G05G16G10G08G13G07G02G04
  -5936236.16949  -4606080.03249  23346180.2084   23346181.0584   23346179.7564
       216.0004        146.0004
 -16574987.02849 -12896179.19349  21450409.3134   21450411.3974   21450410.0194
       241.0004        196.0004
   2032250.64049   1588164.02449  24526320.9414   24526323.0144   24526320.5744
       211.0004        138.0004
 -19313132.58149 -14294778.12549  20726869.2634   20726872.5654   20726868.6354
       241.0004        196.0004
 -21013812.24549 -15787145.09949  21017058.5964   21017062.7514   21017058.9264
       241.0004        198.0004
 -12259839.50549  -9245929.37749  22648545.2144   22648548.4094   22648545.9764
       226.0004        162.0004
 -21570212.79749 -16789240.22149  20591046.3334   20591048.3404   20591046.3124
       241.0004        204.0004
 -15142083.85149 -11772863.53849  22143209.1164   22143210.3784   22143209.1534
       230.0004        175.0004
   2817692.50549   2211449.59549  24516554.2664   24516558.0354   24516554.8064
       204.0004        133.0004
 11 10 12  0 14  0.0000000  0  9G26G05G16G10G08G13G07G02G04
  -6041729.53849  -4688282.57549  23326105.2314   23326106.1004   23326104.6884
       216.0004        151.0004
 -16637924.64349 -12945221.48149  21438432.6954   21438435.2934   21438432.9954
       240.0004        197.0004
   2090558.40249   1633598.61649  24537416.1984   24537417.6234   24537417.0494
       205.0004        136.0004
 -19257551.52149 -14251468.22949  20737445.9634   20737449.3524   20737445.5644
       242.0004        195.0004
 -21066928.69749 -15828534.52849  21006951.3994   21006955.1594   21006951.6454
       241.0004        198.0004
 -12170655.90849  -9176435.66349  22665516.9314   22665518.6554   22665516.7724
       227.0004        161.0004
 -21557344.38149 -16779212.88049  20593494.6954   20593497.3344   20593495.1254
       241.0004        205.0004
 -15077531.76149 -11722563.24149  22155493.4404   22155493.7064   22155492.7524
       230.0004        174.0004
   2927566.70649   2297065.83149  24537461.4724   24537466.8014   24537461.7114
       208.0004        137.0004
 11 10 12  0 14 30.0000000  0  9G26G05G16G10G08G13G07G02G04
  -6147060.65749  -4770358.68549  23306060.4954   23306063.2044   23306059.5644
       213.0004        150.0004
 -16700469.17549 -12993957.47949  21426530.2984   21426533.1044   21426531.0044
       239.0004        196.0004
   2149370.39949   1679426.11849  24548609.2754   24548611.4674   24548608.0654
       206.0004        136.0004
 -19201514.94249 -14207803.37949  20748108.6504   20748112.2934   20748108.8504
       240.0004        195.0004
 -21119559.54349 -15869545.54449  20996936.3524   20996940.0264   20996936.0434
       241.0004        198.0004
 -12081311.48349  -9106816.63849  22682517.3724   22682519.9214   22682518.7214
       224.0004        160.0004
 -21543924.58549 -16768755.89049  20596048.5084   20596050.8574   20596049.1404
       242.0004        205.0004
 -15012507.21249 -11671894.78049  22167868.1634   22167868.2864   22167866.9964
       231.0004        173.0004
   3037460.39049   2382697.25249  24558374.5234   24558378.9964   24558375.6724
       210.0004        142.0004
 11 10 12  0 15  0.0000000  0  9G26G05G16G10G08G13G07G02G04
  -6252228.18349  -4852307.37149  23286047.8194   23286049.5714   23286046.9504
       216.0004        147.0004
 -16762618.37249 -13042385.42149  21414703.3674   21414706.1324   21414704.2584
       239.0004        196.0004
   2208684.43649   1725644.85449  24559895.0544   24559897.2654   24559893.4234
       205.0004        137.0004
 -19145023.59549 -14163784.16749  20758858.9354   20758862.4184   20758858.4134
       241.0004        196.0004
 -21171703.68649 -15910177.33649  20987013.8044   20987016.7034   20987013.3384
       241.0004        198.0004
 -11991807.36049  -9037073.20849  22699550.1074   22699551.6674   22699549.6744
       224.0004        158.0004
 -21529954.65649 -16757870.19849  20598706.9804   20598709.0364   20598707.0274
       241.0004        204.0004
 -14947012.65749 -11620860.08549  22180330.1214   22180331.0794   22180331.0504
       230.0004        174.0004
   3147371.18049   2468342.00549  24579287.5654   24579292.6414   24579287.1524
       201.0004        135.0004
 11 10 12  0 15 30.0000000  0  9G26G05G16G10G08G13G07G02G04
  -6357231.16949  -4934127.87149  23266066.0624   23266069.5724   23266065.5204
       214.0004        149.0004
 -16824370.83849 -13090504.22649  21402952.9334   21402955.3284   21402953.6154
       240.0004        196.0004
   2268498.30049   1772253.08049  24571278.0534   24571280.6454   24571278.9344
       208.0004        136.0004
 -19088079.21449 -14119411.95149  20769696.2984   20769698.5644   20769695.2014
       241.0004        195.0004
 -21223360.65349 -15950429.50249  20977183.0374   20977186.9024   20977183.0704
       243.0004        198.0004
 -11902145.21049  -8967206.60049  22716611.9904   22716614.5094   22716613.1854
       225.0004        160.0004
 -21515435.19449 -16746556.33049  20601469.7754   20601472.2204   20601470.1234
       241.0004        204.0004
 -14881051.42049 -11569461.73149  22192883.9494   22192883.4394   22192882.6804
       231.0004        173.0004
   3257296.18249   2553997.74049  24600206.9854   24600208.1734   24600206.7264
       208.0004        131.0004
 11 10 12  0 16  0.0000000  0  9G26G05G16G10G08G13G07G02G04
  -6462068.00749  -5015818.87049  23246116.7424   23246120.1654   23246116.3764
       212.0004        149.0004
 -16885724.17349 -13138312.01549  21391278.3484   21391280.0784   21391278.5664
       239.0004        197.0004
   2328810.17349   1819249.30249  24582756.1254   24582757.0014   24582753.7244
       210.0004        136.0004
 -19030682.47849 -14074687.24349  20780617.5974   20780621.1664   20780617.2324
       241.0004        195.0004
 -21274528.84549 -15990300.80749  20967446.8264   20967449.5214   20967446.7004
       243.0004        198.0004
 -11812325.84949  -8897217.49249  22733703.9724   22733706.6894   22733704.2254
       223.0004        158.0004
 -21500367.24949 -16734815.06249  20604336.9334   20604339.6434   20604337.4684
       241.0004        204.0004
 -14814625.36249 -11517701.17749  22205524.2344   22205523.5954   22205522.7534
       230.0004        173.0004
   3367232.51149   2639662.51649  24621128.0324   24621129.9354   24621128.0624
       210.0004        137.0004
 11 10 12  0 16 30.0000000  0  9G26G05G16G10G08G13G07G02G04
  -6566737.98849  -5097379.81549  23226198.1084   23226202.1644   23226198.8274
       217.0004        154.0004
 -16946676.88149 -13185807.63249  21379679.3204   21379681.1204   21379679.3414
       239.0004        196.0004
   2389617.68449   1866631.75149  24594325.6944   24594327.7364   24594326.8894
       207.0004        136.0004
 -18972834.78049 -14029611.13249  20791626.0224   20791628.8234   20791625.2314
       241.0004        195.0004
 -21325207.38749 -16029790.55449  20957803.5404   20957805.9934   20957802.5694
       244.0004        198.0004
 -11722350.62549  -8827106.92249  22750825.8604   22750828.4054   22750825.8044
       225.0004        158.0004
 -21484752.21849 -16722647.50949  20607309.1224   20607311.2054   20607308.9364
       242.0004        204.0004
 -14747737.64649 -11465580.89649  22218250.2374   22218252.2844   22218250.4924
       226.0004        172.0004
   3477177.40349   2725333.84449  24642047.8964   24642053.2214   24642046.3254
       203.0004        135.0004
 11 10 12  0 17  0.0000000  0  9G26G05G16G10G08G13G07G02G04
  -6671239.89049  -5178809.84849  23206310.7464   23206314.7624   23206311.8394
       211.0004        149.0004
 -17007226.53049 -13232989.17149  21368156.4914   21368158.4044   21368157.1354
       239.0004        195.0004
   2450918.43249   1914398.54949  24605990.9834   24605991.8984   24605987.4354
       203.0004        133.0004
 -18914537.52349 -13984184.72149  20802719.5114   20802722.6764   20802718.7234
       241.0004        195.0004
 -21375395.74049 -16068898.36049  20948251.6184   20948255.4664   20948252.2664
       244.0004        199.0004
 -11632220.74849  -8756875.85949  22767976.8814   22767979.7954   22767977.3884
       223.0004        155.0004
 -21468591.24849 -16710054.54449  20610383.7264   20610386.2514   20610384.1584
       241.0004        204.0004
 -14680390.71649 -11413102.80849  22231067.0824   22231067.6664   22231066.9124
       228.0004        173.0004
   3587128.48949   2811009.83749  24662971.5684   24662976.5304   24662971.2464
       204.0004        132.0004
 11 10 12  0 17 30.0000000  0  9G26G05G16G10G08G13G07G02G04
  -6775571.62449  -5260107.27049  23186457.9834   23186459.7604   23186458.1564
       215.0004        146.0004
 -17067370.55449 -13279854.65249  21356712.3464   21356713.4404   21356712.1374
       240.0004        195.0004
   2512711.24949   1962548.76849  24617750.9934   24617751.3254   24617752.2604
       204.0004        133.0004
 -18855790.77449 -13938408.05149  20813898.5644   20813901.4984   20813897.9824
       241.0004        195.0004
 -21425092.03949 -16107622.72749  20938796.1804   20938798.6774   20938795.2654
       244.0004        199.0004
 -11541937.03349  -8686524.91249  22785156.5554   22785159.9904   22785158.6444
       222.0004        157.0004
 -21451884.69649 -16697036.44549  20613562.9574   20613565.7114   20613563.5044
       241.0004        204.0004
 -14612586.62949 -11360268.47549  22243970.3224   22243970.4024   22243968.6924
       230.0004        173.0004
   3697083.30549   2896688.91149  24683896.1414   24683893.0404   24683895.3244
       206.0004        131.0004
 11 10 12  0 18  0.0000000  0  9G26G05G16G10G08G13G07G02G04
  -6879732.27549  -5341271.40849  23166639.0214   23166639.1974   23166638.0114
       218.0004        151.0004
 -17127107.66549 -13326403.03949  21345343.7014   21345346.7464   21345344.0084
       237.0004        195.0004
   2574993.83249   2011080.61749  24629602.0264   24629602.8624   24629603.3804
       202.0004        131.0004
 -18796596.26349 -13892282.47449  20825162.3864   20825166.1804   20825162.2524
       241.0004        195.0004
 -21474295.48849 -16145963.06649  20929432.2974   20929435.2754   20929432.2264
       244.0004        199.0004
 -11451500.86249  -8616055.16949  22802366.9904   22802370.0414   22802367.1624
       222.0004        158.0004
 -21434633.97049 -16683594.31749  20616845.4494   20616848.1864   20616845.8974
       241.0004        204.0004
 -14544328.69049 -11307080.48449  22256958.7144   22256958.8004   22256957.7604
       229.0004        171.0004
   3807039.23749   2982369.00849  24704815.9534   24704825.8474   24704818.7704
       196.0004        132.0004
 11 10 12  0 18 30.0000000  0  9G26G05G16G10G08G13G07G02G04
  -6983720.57349  -5422301.17449  23146848.8264   23146851.7124   23146848.7944
       217.0004        152.0004
 -17186435.47549 -13372632.50249  21334054.2024   21334057.0634   21334055.1794
       239.0004        196.0004
   2637763.86749   2059992.34249  24641544.4574   24641546.2774   24641544.0024
       199.0004        130.0004
 -18736954.85149 -13845808.67249  20836512.4574   20836515.7754   20836511.7134
       242.0004        195.0004
 -21523005.08549 -16183918.58249  20920163.8654   20920166.5744   20920162.9824
       244.0004        200.0004
 -11360913.05149  -8545467.27849  22819604.5554   22819607.5554   22819605.7374
       221.0004        157.0004
 -21416839.84049 -16669728.74149  20620231.7874   20620234.4884   20620232.4674
       241.0004        204.0004
 -14475618.94349 -11253540.44549  22270032.8134   22270034.6394   22270033.4164
       227.0004        170.0004
   3916993.44249   3068047.45349  24725741.4104   24725750.9024   24725742.7264
       201.0004        137.0004
 11 10 12  0 19  0.0000000  0  9G26G05G16G10G08G13G07G02G04
  -7087535.41649  -5503195.81849  23127093.5144   23127097.0494   23127093.2304
       217.0004        152.0004
 -17245352.64549 -13418541.98849  21322843.0024   21322844.7594   21322843.5024
       239.0004        196.0004
   2701018.98549   2109282.04049  24653584.5234   24653585.9644   24653585.4794
       202.0004        130.0004
 -18676868.18949 -13798987.92449  20847946.1674   20847949.5844   20847945.7324
       241.0004        195.0004
 -21571220.29649 -16221488.86049  20910987.4424   20910991.2514   20910987.8604
       243.0004        199.0004
 -11270175.18949  -8474762.45749  22836872.2804   22836874.3424   22836871.9164
       224.0004        159.0004
 -21398503.38049 -16655440.60049  20623721.0834   20623723.6174   20623721.4994
       242.0004        204.0004
 -14406460.53349 -11199650.79949  22283194.5314   22283195.9004   22283194.4544
       227.0004        171.0004
   4026943.04849   3153722.39549  24746665.2044   24746668.5624   24746668.4804
       208.0004        136.0004
 11 10 12  0 19 30.0000000  0  9G26G05G16G10G08G13G07G02G04
  -7191174.67349  -5583953.67049  23107370.4504   23107373.2914   23107371.3504
       212.0004        149.0004
 -17303856.20849 -13464129.17949  21311709.6064   21311711.7004   21311710.1264
       239.0004        196.0004
   2764757.64749   2158948.47649  24665712.3504   24665716.5624   24665712.6594
       202.0004        129.0004
 -18616336.71349 -13751820.55949  20859465.4404   20859468.4274   20859464.5524
       242.0004        195.0004
 -21618939.20349 -16258672.41249  20901908.5834   20901910.8364   20901907.3014
       245.0004        200.0004
 -11179287.52849  -8403940.91649  22854168.5114   22854169.9864   22854168.0334
       226.0004        157.0004
 -21379625.51349 -16640730.57349  20627314.0124   20627315.9354   20627314.2334
       242.0004        204.0004
 -14336855.69249 -11145413.29249  22296439.6524   22296440.8844   22296439.9034
       227.0004        172.0004
   4136886.48149   3239392.69349  24767587.1754   24767590.3074   24767588.2124
       199.0004        127.0004
 11 10 12  0 20  0.0000000  0  9G26G05G16G10G08G13G07G02G04
  -7294638.17949  -5664574.53849  23087683.1934   23087686.4064   23087683.2014
       220.0004        152.0004
 -17361945.19249 -13509393.31249  21300654.9314   21300658.5264   21300655.5384
       238.0004        196.0004
   2828977.00649   2208989.56949  24677933.7364   24677937.3504   24677933.4184
       200.0004        130.0004
 -18555362.22649 -13704308.00249  20871069.0394   20871071.8654   20871068.1494
       241.0004        195.0004
 -21666161.95649 -16295469.34349  20892920.9614   20892924.3124   20892921.0304
       243.0004        200.0004
 -11088252.33649  -8333004.40649  22871491.6774   22871493.0284   22871491.2914
       227.0004        159.0004
 -21360207.93549 -16625599.98949  20631008.7744   20631010.9024   20631009.6534
       242.0004        204.0004
 -14266807.71549 -11090830.46549  22309769.1674   22309770.1204   22309768.1354
       229.0004        171.0004
   4246819.98049   3325055.15849  24788504.5074   24788515.7014   24788505.5594
       199.0004        131.0004
 11 10 12  0 20 30.0000000  0  9G26G05G16G10G08G13G07G02G04
  -7397924.02549  -5745056.96349  23068028.9034   23068031.1214   23068028.3084
       217.0004        154.0004
 -17419616.80949 -13554332.23449  21289681.2444   21289683.7784   21289681.7264
       238.0004        197.0004
   2893675.51049   2259403.96849  24690245.8634   24690245.9974   24690243.1964
       204.0004        133.0004
 -18493945.28949 -13656450.66849  20882755.4044   20882758.9024   20882754.9254
       242.0004        195.0004
 -21712886.38249 -16331877.96649  20884030.0834   20884033.3294   20884029.8094
       244.0004        200.0004
 -10997069.93449  -8261953.18949  22888842.2464   22888844.8714   22888842.3824
       226.0004        159.0004
 -21340251.58849 -16610049.58049  20634806.1444   20634808.2544   20634806.5584
       242.0004        204.0004
 -14196318.55849 -11035903.87449  22323181.9914   22323184.7064   22323182.0974
       226.0004        170.0004
   4356741.72749   3410708.34649  24809421.9154   24809429.7694   24809425.3754
       205.0004        143.0004
 11 10 12  0 21  0.0000000  0  9G26G05G16G10G08G13G07G02G04
  -7501031.29249  -5825400.23449  23048407.9374   23048409.6644   23048407.9574
       218.0004        151.0004
 -17476869.49349 -13598944.71949  21278786.7824   21278789.1134   21278787.0774
       239.0004        197.0004
   2958850.44549   2310189.58549  24702648.5744   24702650.3224   24702648.9304
       206.0004        133.0004
 -18432087.48349 -13608249.80649  20894527.3794   20894529.9634   20894526.2274
       241.0004        194.0004
 -21759112.00849 -16367897.91349  20875233.4314   20875236.7534   20875233.0034
       244.0004        200.0004
 -10905741.83249  -8190788.44549  22906222.8104   22906224.6844   22906221.9284
       223.0004        156.0004
 -21319757.34849 -16594080.01549  20638705.7494   20638708.6344   20638706.6044
       241.0004        204.0004
 -14125391.33049 -10980635.92349  22336678.8904   22336681.3224   22336679.5054
       226.0004        168.0004
   4466648.52549   3496349.99849  24830336.4624   24830340.4984   24830337.2054
       195.0004        131.0004
 11 10 12  0 21 30.0000000  0  9G26G05G16G10G08G13G07G02G04
  -7603958.09449  -5905602.92049  23028821.4944   23028824.3594   23028821.7584
       218.0004        153.0004
 -17533700.83949 -13643228.88149  21267971.3944   21267974.1554   21267971.6134
       239.0004        196.0004
   3024500.24449   2361345.21349  24715140.3024   24715143.2864   24715139.8584
       206.0004        135.0004
 -18369789.47149 -13559705.91549  20906381.1334   20906385.1914   20906380.9784
       241.0004        195.0004
 -21804837.67149 -16403528.28149  20866533.0574   20866535.5214   20866532.4114
       245.0004        201.0004
 -10814268.61949  -8119510.61449  22923627.6184   22923630.1564   22923628.5254
       222.0004        156.0004
 -21298726.11849 -16577692.04749  20642708.2214   20642710.4264   20642708.6734
       241.0004        205.0004
 -14054028.27049 -10925028.37649  22350259.7304   22350259.5514   22350258.3734
       227.0004        167.0004
   4576538.56849   3581978.56449  24851249.0934   24851253.4304   24851253.3104
       202.0004        125.0004
 11 10 12  0 22  0.0000000  0  9G26G05G16G10G08G13G07G02G04
  -7706703.41949  -5985664.17849  23009269.4304   23009272.3384   23009268.7734
       216.0004        151.0004
 -17590109.19849 -13687183.44049  21257237.6254   21257239.8404   21257237.9434
       240.0004        197.0004
   3090622.15849   2412868.74849  24727721.5894   24727725.1794   24727721.6194
       206.0004        133.0004
 -18307052.80249 -13510820.22149  20918320.4394   20918323.2114   20918319.6814
       242.0004        194.0004
 -21850063.24749 -16438768.96649  20857925.2414   20857929.0454   20857925.5414
       243.0004        200.0004
 -10722651.79049  -8048120.88349  22941061.7954   22941064.9814
       224.0004        156.0004
 -21277159.26349 -16560886.70149  20646812.3524   20646814.6324   20646812.8754
       242.0004        204.0004
 -13982232.83149 -10869083.88549  22363921.7024   22363922.7444   22363920.7954
       226.0004        169.0004
   4686408.48849   3667591.55549  24872157.8784   24872164.0914   24872159.3284
       207.0004        138.0004
 11 10 12  0 22 30.0000000  0  9G26G05G16G10G08G13G07G02G04
  -7809265.75649  -6065582.85349  22989752.6004   22989755.1434   22989753.5804
       219.0004        153.0004
 -17646092.15149 -13730806.52549  21246585.0244   21246587.7714   21246585.4014
       240.0004        198.0004
   3157214.47849   2464758.84949  24740395.9894   24740396.1964   24740394.8014
       207.0004        133.0004
 -18243878.55949 -13461593.56149  20930342.1604   20930345.1154   20930341.6854
       242.0004        194.0004
 -21894787.08549 -16473618.69149  20849415.3384   20849418.6584   20849415.1954
       244.0004        200.0004
 -10630891.96849  -7976619.72249  22958523.7384   22958526.2234   22958524.2124
       222.0004        157.0004
 -21255058.07049 -16543664.98649  20651018.3414   20651020.1204   20651018.5714
       242.0004        204.0004
 -13910007.15749 -10812804.17249  22377664.9634   22377667.5084   22377666.7434
       226.0004        170.0004
   4796256.31249   3753187.19249  24893062.7354   24893068.1254   24893062.2914
       202.0004        135.0004
 11 10 12  0 23  0.0000000  0  9G26G05G16G10G08G13G07G02G04
  -7911644.53449  -6145358.48049  22970270.1714   22970273.0924   22970270.9714
       219.0004        153.0004
 -17701648.53649 -13774097.19849  21236012.0804   21236014.9054   21236012.3134
       239.0004        197.0004
   3224274.16349   2517013.15849  24753156.3354   24753158.8184   24753155.2294
       203.0004        133.0004
 -18180268.69549 -13412027.44249  20942445.6624   20942449.4624   20942445.3294
       240.0004        194.0004
 -21939009.11849 -16508077.40449  20840999.6744   20841003.2424   20840999.3334
       243.0004        200.0004
 -10538991.04949  -7905008.63149  22976011.3394   22976015.5344   22976011.9894
       222.0004        156.0004
 -21232423.95649 -16526028.01649  20655325.2214   20655327.5644   20655325.5324
       242.0004        205.0004
 -13837354.32949 -10756191.60949  22391492.0134   22391491.8494   22391491.9834
       227.0004        167.0004
   4906078.99949   3838763.16949  24913959.6684   24913966.8844   24913958.4534
       200.0004        127.0004
 11 10 12  0 23 30.0000000  0  9G26G05G16G10G08G13G07G02G04
  -8013837.93249  -6224989.65949  22950823.9824   22950827.9774   22950824.7534
       218.0004        156.0004
 -17756776.08949 -13817053.74049  21225522.2004   21225523.6764   21225522.7944
       240.0004        197.0004
   3291799.59749   2569630.33649  24766005.7204   24766007.4174   24766003.2534
       205.0004        132.0004
 -18116223.72349 -13362122.29849  20954633.4584   20954637.1904   20954632.8344
       241.0004        194.0004
 -21982727.60749 -16542143.74349  20832680.5714   20832683.6724   20832680.4954
       244.0004        201.0004
 -10446949.69049  -7833288.12249  22993525.8444   22993529.5094   22993526.9744
       222.0004        155.0004
 -21209258.05249 -16507976.65949  20659733.4774   20659735.5344   20659733.6904
       242.0004        204.0004
 -13764277.41549 -10699248.57949  22405396.9704   22405397.9424   22405396.7644
       225.0004        165.0004
   5015873.99749   3924317.77449  24934851.9694   24934850.4714   24934854.2414
       209.0004        124.0004
 11 10 12  0 24  0.0000000  0  9G26G05G16G10G08G13G07G02G04
  -8115844.71349  -6304475.45049  22931413.3644   22931413.8374   22931412.2384
       220.0004        153.0004
 -17811472.82149 -13859674.57149  21215113.6024   21215115.8854   21215114.2554
       240.0004        198.0004
   3359788.09949   2622608.38549  24778944.0114   24778944.6804   24778943.9674
       202.0004        132.0004
 -18051745.22649 -13311879.33149  20966903.9944   20966906.8694   20966903.3444
       241.0004        193.0004
 -22025942.19049 -16575817.42949  20824456.8544   20824460.4084   20824457.0234
       243.0004        200.0004
 -10354769.21349  -7761459.21849  23011068.8114   23011069.8474   23011069.1654
       223.0004        156.0004
 -21185561.35249 -16489511.69349  20664243.1344   20664244.7844   20664243.5534
       243.0004        204.0004
 -13690779.15349 -10641977.21449  22419384.4384   22419384.9774   22419384.0294
       227.0004        166.0004
   5125638.70749   4009848.88049  24955742.1534   24955748.6104   24955741.0284
       204.0004        134.0004
 11 10 12  0 24 30.0000000  0  9G26G05G16G10G08G13G07G02G04
  -8217664.00849  -6383815.12749  22912037.6054   22912039.6294   22912036.8694
       218.0004        153.0004
 -17865736.88849 -13901958.25349  21204787.6314   21204790.1714   21204788.1494
       240.0004        198.0004
   3428237.10549   2675945.29949  24791968.0754   24791971.3414   24791971.3274
       202.0004        131.0004
 -17986834.39849 -13261299.47249  20979255.8794   20979259.3944   20979255.2574
       241.0004        192.0004
 -22068652.22149 -16609097.95949  20816329.9374   20816332.9854   20816329.7104
       244.0004        200.0004
 -10262450.86949  -7689522.84949  23028635.6994   23028638.8834   23028635.9274
       224.0004        157.0004
 -21161335.46949 -16470634.38049  20668852.7474   20668855.3344   20668853.4504
       242.0004        204.0004
 -13616862.39949 -10584379.74149  22433449.9204   22433450.6814   22433448.9774
       227.0004        169.0004
   5235370.73349   4095354.14949  24976619.7054   24976631.4144   24976622.5044
       197.0004        130.0004
 11 10 12  0 25  0.0000000  0  9G26G05G16G10G08G13G07G02G04
  -8319293.82349  -6463007.16349  22892698.5444   22892699.7014   22892697.1494
       219.0004        155.0004
 -17919566.31449 -13943903.24549  21194543.9624   21194546.5594   21194544.4124
       240.0004        198.0004
   3497145.01549   2729639.76449  24805081.1364   24805083.0814   24805080.4014
       204.0004        131.0004
 -17921492.53449 -13210383.74649  20991691.0634   20991692.9774   20991689.3904
       240.0004        192.0004
 -22110856.83049 -16641984.65149  20808298.7044   20808301.7774   20808298.2294
       243.0004        200.0004
 -10169995.42949  -7617479.66049  23046229.2244   23046231.8744   23046229.6864
       224.0004        154.0004
 -21136581.29749 -16451345.41849  20673563.4534   20673565.2604   20673563.9364
       243.0004        203.0004
 -13542529.45849 -10526458.00549  22447595.8234   22447596.1824   22447595.0544
       226.0004        168.0004
   5345067.27349   4180831.85149  24997497.8394   24997496.8134   24997501.1954
       214.0004        131.0004
 11 10 12  0 25 30.0000000  0  9G26G05G16G10G08G13G07G02G04
  -8420733.05249  -6542050.66949  22873394.0004   22873396.8034   22873394.0184
       220.0004        154.0004
 -17972958.86449 -13985507.83249  21184384.3054   21184385.9084   21184384.6784
       241.0004        199.0004
   3566509.54149   2783689.97149  24818280.6744   24818282.9774   24818282.6184
       205.0004        133.0004
 -17855720.38949 -13159132.74849  21004206.2394   21004209.1404   21004205.5184
       238.0004        192.0004
 -22152554.98049 -16674476.70249  20800362.8784   20800366.7754   20800363.2044
       243.0004        201.0004
 -10077403.36049  -7545330.02549  23063849.3244   23063852.5594   23063848.5364
       224.0004        152.0004
 -21111300.05249 -16431645.76049  20678374.7414   20678376.6964   20678374.7064
       242.0004        204.0004
 -13467782.79349 -10468213.88349  22461817.6354   22461819.4234   22461818.0764
       226.0004        168.0004
   5454726.38749   4266280.76449  25018368.5914   25018364.5664   25018364.5544
       207.0004        128.0004
 11 10 12  0 26  0.0000000  0  9G26G05G16G10G08G13G07G02G04
  -8521980.72849  -6620944.92649  22854127.5534   22854130.9654   22854127.3614
       220.0004        157.0004
 -18025913.16349 -14026770.93149  21174306.1804   21174309.0944   21174307.0444
       239.0004        198.0004
   3636328.08349   2838094.00449  24831568.2854   24831569.2944   24831567.5894
       206.0004        133.0004
 -17789520.06049 -13107548.10849  21016802.7164   21016806.9234   21016802.6784
       239.0004        193.0004
 -22193746.16549 -16706573.71849  20792525.3284   20792528.4204   20792524.9944
       244.0004        201.0004
  -9984676.80949  -7473075.58049  23081494.2304   23081495.4604   23081494.8504
       221.0004        151.0004
 -21085493.51949 -16411536.77949  20683284.7414   20683287.2174   20683285.4344
       242.0004        203.0004
 -13392626.14949 -10409650.30049  22476120.8884   22476122.0284   22476120.8764
       228.0004        167.0004
   5564345.24849   4351698.01249  25039225.8624                   25039224.5844
       198.0004        122.0004
 11 10 12  0 26 30.0000000  0  9G26G05G16G10G08G13G07G02G04
  -8623034.87249  -6699688.39049  22834896.1244   22834900.3834   22834896.7404
       217.0004        153.0004
 -18078426.94149 -14067690.73849  21164313.6564   21164316.3834   21164314.1264
       241.0004        199.0004
   3706598.70449   2892850.35249  24844940.1114   24844940.3864   24844940.8914
       207.0004        135.0004
 -17722892.22549 -13055630.34149  21029482.2724   21029485.7314   21029481.1584
       238.0004        191.0004
 -22234429.19749 -16738274.77049  20784783.2714   20784786.5444   20784783.6234
       244.0004        202.0004
  -9891815.98349  -7400716.53949  23099166.0994   23099168.0164   23099166.1294
       221.0004        152.0004
 -21059162.28449 -16391018.92749  20688295.6814   20688297.8364   20688295.7244
       242.0004        203.0004
 -13317061.47449 -10350768.72549  22490500.5934   22490501.0654   22490500.2634
       225.0004        166.0004
   5673921.24249   4437081.64449  25060076.5014   25060078.0704   25060077.3754
       214.0004        141.0004
 11 10 12  0 27  0.0000000  0  9G26G05G16G10G08G13G07G02G04
  -8723894.79949  -6778280.50849  22815705.2964   22815707.6154   22815705.2094
       219.0004        157.0004
 -18130498.18849 -14108265.73349  21154405.1274   21154407.5514   21154405.7554
       241.0004        199.0004
   3777318.29449   2947956.54249  24858395.8794   24858398.4464   24858398.0974
