     2.11           OBSERVATION DATA    G (GPS)             RINEX VERSION / TYPE
Linux 2.4.21-27.ELsmp|Opteron|gcc -static|Linux x86_64|=+   COMMENT
HEADER CHANGED BY EPN CB ON 2011-10-11                      COMMENT
TO BE CONFORM WITH THE INFORMATION IN                       COMMENT
ftp://epncb.oma.be/pub/station/log/brus.log                 COMMENT
                                                            COMMENT
teqc  2010Oct21                         20111011 00:01:17UTCPGM / RUN BY / DATE
teqc  2010Oct21                         20111011 00:01:02UTCCOMMENT
teqc  2010Oct21                         20111010 01:01:02UTCCOMMENT
BIT 2 OF LLI FLAGS DATA COLLECTED UNDER A/S CONDITION       COMMENT
BRUS                                                        MARKER NAME
13101M004                                                   MARKER NUMBER
Carine Bruyninx     ROB                                     OBSERVER / AGENCY
RT919994505         ASHTECH Z-XII3T     1L01-1D04           REC # / TYPE / VERS
CR519994604         ASH701945B_M    NONE                    ANT # / TYPE
  4027894.0130   307045.5980  4919474.9120                  APPROX POSITION XYZ
        3.9702        0.0000        0.0000                  ANTENNA: DELTA H/E/N
     1     1                                                WAVELENGTH FACT L1/2
     7    L1    L2    C1    P2    P1    S1    S2            # / TYPES OF OBSERV
    30.0000                                                 INTERVAL
 SNR is mapped to RINEX snr flag value [0-9]                COMMENT
  L1 & L2: min(max(int(snr_dBHz/6), 0), 9)                  COMMENT
pseudorange smoothing corrections not applied               COMMENT
COORDINATES IN ETRF2000                                     COMMENT
Forced Modulo Decimation to 30 seconds                      COMMENT
  2011    10    10     0     0    0.0000000     GPS         TIME OF FIRST OBS
                                                            END OF HEADER
 11 10 10  0  0  0.0000000  0 11G23G29G26G05G10G16G07G08G13G02G04
  -5925675.48049  -3511769.61949  24136776.3884   24136772.7274   24136771.0954
       199.0004        123.0004
    152934.79449    106247.06649  25247758.4194   25247759.2674   25247760.1384
       205.0004        133.0004
   -662579.82049   -493799.99049  24243559.8724   24243565.5554   24243559.9534
       198.0004        135.0004
 -15463389.14849 -12016559.05249  22029110.9534   22029112.5254   22029111.0274
       230.0004        184.0004
 -20980366.06849 -16088263.93049  20353094.7104   20353097.4884   20353093.9244
       238.0004        199.0004
       338.76849      6615.05649  24137061.9144   24137063.7224   24137063.1884
       211.0004        142.0004
 -22958767.26049 -17868974.17949  20587394.4344   20587396.7654   20587394.9624
       238.0004        203.0004
 -18295855.15849 -13938410.98349  21536415.5574   21536418.6414   21536415.2124
       236.0004        189.0004
 -16204056.05449 -12608697.87949  21952595.0014   21952598.4144   21952594.6014
       229.0004        174.0004
 -16623286.88249 -12666838.64449  21703048.0384   21703048.2384   21703048.3294
       232.0004        183.0004
  -2760092.97949  -1858635.63349  23624421.4724   23624423.2874   23624420.2074
       220.0004        152.0004
 11 10 10  0  0 30.0000000  0 11G23G29G26G05G10G16G07G08G13G02G04
  -5829015.47649  -3436450.26749  24155168.6154                   24155165.8564
       183.0004        117.0004
    186115.64149    132102.28949  25254071.3984   25254072.8004   25254070.8014
       197.0004        130.0004
   -773898.96349   -580542.11049  24222380.0934   24222382.4164   24222380.5844
       210.0004        141.0004
 -15541249.88949 -12077229.74749  22014296.0744   22014296.3874   22014295.4474
       232.0004        185.0004
 -20945427.19849 -16061038.81349  20359742.8264   20359746.0144   20359742.2254
       238.0004        199.0004
     34896.84849     33543.44449  24143637.2304   24143638.0504   24143640.1354
       208.0004        140.0004
 -22970492.80449 -17878110.95749  20585163.3464   20585165.4194   20585163.9074
       238.0004        203.0004
 -18368603.99349 -13995098.37049  21522571.1104   21522574.9864   21522571.6804
       235.0004        188.0004
 -16122913.18449 -12545469.65149  21968035.1854   21968037.4714   21968036.0554
       228.0004        172.0004
 -16581569.64149 -12634331.74049  21710986.1024   21710986.7324   21710985.9964
       232.0004        182.0004
  -2653664.70149  -1775704.52249  23644674.5174   23644674.6524   23644671.7854
       218.0004        148.0004
 11 10 10  0  1  0.0000000  0 11G23G29G26G05G10G16G07G08G13G02G04
  -5732277.54759  -3361070.06659  24173571.3674
       176.0004        111.0004
    219779.61649    158334.01649  25260476.9074   25260476.5984   25260480.4904
       200.0004        125.0004
   -885109.48649   -667199.73049  24201216.1124   24201220.1864   24201218.1804
       205.0004        134.0004
 -15618806.59149 -12137663.54249  21999536.1284   21999538.1674   21999536.6084
       230.0004        185.0004
 -20909999.89749 -16033433.13049  20366485.0584   20366488.1034   20366484.0674
       239.0004        199.0004
     70028.95549     60919.11149  24150323.7204   24150323.6954   24150324.6974
       208.0004        139.0004
 -22981644.45649 -17886800.54349  20583041.2574   20583043.4014   20583041.2804
       238.0004        204.0004
 -18440929.11249 -14051455.58049  21508809.3634   21508811.6164   21508809.0204
       237.0004        190.0004
 -16041555.35349 -12482073.97949  21983518.2894   21983519.8824   21983518.7754
       229.0004        171.0004
 -16539286.06849 -12601383.56149  21719032.4894   21719033.0204   21719032.4494
       231.0004        182.0004
  -2547097.77849  -1692665.37249  23664951.4004   23664956.2004   23664952.0634
       214.0004        150.0004
 11 10 10  0  1 30.0000000  0 11G23G29G26G05G10G16G07G08G13G02G04
  -5635465.12949  -3285631.80349  24191998.2034
       186.0004        113.0004
    253924.23449    184940.20649  25266976.9754   25266981.0194   25266977.9704
       195.0004        127.0004
   -996210.87649   -753772.26849  24180072.6134   24180074.4024   24180070.8084
       200.0004        131.0004
 -15696057.75549 -12197859.24549  21984835.1404   21984837.8044   21984836.1994
       231.0004        185.0004
 -20874085.08649 -16005447.56649  20373318.2584   20373321.7254   20373318.1314
       237.0004        199.0004
    105733.36549     88740.71549  24157117.5554   24157116.8934   24157117.4594
       211.0004        140.0004
 -22992223.23349 -17895043.73549  20581028.0674   20581030.4514   20581028.8164
       239.0004        204.0004
 -18512829.65149 -14107481.96649  21495127.1964   21495129.1904   21495126.3384
       236.0004        189.0004
 -15959985.07749 -12418512.74949  21999041.7914   21999042.1894   21999041.2764
       231.0004        173.0004
 -16496438.17149 -12567995.64349  21727186.5824   21727186.9714   21727186.2654
       233.0004        182.0004
  -2440395.73949  -1609520.92749  23685253.3464   23685259.4924   23685255.0704
       215.0004        152.0004
 11 10 10  0  2  0.0000000  0 11G23G29G26G05G10G16G07G08G13G02G04
  -5538578.41759     16866.38659  24210438.0374
       177.0004         74.0004
    288548.04949    211919.72749  25273564.7674   25273566.2234   25273567.6394
       196.0004        126.0004
  -1107202.02549   -840258.80449  24158954.3874   24158957.5944   24158954.1654
       212.0004        143.0004
 -15773001.68749 -12257815.55649  21970194.9994   21970195.6194   21970194.8114
       233.0004        187.0004
 -20837683.37049 -15977082.59849  20380246.9164   20380249.3994   20380245.8744
       239.0004        199.0004
    142008.81149    117007.30349  24164020.5464   24164023.8044   24164020.5824
       211.0004        143.0004
 -23002229.24849 -17902840.62149  20579124.0254   20579126.3684   20579124.2534
       238.0004        204.0004
 -18584303.80049 -14163176.09049  21481526.0294   21481528.7274   21481525.6304
       237.0004        190.0004
 -15878203.19549 -12354786.61249  22014602.0394   22014604.1264   22014603.2564
       228.0004        169.0004
 -16453027.96649 -12534169.56349  21735447.5484   21735447.7704   21735447.1674
       230.0004        181.0004
  -2333561.28749  -1526273.33249  23705582.0284   23705590.7874   23705585.1544
       211.0004        149.0004
 11 10 10  0  2 30.0000000  0 11G23G29G26G05G10G16G07G08G13G02G04
  -5441617.78259     92445.55259  24228887.8174
       168.0004        107.0004
    323649.79149    239271.77949  25280243.5664   25280243.7994   25280241.0244
       197.0004        126.0004
  -1218081.07049   -926658.11149  24137853.8114   24137857.9114   24137853.3894
       204.0004        134.0004
 -15849635.71549 -12317530.38149  21955611.1354   21955612.8874   21955611.9094
       233.0004        186.0004
 -20800794.81849 -15948338.25649  20387266.1094   20387269.0194   20387264.9924
       239.0004        199.0004
    178854.32949    145718.10349  24171032.2344   24171035.1564   24171030.7354
       212.0004        146.0004
 -23011662.00349 -17910190.81549  20577329.1184   20577331.4224   20577329.4234
       239.0004        204.0004
 -18655349.50549 -14218536.35349  21468006.1174   21468009.2834   21468005.3014
       236.0004        190.0004
 -15796210.41049 -12290896.14249  22030204.8244   22030207.8274   22030206.4214
       229.0004        171.0004
 -16409056.91349 -12499906.43049  21743813.6314   21743814.8314   21743814.5684
       230.0004        180.0004
  -2226596.89949  -1442924.49249  23725939.1444   23725942.4584   23725941.4704
       214.0004        147.0004
 11 10 10  0  3  0.0000000  0 10G29G26G05G10G16G07G08G13G02G04
    359228.09849    266995.14849  25287012.7904   25287015.8674   25287018.5304
       189.0004        123.0004
  -1328846.97249  -1012969.30349  24116774.6584   24116778.8514   24116774.3984
       205.0004        136.0004
 -15925957.39649 -12377001.82649  21941087.6404   21941088.9164   21941088.3004
       233.0004        186.0004
 -20763419.72649 -15919214.80749  20394378.0794   20394380.8024   20394377.3264
       238.0004        199.0004
    216268.94349    174872.32849  24178151.8664   24178154.1774   24178153.5864
       208.0004        142.0004
 -23020521.81649 -17917094.56349  20575642.7744   20575645.1284   20575643.4394
       239.0004        204.0004
 -18725964.73649 -14273561.20149  21454567.8264   21454572.1854   21454568.3374
       236.0004        191.0004
 -15714008.37949 -12226842.64249  22045849.0594   22045850.2844   22045848.6244
       228.0004        171.0004
 -16364526.61349 -12465207.59349  21752289.2354   21752289.4154   21752289.2404
       231.0004        181.0004
  -2119505.37049  -1359476.52149  23746319.8844   23746322.9144   23746320.2164
       217.0004        149.0004
 11 10 10  0  3 30.0000000  0 10G29G26G05G10G16G07G08G13G02G04
    395280.84449    295088.15349  25293874.2814   25293877.4414   25293875.5694
       191.0004        122.0004
  -1439498.54149  -1099191.25249  24095719.2944   24095724.4154   24095720.5234
       207.0004        147.0004
 -16001965.13049 -12436228.61649  21926624.0484   21926626.1804   21926624.1194
       233.0004        187.0004
 -20725559.29049 -15889713.18049  20401583.3644   20401585.3124   20401582.6794
       239.0004        199.0004
    254251.14349    204468.86549  24185381.0134   24185381.2204   24185380.7124
       209.0004        142.0004
 -23028808.63249 -17923551.80849  20574066.4124   20574068.0964   20574066.5854
       238.0004        203.0004
 -18796148.36349 -14328249.72449  21441213.0984   21441215.9214   21441212.5714
       236.0004        191.0004
 -15631598.64549 -12162627.29649  22061530.3074   22061531.6764   22061530.5194
       229.0004        170.0004
 -16319439.03649 -12430074.47049  21760867.7014   21760868.8804   21760868.0934
       231.0004        182.0004
  -2012289.66849  -1275931.85849  23766721.8264   23766724.6684   23766720.8504
       216.0004        148.0004
 11 10 10  0  4  0.0000000  0 10G29G26G05G10G16G07G08G13G02G04
    431806.13449    323549.43049  25300825.2374   25300830.5614   25300824.3084
       190.0004        123.0004
  -1550034.70249  -1185323.21949  24074685.4804   24074688.4794   24074685.8214
       205.0004        143.0004
 -16077656.98949 -12495209.26449  21912219.1604   21912222.5104   21912220.0764
       231.0004        188.0004
 -20687213.87449 -15859833.65849  20408879.9404   20408882.4994   20408878.9804
       238.0004        199.0004
    292799.83749    234506.81749  24192715.2974   24192715.7904   24192713.3004
       207.0004        138.0004
 -23036522.89249 -17929562.91549  20572598.1614   20572600.3684   20572598.8014
       239.0004        204.0004
 -18865898.89049 -14382600.76949  21427939.3914   21427943.1444   21427939.5574
       237.0004        191.0004
 -15548982.67749 -12098251.23049  22077251.1494   22077254.4904   22077252.1784
       230.0004        172.0004
 -16273796.24449 -12394508.73249  21769554.1404   21769554.2884   21769554.0844
       231.0004        180.0004
  -1904952.47549  -1192292.55249  23787147.8424   23787150.2364   23787148.0144
       216.0004        148.0004
 11 10 10  0  4 30.0000000  0 10G29G26G05G10G16G07G08G13G02G04
    468803.02249    352378.20649  25307863.5524                   25307867.6614
       192.0004        123.0004
  -1660453.83349  -1271364.14249  24053672.9714   24053676.1494   24053670.3834
       202.0004        132.0004
 -16153030.32149 -12553941.70849  21897877.1044   21897879.2684   21897877.9644
       233.0004        189.0004
 -20648383.47249 -15829576.22049  20416268.2874   20416271.8444   20416268.1204
       239.0004        199.0004
    331913.99649    264985.35449  24200160.2074   24200158.0504   24200158.9324
       212.0004        140.0004
 -23043664.34349 -17935127.66849  20571239.3414   20571241.0954   20571239.7084
       238.0004        204.0004
 -18935213.89549 -14436612.44049  21414749.6844   21414752.6154   21414749.0764
       237.0004        191.0004
 -15466161.09749 -12033714.95449  22093013.0374   22093014.3634   22093012.8364
       230.0004        171.0004
 -16227599.63549 -12358511.44649  21778344.2814   21778345.5874   21778344.6254
       228.0004        180.0004
  -1797496.38049  -1108560.51949  23807594.6284   23807598.4924   23807594.1324
       214.0004        143.0004
 11 10 10  0  5  0.0000000  0 10G29G26G05G10G16G07G08G13G02G04
    506268.74249    381572.26949  25314993.0224   25314997.0224   25314996.7254
       185.0004        126.0004
  -1770755.02449  -1357313.18649  24032681.2804   24032686.2384   24032681.8534
       204.0004        134.0004
 -16228083.53849 -12612424.74349  21883595.3504   21883595.9654   21883595.8864
       233.0004        188.0004
 -20609069.19349 -15798941.73949  20423750.0134   20423752.7044   20423749.3354
       238.0004        199.0004
    371591.92949    295903.20649  24207709.5844   24207710.1674   24207709.0664
       211.0004        140.0004
 -23050233.93449 -17940246.81449  20569989.5594   20569991.0534   20569989.6914
       239.0004        204.0004
 -19004092.32449 -14490283.92749  21401641.7384   21401645.3664   21401642.1404
       237.0004        191.0004
 -15383135.60949 -11969019.79149  22108811.4464   22108813.7324   22108812.2904
       229.0004        170.0004
 -16180851.42549 -12322084.32349  21787240.2054   21787242.0904   21787240.5474
       230.0004        180.0004
  -1689924.59649  -1024738.32549  23828064.4214   23828069.8104   23828065.6654
       210.0004        147.0004
 11 10 10  0  5 30.0000000  0 10G29G26G05G10G16G07G08G13G02G04
    544202.16849    411130.75249  25322212.5624   25322215.2614   25322210.7064
       191.0004        123.0004
  -1880936.91449  -1443169.15749  24011715.8764   24011720.8144   24011717.2764
       207.0004        143.0004
 -16302814.32749 -12670656.51449  21869372.5684   21869376.0874   21869373.4704
       230.0004        186.0004
 -20569271.35549 -15767930.44449  20431322.7084   20431326.6154   20431322.4514
       238.0004        199.0004
    411832.26349    327259.33349  24215367.7804   24215367.5134   24215366.5964
       211.0004        140.0004
 -23056231.59049 -17944920.29749  20568846.9024   20568849.6904   20568847.7434
       237.0004        204.0004
 -19072532.19049 -14543613.69149  21388618.5514   21388621.9134   21388618.5494
       237.0004        191.0004
 -15299907.58749 -11904166.81249  22124648.5424   22124650.7544   22124649.3874
       229.0004        170.0004
 -16133553.20549 -12285228.60549  21796241.4814   21796241.3924   21796241.2364
       229.0004        180.0004
  -1582239.87049   -940828.23049  23848555.4944   23848560.9944   23848556.4614
       212.0004        144.0004
 11 10 10  0  6  0.0000000  0 10G29G26G05G10G16G07G08G13G02G04
    582601.47049    441052.24649  25329523.3434   25329520.2674   25329523.1174
       188.0004        124.0004
  -1990998.11149  -1528931.09949  23990770.4554   23990776.5734   23990770.4484
       196.0004        135.0004
 -16377220.29949 -12728635.18749  21855214.3834   21855217.3874   21855215.2744
       232.0004        189.0004
 -20528990.36349 -15736542.68249  20438988.9494   20438991.4234   20438988.2594
       239.0004        199.0004
    452634.24349    359053.12049  24223130.7954   24223131.2014   24223130.3174
       209.0004        140.0004
 -23061657.13449 -17949147.99049  20567815.8254   20567817.1004   20567815.9454
       239.0004        204.0004
 -19140531.64749 -14596600.26349  21375678.3004   21375682.0984   21375677.8864
       236.0004        191.0004
 -15216477.90049 -11839156.68949  22140525.5244   22140527.7374   22140525.4064
       230.0004        169.0004
 -16085706.84449 -12247945.79549  21805346.4654   21805347.1684   21805346.4424
       231.0004        180.0004
  -1474444.43949   -856831.82849  23869068.6024   23869072.4624   23869069.7234
       211.0004        145.0004
 11 10 10  0  6 30.0000000  0 10G29G26G05G10G16G07G08G13G02G04
    621464.25849    471334.91549  25336915.7804   25336920.4294   25336918.0924
       188.0004        123.0004
  -2100938.09449  -1614598.51049  23969852.0014   23969855.4354   23969850.7294
       210.0004        136.0004
 -16451300.23349 -12786359.82049  21841117.9634   21841120.3054   21841118.9154
       233.0004        190.0004
 -20488227.73849 -15704779.60949  20446745.3384   20446747.8734   20446744.7204
       238.0004        199.0004
    493995.46849    391282.65049  24231000.8604   24231003.2064   24231002.2654
       209.0004        141.0004
 -23066512.40949 -17952931.30549  20566890.9654   20566893.3334   20566891.6694
       238.0004        204.0004
 -19208090.00749 -14649243.12249  21362821.5464   21362825.5684   21362822.3194
       236.0004        191.0004
 -15132848.94449 -11773991.29149  22156439.6844   22156442.3154   22156439.5784
       228.0004        170.0004
 -16037315.01349 -12210237.94949  21814556.0164   21814555.7934   21814554.6994
       231.0004        180.0004
  -1366542.12749   -772752.05849  23889602.7954   23889606.5884   23889603.0534
       210.0004        143.0004
 11 10 10  0  7  0.0000000  0 10G29G26G05G10G16G07G08G13G02G04
    660789.04449    501977.63949  25344397.0774                   25344400.4044
       181.0004        121.0004
  -2210755.20049  -1700170.38349  23948952.6854   23948958.5474   23948954.1324
       207.0004        137.0004
 -16525051.55149 -12843828.37549  21827082.7824   21827085.4954   21827083.6884
       231.0004        187.0004
 -20446983.37849 -15672641.16449  20454593.6434   20454596.6784   20454593.3064
       238.0004        199.0004
    535915.18449    423947.30549  24238979.2584   24238980.0574   24238978.4604
       207.0004        139.0004
 -23070796.23549 -17956269.32949  20566076.4284   20566078.5434   20566076.3894
       239.0004        204.0004
 -19275205.36149 -14701540.78749  21350051.1164   21350054.2284   21350050.9694
       237.0004        192.0004
 -15049021.17449 -11708671.00649  22172390.5874   22172392.5874   22172391.9514
       228.0004        169.0004
 -15988379.20049 -12172106.23749  21823867.3694   21823868.1934   21823867.6704
       231.0004        180.0004
  -1258534.92249   -688590.66549  23910154.1244   23910161.3904   23910156.5794
       207.0004        143.0004
 11 10 10  0  7 30.0000000  0 10G29G26G05G10G16G07G08G13G02G04
    700574.44049    532979.20249  25351967.6814                   25351967.3574
       185.0004        122.0004
  -2320447.90749  -1785645.21849  23928078.9884   23928084.5954   23928078.2074
       201.0004        140.0004
 -16598471.70049 -12901038.86849  21813112.3034   21813114.9334   21813112.0934
       232.0004        188.0004
 -20405257.66249 -15640127.63549  20462534.9224   20462536.9744   20462534.2084
       239.0004        199.0004
    578392.19849    457046.29949  24247061.4284   24247062.3074   24247062.6784
       207.0004        139.0004
 -23074508.87749 -17959162.28249  20565369.4304   20565372.0374   20565370.3024
       240.0004        204.0004
 -19341875.62249 -14753491.62749  21337363.1914   21337367.1794   21337363.7504
       236.0004        192.0004
 -14964995.74249 -11643196.67649  22188381.7354   22188383.7924   22188381.9414
       231.0004        171.0004
 -15938901.30649 -12133552.18949  21833283.1494   21833283.6444   21833282.8204
       230.0004        179.0004
  -1150425.49549   -604349.59349  23930728.9814   23930733.3434   23930728.6164
       215.0004        147.0004
 11 10 10  0  8  0.0000000  0 10G29G26G05G10G16G07G08G13G02G04
    740818.26849    564338.05149  25359630.1614                   25359629.0644
       191.0004        117.0004
  -2430015.70949  -1871022.57449  23907229.2584   23907235.6254   23907227.9504
       199.0004        139.0004
 -16671559.47049 -12957990.36649  21799204.4684   21799206.7554   21799204.4764
       233.0004        189.0004
 -20363051.93049 -15607240.05449  20470565.5434   20470568.4784   20470564.8254
       239.0004        199.0004
    621424.40849    490577.89849  24255251.4184   24255251.7844   24255252.3214
       207.0004        141.0004
 -23077651.36849 -17961610.95949  20564771.8224   20564773.8504   20564771.9004
       238.0004        203.0004
 -19408100.00549 -14805095.01349  21324762.5474   21324765.0524   21324761.3054
       238.0004        193.0004
 -14880774.58349 -11577569.80249  22204407.9304   22204409.8664   22204407.4594
       230.0004        170.0004
 -15888883.69049 -12094577.55349  21842801.2854   21842802.1854   21842800.6464
       230.0004        180.0004
  -1042217.25949   -520031.50349  23951322.0984   23951323.0684   23951320.8644
       211.0004        139.0004
 11 10 10  0  8 30.0000000  0 10G29G26G05G10G16G07G08G13G02G04
    781518.79059    596052.80459  25367372.7934
       175.0004        114.0004
  -2539456.43649  -1956301.03949  23886404.2074   23886409.4754   23886404.0944
       210.0004        139.0004
 -16744312.16349 -13014680.77549  21785359.6244   21785362.1184   21785359.9034
       232.0004        188.0004
 -20320366.12849 -15573978.38849  20478687.9464   20478691.4864   20478687.7094
       237.0004        199.0004
    665011.04349    524541.49549  24263544.0524   24263546.2264   24263544.1064
       209.0004        139.0004
 -23080223.92149 -17963615.51949  20564281.8264   20564284.2744   20564282.3934
       239.0004        204.0004
 -19473876.31249 -14856349.24649  21312244.8734   21312248.4814   21312244.7204
       237.0004        193.0004
 -14796358.25749 -11511790.85049  22220471.1464   22220473.8464   22220471.6864
       230.0004        170.0004
 -15838327.94749 -12055183.68849  21852420.4214   21852422.3594   21852421.1294
       228.0004        178.0004
   -933912.70649   -435638.36849  23971929.4884   23971932.8184   23971929.3574
       211.0004        140.0004
 11 10 10  0  9  0.0000000  0 10G29G26G05G10G16G07G08G13G02G04
    822673.71759      3989.76759  25375201.6244
       175.0004         74.0004
  -2648769.68149  -2041480.30449  23865602.8364   23865606.8144   23865603.1464
       203.0004        138.0004
 -16816728.27749 -13071108.91049  21771578.8854   21771581.5414   21771579.4924
       232.0004        188.0004
 -20277201.85849 -15540343.91149  20486902.2584   20486904.8204   20486901.6444
       238.0004        198.0004
    709149.94149    558935.46649  24271945.5424   24271946.0244   24271945.2894
       206.0004        138.0004
 -23082227.31349 -17965176.56949  20563901.0764   20563902.6264   20563901.2794
       239.0004        204.0004
 -19539203.61749 -14907253.61049  21299814.0274   21299817.3634   21299813.3134
       239.0004        194.0004
 -14711748.92349 -11445861.51049  22236571.3644   22236573.5254   22236572.6184
       227.0004        168.0004
 -15787236.51449 -12015372.32749  21862144.1294   21862144.6364   21862143.8534
       230.0004        179.0004
   -825514.79149   -351172.47149  23992560.4164   23992562.4384   23992560.2684
       214.0004        147.0004
 11 10 10  0  9 30.0000000  0 10G29G26G05G10G16G07G08G13G02G04
    864281.20459     36401.18159  25383122.9884
       162.0004        105.0004
  -2757953.64549  -2126558.58149  23844824.3494   23844827.6404   23844823.7664
       208.0004        139.0004
 -16888804.89649 -13127272.51249  21757863.1814   21757865.4704   21757863.7654
       233.0004        190.0004
 -20233558.65549 -15506336.24649  20495206.9284   20495210.0994   20495206.5524
       238.0004        199.0004
    753840.41049    593759.21249  24280448.3934   24280450.5594   24280448.6184
       208.0004        139.0004
 -23083661.07649 -17966293.77649  20563627.7814   20563630.2154   20563628.2604
       238.0004        204.0004
 -19604079.50249 -14957806.21849  21287468.6314   21287471.2024   21287467.4404
       238.0004        194.0004
 -14626947.00349 -11379782.13449  22252709.5824   22252711.5744   22252710.5784
       228.0004        167.0004
 -15735610.88949 -11975144.69349  21871968.3434   21871968.7184   21871967.7844
       228.0004        179.0004
   -717025.61849   -266635.51649  24013202.7844   24013206.1884   24013201.9424
       210.0004        145.0004
 11 10 10  0 10  0.0000000  0  9G26G05G10G16G07G08G13G02G04
  -2867007.68049  -2211535.65549  23824073.4994   23824078.3914   23824073.1114
       210.0004        146.0004
 -16960540.64349 -13183170.50249  21744213.4754   21744214.3384   21744213.6364
       235.0004        190.0004
 -20189438.18749 -15471956.67449  20503604.0164   20503606.2254   20503603.1424
       239.0004        199.0004
    799080.01849    629010.81349  24289057.7334   24289057.8104   24289058.4414
       209.0004        139.0004
 -23084526.51049 -17966968.11849  20563462.9704   20563465.2864   20563463.2974
       238.0004        203.0004
 -19668503.46249 -15008006.67749  21275208.0374   21275211.9944   21275208.7354
       238.0004        194.0004
 -14541954.42049 -11313554.17549  22268882.6134   22268886.1944   22268884.0904
       225.0004        166.0004
 -15683453.79449 -11934502.93849  21881892.7014   21881894.2864   21881892.6604
       230.0004        178.0004
   -608448.87249   -182030.29349  24033864.4444   24033866.2044   24033864.8564
       207.0004        139.0004
 11 10 10  0 10 30.0000000  0  9G26G05G10G16G07G08G13G02G04
  -2975929.54149  -2296409.75449  23803345.0104   23803351.5304   23803344.3284
       205.0004        142.0004
 -17031932.55049 -13238800.57649  21730627.4334   21730629.3404   21730627.2104
       233.0004        189.0004
 -20144840.16149 -15437204.99049  20512089.5344   20512093.3524   20512089.1054
       237.0004        199.0004
    844868.18949    664689.92649  24297770.3734   24297772.0754   24297769.0444
       208.0004        139.0004
 -23084823.40449 -17967199.44649  20563406.7424   20563408.5704   20563407.3404
       238.0004        204.0004
 -19732473.34449 -15057853.31549  21263036.4314   21263038.6314   21263035.8644
       240.0004        194.0004
 -14456771.61549 -11247177.98849  22285092.2814   22285096.2294   22285092.4934
       227.0004        166.0004
 -15630766.29249 -11893447.85949  21891919.6534   21891920.4024   21891919.6514
       229.0004        179.0004
   -499786.56349    -97358.34449  24054541.9944   24054544.8814   24054541.4004
       210.0004        142.0004
 11 10 10  0 11  0.0000000  0  9G26G05G10G16G07G08G13G02G04
  -3084719.16749  -2381180.91649  23782641.8014   23782647.0894   23782641.6914
       205.0004        135.0004
 -17102979.52549 -13294161.84749  21717106.4994   21717109.8594   21717107.9214
       232.0004        190.0004
 -20099766.40349 -15402082.59449  20520667.7304   20520670.1554   20520667.2864
       239.0004        199.0004
    891202.60649    700794.65949  24306588.8324   24306589.5704   24306587.3304
       211.0004        141.0004
 -23084552.75649 -17966988.52649  20563457.9854   20563460.3354   20563458.2224
       238.0004        204.0004
 -19795988.37049 -15107345.50849  21250948.2854   21250952.6274   21250948.6164
       238.0004        195.0004
 -14371400.87649 -11180655.34849  22301337.9684   22301339.7714   22301338.1674
       227.0004        167.0004
 -15577551.84349 -11851982.11749  21902045.6104   21902047.1174   21902045.7454
       227.0004        178.0004
   -391041.92149    -12622.26449  24075233.4554   24075241.3764   24075234.2514
       205.0004        145.0004
 11 10 10  0 11 30.0000000  0  9G26G05G10G16G07G08G13G02G04
  -3193374.53949  -2465847.43649  23761967.5074   23761972.3654   23761968.2624
       210.0004        145.0004
 -17173679.03949 -13349252.38349  21703655.0804   21703655.9974   21703655.2124
       236.0004        192.0004
 -20054217.24749 -15366589.74649  20529335.0464   20529337.8264   20529334.3524
       239.0004        199.0004
    938082.20949    737324.23249  24315509.2524   24315509.2524   24315507.3584
       210.0004        139.0004
 -23083714.67449 -17966335.47349  20563617.5184   20563619.2964   20563618.2744
       238.0004        204.0004
 -19859046.34249 -15156481.55849  21238950.7284   21238952.8234   21238949.4094
       241.0004        195.0004
 -14285842.82749 -11113986.77549  22317619.3204   22317621.7584   22317620.2714
       227.0004        168.0004
 -15523811.77149 -11810106.80249  21912273.4884   21912273.8874   21912272.5764
       229.0004        178.0004
   -282217.36149     72176.01049  24095940.5254   24095947.8184   24095942.4714
       202.0004        142.0004
 11 10 10  0 12  0.0000000  0  9G26G05G10G16G07G08G13G02G04
  -3301894.54349  -2550408.36149  23741317.2254   23741320.9554   23741315.9834
       207.0004        144.0004
 -17244029.11749 -13404070.66049  21690267.1064   21690268.0884   21690267.6674
       234.0004        190.0004
 -20008193.42849 -15330727.05349  20538092.8594   20538096.0784   20538092.2744
       238.0004        199.0004
    985505.24449    774277.21049  24324532.2744   24324533.4574   24324531.1004
       207.0004        137.0004
 -23082309.65649 -17965240.63949  20563884.7044   20563887.1554   20563885.4334
       239.0004        204.0004
 -19921646.18549 -15205260.62649  21227036.6234   21227040.5694   21227036.8784
       239.0004        195.0004
 -14200098.90449 -11047173.36449  22333935.2194   22333937.0734   22333935.9194
       227.0004        167.0004
 -15469548.47849 -11767823.77149  21922598.3124   21922599.7074   21922598.5904
       229.0004        177.0004
   -173315.78149    157034.35149  24116667.3414   24116668.0934   24116666.8814
       211.0004        139.0004
 11 10 10  0 12 30.0000000  0  9G26G05G10G16G07G08G13G02G04
  -3410278.16249  -2634863.06049  23720691.5104   23720695.7104   23720690.7534
       210.0004        142.0004
 -17314027.70849 -13458615.04349  21676946.2974   21676948.2394   21676946.9994
       234.0004        190.0004
 -19961695.64849 -15294495.04649  20546941.9244   20546944.3144   20546941.0394
       239.0004        198.0004
   1033469.84449    811652.19949  24333659.8204   24333661.6934   24333660.1044
       209.0004        138.0004
 -23080338.36049 -17963704.55949  20564260.4504   20564262.2424   20564260.9324
       239.0004        204.0004
 -19983786.40949 -15253681.57149  21215212.5854   21215215.1994   21215212.4884
       240.0004        195.0004
 -14114170.47649 -10980216.17549  22350287.6354   22350289.7254   22350287.4234
       228.0004        167.0004
 -15414763.92849 -11725134.56549  21933023.4934   21933024.2314   21933023.2534
       229.0004        178.0004
    -64340.22549    241950.42349  24137405.2034   24137407.7024   24137405.0544
       212.0004        142.0004
 11 10 10  0 13  0.0000000  0  9G26G05G10G16G07G08G13G02G04
  -3518523.81649  -2719210.27049  23700092.0994   23700096.0434   23700092.4154
       205.0004        142.0004
 -17383672.48049 -13512883.69249  21663693.6794   21663695.9134   21663694.2184
       235.0004        193.0004
 -19914724.63249 -15257894.28249  20555879.5824   20555882.5444   20555878.7374
       238.0004        199.0004
   1081974.84149    849448.29049  24342889.9194   24342892.2784   24342890.7544
       208.0004        140.0004
 -23077801.22049 -17961727.55349  20564742.3884   20564745.0244   20564743.0064
       238.0004        204.0004
 -20045465.44149 -15301743.12749  21203475.4204   21203478.2964   21203474.7714
       240.0004        195.0004
 -14028058.46149 -10913115.92749  22366674.7664   22366675.6034   22366674.6944
       226.0004        166.0004
 -15359460.37449 -11682040.92449  21943547.5134   21943548.5384   21943547.6104
       229.0004        178.0004
     44707.10249    326922.31149  24158156.3144   24158160.4004   24158155.1824
       209.0004        143.0004
 11 10 10  0 13 30.0000000  0  9G26G05G10G16G07G08G13G02G04
  -3626630.64149  -2803449.19749  23679523.1484   23679525.1504   23679522.5704
       212.0004        143.0004
 -17452961.69449 -13566875.30249  21650508.2814   21650510.0914   21650508.8674
       235.0004        191.0004
 -19867281.25649 -15220925.45949  20564908.0904   20564910.7714   20564907.4824
       239.0004        198.0004
   1131017.90149    887663.64849  24352222.4034   24352223.4844   24352223.1744
       207.0004        141.0004
 -23074699.27749 -17959310.43849  20565333.7214   20565335.1194   20565333.7444
       239.0004        204.0004
 -20106682.14549 -15349444.43149  21191825.7544   21191828.7804   21191826.1624
       239.0004        195.0004
 -13941764.42849 -10845873.85749  22383094.6644   22383097.1564   22383095.7024
       227.0004        164.0004
 -15303640.41149 -11638544.89549  21954170.1434   21954171.1444   21954169.8714
       229.0004        176.0004
    153823.03349    411947.62849  24178921.9844   24178923.5494   24178921.2244
       213.0004        146.0004
 11 10 10  0 14  0.0000000  0  9G26G05G10G16G07G08G13G02G04
  -3734597.33949  -2887579.04049  23658977.3544   23658978.7374   23658976.5894
       211.0004        145.0004
 -17521892.91149 -13620587.95749  21637391.3594   21637392.5034   21637391.8844
       235.0004        191.0004
 -19819366.26649 -15183589.11249  20574025.9464   20574028.6604   20574024.9324
       238.0004        198.0004
   1180597.66149    926297.24549  24361658.1384   24361659.9884   24361658.5194
       208.0004        141.0004
 -23071032.91149 -17956453.51749  20566030.3314   20566032.7894   20566031.4374
       238.0004        204.0004
 -20167435.25049 -15396784.48649  21180265.0804   21180268.3574   21180264.6174
       239.0004        196.0004
 -13855289.76549 -10778491.02249  22399551.7624   22399554.0604   22399552.7084
       227.0004        164.0004
 -15247305.87149 -11594647.93349  21964890.2274   21964891.2974   21964890.5954
       229.0004        177.0004
    263004.91149    497024.44449  24199697.8754   24199700.2144   24199695.9414
       210.0004        137.0004
 11 10 10  0 14 30.0000000  0  9G26G05G10G16G07G08G13G02G04
  -3842422.68849  -2971598.68849  23638458.5634   23638461.3784   23638457.5454
       210.0004        145.0004
 -17590464.20549 -13674020.13949  21624341.7154   21624344.2544   21624342.3194
       233.0004        191.0004
 -19770980.63849 -15145886.05449  20583233.0044   20583236.3264   20583232.8014
       239.0004        198.0004
   1230712.65149    965347.87649  24371194.2484   24371196.0894   24371194.7824
       211.0004        141.0004
 -23066802.63749 -17953157.18249  20566836.6214   20566838.0944   20566836.6364
       240.0004        205.0004
 -20227722.99849 -15443761.94749  21168791.8824   21168796.2414   21168792.5194
       238.0004        196.0004
 -13768635.21649 -10710968.03949  22416041.6374   22416043.5724   22416041.6774
       227.0004        164.0004
 -15190459.02749 -11550351.73149  21975707.1344   21975708.3874   21975707.4954
       228.0004        176.0004
    372250.11949    582150.56049  24220483.7094   24220488.5264   24220484.8254
       207.0004        137.0004
 11 10 10  0 15  0.0000000  0  9G26G05G10G16G07G08G13G02G04
  -3950104.69949  -3055506.66349  23617966.0024   23617969.8294   23617965.2944
       210.0004        143.0004
 -17658672.98249 -13727169.83649  21611362.0284   21611364.8474   21611363.3794
       234.0004        192.0004
 -19722124.39349 -15107816.27649  20592530.5874   20592532.9194   20592529.8094
       239.0004        198.0004
   1281361.64449   1004814.62249  24380834.3174   24380832.5824   24380834.1224
       210.0004        142.0004
 -23062008.37849 -17949421.38549  20567747.7704   20567749.9814   20567748.3844
       238.0004        204.0004
 -20287543.41549 -15490375.23249  21157410.0174   21157412.4354   21157409.0794
       240.0004        196.0004
 -13681801.69149 -10643305.56249  22432563.3274   22432566.6654   22432564.5474
       224.0004        162.0004
 -15133101.84649 -11505657.86449  21986621.5994   21986623.3004   21986621.6104
       227.0004        175.0004
    481556.34449    667324.17849  24241285.3824   24241290.0424   24241285.0044
       210.0004        146.0004
 11 10 10  0 15 30.0000000  0  9G26G05G10G16G07G08G13G02G04
  -4057642.99749  -3139302.60349  23597502.5724   23597507.0224   23597502.5744
       212.0004        146.0004
 -17726518.10549 -13780036.19149  21598451.5014   21598454.4204   21598452.6304
       234.0004        193.0004
 -19672799.39149 -15069381.24249  20601916.7674   20601919.1414   20601916.1624
       239.0004        198.0004
   1332541.78349   1044695.25849  24390571.9624   24390572.4794   24390572.0224
       209.0004        138.0004
 -23056651.78549 -17945247.40149  20568767.8864   20568769.7564   20568768.0324
       240.0004        205.0004
 -20346895.97849 -15536623.96849  21146114.0854   21146117.6644   21146114.3594
       238.0004        195.0004
 -13594791.23349 -10575505.23849  22449121.9704   22449125.3554   22449122.8644
       223.0004        162.0004
 -15075237.36049 -11460568.69649  21997633.1284   21997634.1704   21997632.8904
       227.0004        175.0004
    590920.01549    752542.57049  24262098.7584   24262098.7394   24262097.0164
       209.0004        138.0004
 11 10 10  0 16  0.0000000  0  9G26G05G10G16G07G08G13G02G04
  -4165036.35249  -3222985.74849  23577066.8884   23577070.8294   23577067.1264
       211.0004        145.0004
 -17793997.25249 -13832617.34949  21585610.8364   21585613.5584   21585610.8064
       233.0004        191.0004
 -19623006.14649 -15030581.32849  20611392.4954   20611394.7264   20611391.3654
       240.0004        198.0004
   1384251.63649   1084988.62449  24400411.7574   24400413.6444   24400411.4534
       209.0004        139.0004
 -23050733.36049 -17940635.63649  20569893.6534   20569895.4704   20569894.2184
       239.0004        204.0004
 -20405779.55349 -15582507.25149  21134910.4154   21134912.5644   21134909.6324
       240.0004        196.0004
 -13507604.95049 -10507567.89549  22465713.6134   22465716.3334   22465714.1904
       226.0004        162.0004
 -15016867.84049 -11415086.00849  22008741.3074   22008742.1474   22008741.2534
       229.0004        176.0004
    700338.73149    837803.89349  24282916.2264   24282920.4584   24282920.0794
       203.0004        132.0004
 11 10 10  0 16 30.0000000  0  9G26G05G10G16G07G08G13G02G04
  -4272283.13249  -3306554.56349  23556656.8894   23556660.2384   23556657.0924
       213.0004        146.0004
 -17861107.98249 -13884911.42849  21572840.3034   21572842.2974   21572841.0174
       235.0004        191.0004
 -19572745.66549 -14991417.34049  20620956.1514   20620958.9584   20620955.2194
       239.0004        197.0004
   1436489.88849   1125693.74149  24410352.6644   24410352.7054   24410352.3264
       211.0004        142.0004
 -23044253.68249 -17935586.50949  20571127.6354   20571128.6104   20571126.6824
       239.0004        203.0004
 -20464192.42149 -15628023.75649  21123793.1624   21123796.8504   21123793.3534
       239.0004        196.0004
 -13420243.74749 -10439494.26549  22482336.5124   22482339.7914   22482338.0664
       223.0004        162.0004
 -14957995.33049 -11369211.41049  22019944.1234   22019945.3614   22019944.7284
       227.0004        176.0004
    809810.00849    923106.21949  24303748.3914   24303756.1064   24303750.4164
       206.0004        141.0004
 11 10 10  0 17  0.0000000  0  9G26G05G10G16G07G08G13G02G04
  -4379382.39349  -3390008.40149  23536277.1204   23536280.2934   23536276.7254
       211.0004        146.0004
 -17927848.69349 -13936917.18749  21560139.6474   21560142.0324   21560140.3804
       233.0004        192.0004
 -19522018.94149 -14951890.04849  20630609.0154   20630612.1014   20630608.2354
       239.0004        197.0004
   1489254.30249   1166808.86349  24420392.9964   24420394.9764   24420393.3364
       210.0004        143.0004
 -23037213.34249 -17930100.52049  20572466.0894   20572468.2394   20572467.1104
       239.0004        204.0004
 -20522133.44749 -15673172.60749  21112768.6734   21112770.8584   21112768.0594
       239.0004        196.0004
 -13332709.07549 -10371285.45549  22498995.3144   22498997.3314   22498996.0914
       224.0004        161.0004
 -14898622.20749 -11322946.71949  22031243.4944   22031243.8474   22031243.0954
       230.0004        177.0004
    919330.84249   1008447.05749  24324588.9814   24324595.3464   24324590.9664
       203.0004        140.0004
 11 10 10  0 17 30.0000000  0  9G26G05G10G16G07G08G13G02G04
  -4486332.27449  -3473345.96449  23515925.3054   23515928.2844   23515925.3424
       208.0004        147.0004
 -17994216.77649 -13988632.58349  21547510.5334   21547513.2294   21547511.2334
       234.0004        193.0004
 -19470826.34749 -14911999.74349  20640350.9234   20640353.5884   20640350.2054
       239.0004        197.0004
   1542543.53749   1208332.92049  24430534.0504   24430534.7064   24430533.4434
       211.0004        142.0004
 -23029612.82549 -17924178.01849  20573912.6464   20573914.5454   20573912.7034
       238.0004        204.0004
 -20579601.09949 -15717952.57649  21101831.9094   21101835.2584   21101831.5784
       239.0004        196.0004
 -13245001.94849 -10302942.25849  22515685.3564   22515686.8694   22515685.2334
       224.0004        160.0004
 -14838750.59949 -11276293.60049  22042635.1034   22042636.7914   22042635.2224
       227.0004        174.0004
   1028898.89949   1093824.69849  24345439.7734   24345442.6924   24345439.4754
       201.0004        135.0004
 11 10 10  0 18  0.0000000  0  9G26G05G10G16G07G08G13G02G04
  -4593132.11649  -3556566.51149  23495602.5744   23495604.3224   23495603.0004
       211.0004        146.0004
 -18060210.48049 -14040056.24549  21534952.7464   21534954.8134   21534952.7734
       234.0004        192.0004
 -19419169.01249 -14871747.28349  20650180.7124   20650183.3914   20650180.0674
       238.0004        196.0004
   1596355.29149   1250264.13149  24440774.1544   24440774.5204   24440773.8344
       211.0004        141.0004
 -23021453.32249 -17917819.94649  20575465.6934   20575467.4744   20575466.3994
       239.0004        204.0004
 -20636594.27349 -15762362.82949  21090986.8564   21090990.0824   21090986.9704
       240.0004        196.0004
 -13157123.52349 -10234465.60149  22532407.3144   22532410.0574   22532407.8584
       224.0004        162.0004
 -14778382.94349 -11229253.93549  22054123.5484   22054124.7404   22054123.2544
       228.0004        174.0004
   1138510.92949   1179236.72949  24366299.6434   24366301.5304   24366299.0314
       207.0004        137.0004
 11 10 10  0 18 30.0000000  0  9G26G05G10G16G07G08G13G02G04
  -4699779.91049  -3639668.62449  23475307.2594   23475311.6374   23475307.7754
       211.0004        149.0004
 -18125827.44849 -14091186.35549  21522465.8384   21522468.1044   21522467.1374
       235.0004        193.0004
 -19367047.49049 -14831133.14549  20660098.8014   20660102.3974   20660097.9494
       237.0004        196.0004
   1650688.50249   1292601.66649  24451113.7454   24451114.1734   24451112.9864
       210.0004        140.0004
 -23012735.11049 -17911026.51749  20577124.4534   20577126.3354   20577124.7744
       239.0004        204.0004
 -20693111.46749 -15806402.18749  21080231.5784   21080235.1134   21080231.8794
       239.0004        197.0004
 -13069074.90949 -10165856.29849  22549163.3544   22549165.1724   22549163.8124
       224.0004        161.0004
 -14717521.31349 -11181829.34049  22065705.1474   22065706.2544   22065704.2954
       229.0004        174.0004
   1248164.97249   1264681.43049  24387164.7554   24387172.3174   24387165.8814
       200.0004        137.0004
 11 10 10  0 19  0.0000000  0  9G26G05G10G16G07G08G13G02G04
  -4806275.59849  -3722652.27549  23455041.8944   23455045.1444   23455042.5404
       207.0004        142.0004
 -18191066.25549 -14142021.78649  21510052.3134   21510053.5194   21510052.0104
       235.0004        193.0004
 -19314463.61549 -14790158.72249  20670105.6414   20670108.6284   20670104.6444
       239.0004        196.0004
   1705540.11149   1335343.15149  24461551.1774   24461552.6694   24461551.8344
       208.0004        142.0004
 -23003459.72349 -17903798.92449  20578889.5694   20578891.4874   20578890.0404
       239.0004        204.0004
 -20749152.23249 -15850070.29449  21069567.9704   21069570.8434   21069567.7684
       239.0004        197.0004
 -12980858.11549 -10097115.98549  22565950.9174   22565952.8694   22565951.6614
       225.0004        162.0004
 -14656169.05949 -11134022.42249  22077380.7284   22077380.7024   22077380.0084
       229.0004        174.0004
   1357857.45149   1350155.97049  24408038.9034   24408043.3964   24408040.7004
       201.0004        137.0004
 11 10 10  0 19 30.0000000  0  9G26G05G10G16G07G08G13G02G04
  -4912617.24349  -3805515.83149  23434806.6144   23434808.2324   23434806.7194
       215.0004        146.0004
 -18255924.61649 -14192560.75949  21497708.6524   21497711.7444   21497709.1174
       234.0004        193.0004
 -19261417.98149 -14748824.50149  20680200.2714   20680203.1284   20680199.3164
       239.0004        196.0004
   1760908.70449   1378487.47349  24472088.6504   24472087.5724   24472087.3214
       211.0004        141.0004
 -22993627.56249 -17896137.48749  20580760.4744   20580762.3904   20580760.4804
       238.0004        203.0004
 -20804714.78949 -15893365.76649  21058995.0924   21058997.7194   21058994.2624
       239.0004        196.0004
 -12892473.73049 -10028245.03649  22582769.1164   22582770.7304   22582770.8114
       224.0004        163.0004
 -14594328.09749 -11085834.71049  22089148.3944   22089148.5274   22089148.1374
       228.0004        174.0004
   1467585.75049   1435658.54749  24428921.5804   24428922.5984   24428921.6754
       209.0004        138.0004
 11 10 10  0 20  0.0000000  0  9G26G05G10G16G07G08G13G02G04
  -5018803.10549  -3888257.97049  23414600.3214   23414602.1704   23414599.7624
       212.0004        148.0004
 -18320399.85549 -14242801.20749  21485440.3144   21485442.5554   21485440.9264
       237.0004        194.0004
 -19207911.09649 -14707130.86049  20690382.3594   20690384.6734   20690381.9734
       240.0004        196.0004
   1816792.96249   1422033.62949  24482722.1014   24482723.7064   24482722.2364
       211.0004        140.0004
 -22983238.98549 -17888042.47649  20582737.3574   20582739.5504   20582737.8244
       239.0004        203.0004
 -20859797.42749 -15936287.28449  21048511.7634   21048515.6634   21048512.2654
       239.0004        196.0004
 -12803922.61649  -9959244.16749  22599620.1444   22599621.9764   22599620.6914
       225.0004        162.0004
 -14532000.63149 -11037267.88049  22101008.8174   22101009.4804   22101008.7934
       228.0004        173.0004
   1577348.15049   1521187.74349  24449809.0254   24449811.5694   24449808.1764
       204.0004        136.0004
 11 10 10  0 20 30.0000000  0  9G26G05G10G16G07G08G13G02G04
  -5124832.51649  -3970878.16949  23394422.3584   23394426.2354   23394421.2294
       209.0004        149.0004
 -18384490.64649 -14292742.09149  21473244.6244   21473246.3334   21473245.6794
       236.0004        194.0004
 -19153944.25549 -14665078.80349  20700651.5314   20700654.4744   20700651.1134
       239.0004        196.0004
   1873190.46749   1465979.73149  24493454.3924   24493455.7654   24493454.2254
       212.0004        141.0004
 -22972295.70649 -17879515.23549  20584819.3754   20584822.1114   20584819.9904
       238.0004        203.0004
 -20914399.48149 -15978834.32349  21038121.8674   21038125.4544   21038121.9574
       239.0004        197.0004
 -12715206.50249  -9890114.73449  22616503.1064   22616505.2324   22616503.6134
       223.0004        160.0004
 -14469189.29449 -10988324.01149  22112961.2104   22112961.7004   22112961.2854
       226.0004        173.0004
   1687141.41349   1606740.84749  24470699.9784   24470705.0614   24470700.0824
       203.0004        137.0004
 11 10 10  0 21  0.0000000  0  9G26G05G10G16G07G08G13G02G04
  -5230704.22149  -4053375.50349  23374275.7774   23374278.7684   23374276.7684
       212.0004        146.0004
 -18448194.54449 -14342381.48149  21461121.7624   21461123.5384   21461121.7584
       236.0004        194.0004
 -19099518.30549 -14622668.99349  20711008.7604   20711011.4954   20711007.9614
       240.0004        196.0004
   1930099.39949   1510324.34049  24504282.6434   24504285.1834   24504283.3884
       207.0004        140.0004
 -22960798.22849 -17870556.14149  20587006.8014   20587009.4984   20587007.5564
       238.0004        204.0004
 -20968519.54849 -16021005.78349  21027824.4104   21027826.3114   21027823.1354
       240.0004        197.0004
 -12626326.17149  -9820857.38049  22633415.1794   22633417.6874   22633415.7714
       223.0004        159.0004
 -14405896.38349 -10939004.89049  22125005.8564   22125006.1524   22125005.4474
       228.0004        173.0004
   1796962.61049   1692315.77849  24491600.7834   24491603.8964   24491601.0684
       210.0004        141.0004
 11 10 10  0 21 30.0000000  0  9G26G05G10G16G07G08G13G02G04
  -5336417.14249  -4135749.11649  23354159.2554   23354160.9494   23354159.3084
       213.0004        144.0004
 -18511510.19249 -14391718.35049  21449073.6104   21449075.5124   21449074.2664
       237.0004        196.0004
 -19044634.96149 -14579902.79849  20721452.5894   20721455.0584   20721452.1104
       239.0004        195.0004
   1987517.33849   1555065.54249  24515210.1874   24515209.2404   24515209.3224
       207.0004        138.0004
 -22948747.18549 -17861165.71049  20589301.1174   20589302.9624   20589301.2934
       239.0004        204.0004
 -21022157.03949 -16062801.21549  21017615.6254   21017619.7774   21017615.8794
       238.0004        197.0004
 -12537283.55049  -9751473.54649  22650359.3234   22650362.5114   22650361.0654
       223.0004        161.0004
 -14342125.31449 -10889313.16749  22137142.4374   22137141.8944   22137141.2114
       228.0004        175.0004
   1906808.68449   1777910.13349  24512503.0974   24512508.0664   24512503.2754
       206.0004        134.0004
 11 10 10  0 22  0.0000000  0  9G26G05G10G16G07G08G13G02G04
  -5441969.20449  -4217997.35349  23334074.2124   23334075.9314   23334072.6074
       215.0004        148.0004
 -18574434.50549 -14440750.27649  21437099.3074   21437101.3384   21437099.8994
       237.0004        195.0004
 -18989294.25749 -14536780.22249  20731983.5164   20731986.5244   20731982.6574
       239.0004        195.0004
   2045443.24049   1600202.62849  24526232.4824   24526233.9284   24526233.4484
       206.0004        137.0004
 -22936143.23149 -17851344.42649  20591699.3804   20591701.3564   20591699.4764
       239.0004        203.0004
 -21075309.82349 -16104218.94549  21007502.0194   21007505.1504   21007501.8574
       239.0004        197.0004
 -12448078.60349  -9681963.20749  22667336.0754   22667336.2044   22667335.0024
       226.0004        162.0004
 -14277877.25749 -10839249.76249  22149366.5434   22149368.3044   22149366.2144
       227.0004        173.0004
   2016678.16949   1863522.68049  24533408.6254   24533413.8084   24533409.6674
       203.0004        135.0004
 11 10 10  0 22 30.0000000  0  9G26G05G10G16G07G08G13G02G04
  -5547359.44449  -4300119.51749  23314017.3544   23314021.2704   23314017.5494
       211.0004        148.0004
 -18636965.78249 -14489475.94849  21425199.6594   21425201.6994   21425200.0604
       237.0004        194.0004
 -18933497.33149 -14493302.15149  20742601.5764   20742604.1134   20742600.5354
       239.0004        194.0004
   2103874.88349   1645733.73949  24537352.2364   24537353.9624   24537352.2454
       204.0004        136.0004
 -22922987.43249 -17841093.14949  20594202.2454   20594205.2494   20594203.2724
       239.0004        204.0004
 -21127977.13049 -16145258.37649  20997479.5684   20997482.8054   20997479.1274
       239.0004        198.0004
 -12358713.20549  -9612327.85149  22684340.4564   22684342.1584   22684340.8254
       222.0004        160.0004
 -14213155.13249 -10788816.97549  22161683.9854   22161683.6384   22161682.9584
       228.0004        173.0004
   2126567.89749   1949151.01549  24554321.3924   24554325.0624   24554322.9434
       209.0004        142.0004
 11 10 10  0 23  0.0000000  0  9G26G05G10G16G07G08G13G02G04
  -5652587.09849  -4382115.04849  23293993.4454   23293996.2864   23293992.2764
       212.0004        146.0004
 -18699102.38649 -14537894.07749  21413375.0644   21413377.2534   21413376.1214
       237.0004        195.0004
 -18877245.70149 -14449469.72449  20753305.2454   20753308.5644   20753304.6414
       238.0004        194.0004
   2162809.91449   1691657.11349  24548566.8554   24548569.0664   24548566.1844
       204.0004        137.0004
 -22909281.01849 -17830412.80949  20596811.6774   20596813.1544   20596811.6044
       240.0004        204.0004
 -21180158.14649 -16185918.88449  20987550.2044   20987553.1054   20987549.3774
       239.0004        198.0004
 -12269188.85149  -9542568.64949  22701376.6514   22701378.2984   22701376.4094
       222.0004        160.0004
 -14147962.10149 -10738017.23649  22174088.4964   22174090.2044   22174087.8964
       227.0004        172.0004
   2236474.72349   2034792.70649  24575233.9114   24575238.1974   24575235.7074
       203.0004        138.0004
 11 10 10  0 23 30.0000000  0  9G26G05G10G16G07G08G13G02G04
  -5757650.78749  -4463982.88649  23274001.6184   23274003.0324   23274001.7854
       215.0004        149.0004
 -18760842.27949 -14586003.08349  21401627.0144   21401628.8234   21401627.1234
       236.0004        195.0004
 -18820540.10149 -14405283.57449  20764096.6094   20764099.3314   20764095.7294
       240.0004        195.0004
   2222246.32549   1737971.17349  24559876.6634   24559877.6084   24559877.1584
       205.0004        135.0004
 -22895024.88649 -17819304.12049  20599523.5614   20599525.6984   20599524.0744
       239.0004        204.0004
 -21231851.73649 -16226199.58049  20977712.8044   20977715.8104   20977712.7854
       241.0004        198.0004
 -12179506.37849  -9472686.27349  22718442.7224   22718444.2704   22718443.2584
       224.0004        157.0004
 -14082300.22649 -10686852.18649  22186584.0774   22186584.4084   22186583.6644
       228.0004        172.0004
   2346396.40649   2120445.87349  24596151.4164   24596155.0044   24596153.6794
       206.0004        131.0004
 11 10 10  0 24  0.0000000  0  9G26G05G10G16G07G08G13G02G04
  -5862549.26249  -4545721.95349  23254038.8504   23254042.1294   23254039.2894
       212.0004        148.0004
 -18822183.48649 -14633801.42449  21389954.8334   21389956.4924   21389954.7674
       238.0004        195.0004
 -18763382.23349 -14360745.00649  20774973.4844   20774976.4314   20774972.9204
       239.0004        194.0004
   2282181.76649   1784674.13249  24571283.1994   24571283.2774   24571282.6834
       209.0004        136.0004
 -22880220.40149 -17807768.15449  20602341.3164   20602343.5444   20602341.4314
       239.0004        204.0004
 -21283057.18749 -16266099.91549  20967969.0584   20967971.5364   20967968.7614
       242.0004        198.0004
 -12089667.23449  -9402681.78249  22735537.9024   22735541.2344   22735537.5244
       222.0004        156.0004
 -14016172.73949 -10635324.31549  22199168.5974   22199170.2774   22199167.6684
       229.0004        173.0004
   2456329.63049   2206108.16749  24617072.2574   24617074.5654   24617072.6104
       210.0004        134.0004
 11 10 10  0 24 30.0000000  0  9G26G05G10G16G07G08G13G02G04
  -5967280.47049  -4627330.57949  23234110.0324   23234112.9804   23234110.5944
       215.0004        152.0004
 -18883123.30049 -14681286.99749  21378357.4754   21378359.8914   21378358.0484
       236.0004        195.0004
 -18705772.03349 -14315853.97449  20785936.8534   20785939.0824   20785935.9764
       239.0004        194.0004
   2342614.90749   1831764.83149  24582784.0364   24582781.8344   24582784.0104
       210.0004        135.0004
 -22864867.60549 -17795804.92649  20605262.8924   20605264.5854   20605263.2614
       239.0004        204.0004
 -21333772.23349 -16305618.09549  20958319.2594   20958321.2564   20958318.0724
       243.0004        198.0004
 -11999671.76049  -9332555.47949  22752663.4754   22752665.5104   22752664.7654
       221.0004        155.0004
 -13949581.11649 -10583434.78449  22211840.3874   22211841.2484   22211840.1874
       226.0004        173.0004
   2566273.00749   2291778.37949  24637992.5034   24638000.7954   24637992.2014
       200.0004        137.0004
 11 10 10  0 25  0.0000000  0  9G26G05G10G16G07G08G13G02G04
  -6071843.82449  -4708808.39749  23214211.0184   23214213.8214   23214211.1074
       212.0004        152.0004
 -18943660.20649 -14728458.59949  21366837.1274   21366839.1084   21366838.1574
       236.0004        195.0004
 -18647711.26349 -14270611.83549  20796984.6024   20796987.5484   20796984.1204
       238.0004        195.0004
   2403543.39249   1879241.54949  24594375.9744   24594378.7944   24594376.0854
       203.0004        134.0004
 -22848968.38449 -17783415.90149  20608287.9494   20608290.1844   20608288.1914
       239.0004        204.0004
 -21383996.73849 -16344754.04249  20948759.9654   20948763.6884   20948760.6534
       241.0004        198.0004
 -11909521.67349  -9262308.68249  22769818.4784   22769822.3204   22769819.9774
       222.0004        156.0004
 -13882528.56249 -10531186.06449  22224597.9814   22224600.1644   22224597.4564
       224.0004        172.0004
   2676223.31049   2377453.80849  24658916.2984   24658920.0724   24658917.8614
       200.0004        133.0004
 11 10 10  0 25 30.0000000  0  9G26G05G10G16G07G08G13G02G04
  -6176237.71749  -4790154.27449  23194344.5834   23194347.4024   23194345.0284
       210.0004        145.0004
 -19003791.78649 -14775314.39349  21355395.9834   21355397.1484   21355395.8114
       237.0004        195.0004
 -18589200.68449 -14225019.18849  20808119.3834   20808121.9914   20808118.2254
       239.0004        195.0004
   2464965.74449   1927103.07649  24606064.9324   24606065.4544   24606064.6354
       201.0004        132.0004
 -22832522.86649 -17770601.20349  20611417.0064   20611419.3914   20611417.6394
       239.0004        204.0004
 -21433728.82149 -16383506.28449  20939297.9334   20939300.0234   20939296.8074
       242.0004        199.0004
