     2.11           OBSERVATION DATA    G (GPS)             RINEX VERSION / TYPE
Linux 2.4.21-27.ELsmp|Opteron|gcc -static|Linux x86_64|=+   COMMENT
HEADER CHANGED BY EPN CB ON 2011-10-15                      COMMENT
TO BE CONFORM WITH THE INFORMATION IN                       COMMENT
ftp://epncb.oma.be/pub/station/log/brus.log                 COMMENT
                                                            COMMENT
teqc  2010Oct21                         20111015 00:01:18UTCPGM / RUN BY / DATE
teqc  2010Oct21                         20111015 00:01:03UTCCOMMENT
teqc  2010Oct21                         20111014 01:01:02UTCCOMMENT
BIT 2 OF LLI FLAGS DATA COLLECTED UNDER A/S CONDITION       COMMENT
BRUS                                                        MARKER NAME
13101M004                                                   MARKER NUMBER
Carine Bruyninx     ROB                                     OBSERVER / AGENCY
RT919994505         ASHTECH Z-XII3T     1L01-1D04           REC # / TYPE / VERS
CR519994604         ASH701945B_M    NONE                    ANT # / TYPE
  4027894.0130   307045.5980  4919474.9120                  APPROX POSITION XYZ
        3.9702        0.0000        0.0000                  ANTENNA: DELTA H/E/N
     1     1                                                WAVELENGTH FACT L1/2
     7    L1    L2    C1    P2    P1    S1    S2            # / TYPES OF OBSERV
    30.0000                                                 INTERVAL
 SNR is mapped to RINEX snr flag value [0-9]                COMMENT
  L1 & L2: min(max(int(snr_dBHz/6), 0), 9)                  COMMENT
pseudorange smoothing corrections not applied               COMMENT
COORDINATES IN ETRF2000                                     COMMENT
Forced Modulo Decimation to 30 seconds                      COMMENT
  2011    10    14     0     0    0.0000000     GPS         TIME OF FIRST OBS
                                                            END OF HEADER
 11 10 14  0  0  0.0000000  0  9G05G10G07G08G13G16G02G04G26
 -16641671.71349 -12700469.24749  21588586.7334   21588589.4144   21588587.1704
       234.0004        193.0004
 -20073492.83549 -15631521.78849  20621073.2254   20621076.3844   20621072.7364
       238.0004        198.0004
 -22775139.38049 -17725578.01549  20572263.2214   20572264.7354   20572262.9184
       239.0004        205.0004
 -20013785.89249 -15580981.89449  21133579.5354   21133582.2744   21133578.9014
       240.0004        197.0004
 -10890446.20449  -8172706.64449  22462246.1104   22462250.8864   22462246.4844
       222.0004        162.0004
   1449768.65349   1216502.18649  24420728.8754   24420731.5234   24420729.4184
       210.0004        143.0004
 -15797515.00249 -12022740.40449  22019795.4764   22019798.0764   22019796.3014
       228.0004        177.0004
    512553.38449    683707.07849  24290997.1454   24291002.2554   24290997.2514
       209.0004        136.0004
  -3768447.34549  -2123950.45049  23560935.4594   23560940.4884   23560937.9524
       209.0004        146.0004
 11 10 14  0  0 30.0000000  0  9G05G10G07G08G13G16G02G04G26
 -16708818.57849 -12752791.47049  21575808.7774   21575811.3904   21575809.1684
       234.0004        192.0004
 -20022747.99649 -15591980.37849  20630730.0004   20630733.1294   20630729.1864
       239.0004        198.0004
 -22768122.72149 -17720110.48749  20573597.5324   20573600.0414   20573598.2354
       239.0004        205.0004
 -20072124.77949 -15626440.75649  21122477.3864   21122480.4074   21122477.3684
       239.0004        197.0004
 -10803133.56349  -8104670.83349  22478861.5744   22478864.8114   22478860.9464
       224.0004        163.0004
   1502789.78649   1257817.38149  24430816.9774   24430819.9774   24430817.7814
       209.0004        144.0004
 -15738003.13349 -11976367.54549  22031121.6104   22031122.2844   22031120.9564
       229.0004        176.0004
    622039.59849    769020.96549  24311830.2624   24311837.1644   24311830.1244
       209.0004        143.0004
  -3875580.52549  -2207430.80649  23540548.4434   23540553.6674   23540549.4064
       208.0004        146.0004
 11 10 14  0  1  0.0000000  0  9G05G10G07G08G13G16G02G04G26
 -16775594.59949 -12804824.73749  21563101.5654   21563104.6194   21563102.5994
       234.0004        193.0004
 -19971537.47749 -15552076.10349  20640475.3244   20640477.9884   20640474.3714
       238.0004        197.0004
 -22760545.97549 -17714206.51949  20575039.3974   20575041.6664   20575039.7254
       239.0004        205.0004
 -20129991.92049 -15671532.01549  21111466.2614   21111468.8194   21111465.2304
       239.0004        197.0004
 -10715646.74049  -8036499.32549  22495511.3164   22495513.2514   22495511.1224
       225.0004        163.0004
   1556334.86649   1299540.83049  24441007.7574   24441008.0284   24441007.7194
       210.0004        142.0004
 -15677993.54649 -11929606.84749  22042539.3014   22042540.8344   22042539.5034
       226.0004        175.0004
    731574.61749    854372.85849  24332672.4794   24332680.7134   24332674.9194
       199.0004        136.0004
  -3982564.64349  -2290795.09549  23520190.7804   23520193.9484   23520190.7564
       209.0004        147.0004
 11 10 14  0  1 30.0000000  0  9G05G10G07G08G13G16G02G04G26
 -16841997.66449 -12856567.38549  21550465.9214   21550469.0354   21550466.6704
       234.0004        194.0004
 -19919861.74849 -15511809.33349  20650308.3244   20650311.5594   20650307.7464
       238.0004        197.0004
 -22752409.43649 -17707866.35749  20576588.1304   20576590.3054   20576588.5454
       239.0004        205.0004
 -20187385.10349 -15716253.95549  21100542.7294   21100547.0024   21100543.2854
       238.0004        196.0004
 -10627986.84649  -7968192.93249  22512191.8834   22512193.3764   22512192.0244
       224.0004        162.0004
   1610402.48649   1341671.44649  24451296.8384   24451297.4484   24451297.7004
       211.0004        142.0004
 -15617488.03349 -11882459.71949  22054054.3634   22054055.2734   22054054.5084
       227.0004        174.0004
    841155.95449    939760.85749  24353528.7104   24353527.6374   24353528.3224
       207.0004        134.0004
  -4089398.57049  -2374042.25649  23499862.6764   23499865.7934   23499863.2514
       212.0004        147.0004
 11 10 14  0  2  0.0000000  0  9G05G10G07G08G13G16G02G04G26
 -16908025.70749 -12908017.79149  21537900.7164   21537904.1984   21537901.4134
       234.0004        194.0004
 -19867721.71249 -15471180.76249  20660230.7594   20660233.8644   20660229.7944
       238.0004        198.0004
 -22743714.32649 -17701090.93949  20578242.4514   20578244.6484   20578242.7334
       238.0004        204.0004
 -20244303.79049 -15760606.16249  21089712.9114   21089715.9904   21089712.5264
       239.0004        197.0004
 -10540155.32349  -7899752.81749  22528904.4014   22528908.1604   22528905.8624
       223.0004        162.0004
   1664989.87049   1384207.05049  24461683.6924   24461684.8234   24461683.3554
       209.0004        142.0004
 -15556489.57549 -11834928.47449  22065662.4244   22065661.9054   22065662.5464
       229.0004        175.0004
    950780.38349   1025182.58949  24374387.1654   24374393.4034   24374390.1884
       206.0004        138.0004
  -4196081.01449  -2457171.42249  23479561.8024   23479563.8504   23479561.6794
       212.0004        150.0004
 11 10 14  0  2 30.0000000  0  9G05G10G07G08G13G16G02G04G26
 -16973677.66549 -12959175.15849  21525407.6144   21525410.4304   21525408.5654
       234.0004        194.0004
 -19815119.21549 -15430191.81849  20670240.7354   20670243.6254   20670239.8084
       238.0004        197.0004
 -22734461.96449 -17693881.29549  20580003.6314   20580005.3064   20580003.4524
       239.0004        204.0004
 -20300747.24549 -15804588.06349  21078971.7584   21078974.7174   21078971.9874
       239.0004        197.0004
 -10452153.67349  -7831180.11449  22545651.5444   22545654.2154   22545651.6754
       224.0004        162.0004
   1720094.86749   1427146.00349  24472171.3454   24472171.5404   24472170.4154
       213.0004        141.0004
 -15495000.77549 -11787015.13949  22077362.7874   22077363.3544   22077362.7314
       227.0004        175.0004
   1060444.86949   1110635.36149  24395257.4634   24395263.0484   24395253.8934
       201.0004        137.0004
  -4302611.27549  -2540181.98649  23459288.1744   23459290.8054   23459286.3684
       209.0004        144.0004
 11 10 14  0  3  0.0000000  0  9G05G10G07G08G13G16G02G04G26
 -17038951.28649 -13010037.72249  21512987.6244   21512989.4234   21512987.5494
       235.0004        194.0004
 -19762055.31249 -15388843.35249  20680338.4934   20680340.9904   20680337.9134
       238.0004        197.0004
 -22724652.96449 -17686237.91249  20581869.5134   20581872.0484   20581869.9954
       238.0004        204.0004
 -20356714.00449 -15848198.50849  21068322.4184   21068325.4094   21068321.6894
       240.0004        197.0004
 -10363983.36449  -7762475.99649  22562430.0354   22562432.6024   22562429.0344
       224.0004        163.0004
   1775715.62449   1470486.85749  24482754.1954   24482755.1284   24482752.8114
       211.0004        140.0004
 -15433024.30449 -11738721.79849  22089156.4494   22089158.2864   22089156.7214
       228.0004        175.0004
   1170146.56449   1196117.07849  24416134.7634   24416136.7304   24416134.7354
       209.0004        139.0004
  -4408988.07349  -2623072.99049  23439044.4884   23439047.7444   23439045.7274
       213.0004        145.0004
 11 10 14  0  3 30.0000000  0  9G05G10G07G08G13G16G02G04G26
 -17103843.16549 -13060602.81949  21500637.7654   21500641.3224   21500638.3754
       234.0004        194.0004
 -19708529.58249 -15347135.00749  20690523.9964   20690527.1934   20690523.1764
       241.0004        197.0004
 -22714286.87649 -17678160.43949  20583842.1774   20583844.8614   20583842.4224
       238.0004        204.0004
 -20412201.48649 -15891435.48549  21057762.4474   21057765.9884   21057762.3924
       239.0004        197.0004
 -10275644.15149  -7693640.26549  22579239.8914   22579243.0024   22579239.2974
       225.0004        163.0004
   1831851.91349   1514229.44649  24493436.8844   24493439.4954   24493436.2554
       210.0004        140.0004
 -15370561.08249 -11690049.19149  22101043.3394   22101043.7134   22101043.1104
       228.0004        175.0004
   1279884.25749   1281627.01149  24437017.7754   24437019.6694   24437017.4304
       206.0004        138.0004
  -4515208.72949  -2705842.35049  23418832.9834   23418834.8964   23418833.0514
       212.0004        149.0004
 11 10 14  0  4  0.0000000  0  9G05G10G07G08G13G16G02G04G26
 -17168353.19749 -13110870.37549  21488362.6654   21488365.3444   21488363.3354
       237.0004        195.0004
 -19654545.06049 -15305069.16949  20700796.4204   20700799.8814   20700795.9764
       240.0004        197.0004
 -22703366.61549 -17669651.14149  20585920.0674   20585922.7414   20585920.3594
       239.0004        204.0004
 -20467210.77949 -15934299.85449  21047294.3774   21047298.3254   21047294.6054
       238.0004        197.0004
 -10187139.27249  -7624675.46249  22596082.5464   22596085.1144   22596082.7814
       225.0004        164.0004
   1888499.58249   1558370.47049  24504215.2024   24504216.4164   24504216.6794
       208.0004        141.0004
 -15307615.76549 -11641000.91149  22113021.2004   22113021.9894   22113020.9564
       228.0004        174.0004
   1389652.99449   1367161.11349  24457905.1574   24457910.4494   24457902.9254
       205.0004        136.0004
  -4621274.23549  -2788490.74549  23398649.5224   23398652.6034   23398648.3214
       211.0004        150.0004
 11 10 14  0  4 30.0000000  0  9G05G10G07G08G13G16G02G04G26
 -17232477.91949 -13160837.69249  21476160.9234   21476162.5774   21476160.9704
       238.0004        196.0004
 -19600101.09449 -15262645.30449  20711156.7424   20711160.0404   20711156.4764
       239.0004        196.0004
 -22691891.64049 -17660709.59949  20588103.4304   20588106.0544   20588104.1564
       238.0004        204.0004
 -20521739.10049 -15976789.42249  21036918.7884   21036921.7414   21036918.2664
       240.0004        197.0004
 -10098468.27349  -7555581.19149  22612956.3374   22612958.7644   22612955.5034
       224.0004        162.0004
   1945657.93249   1602909.46749  24515093.8824   24515094.1924   24515094.7794
       209.0004        138.0004
 -15244189.33149 -11591577.73649  22125091.1974   22125091.7764   22125090.9224
       228.0004        175.0004
   1499451.78649   1452718.52349  24478797.0684   24478801.5334   24478797.8114
       207.0004        141.0004
  -4727181.70349  -2871015.98949  23378495.5624   23378498.9774   23378494.7824
       211.0004        148.0004
 11 10 14  0  5  0.0000000  0  9G05G10G07G08G13G16G02G04G26
 -17296215.57849 -13210503.39449  21464031.2144   21464033.3974   21464031.8404
       237.0004        195.0004
 -19545199.05549 -15219864.50249  20721604.8694   20721607.8164   20721604.2254
       240.0004        196.0004
 -22679863.18049 -17651336.76349  20590393.0064   20590395.0624   20590393.4954
       239.0004        205.0004
 -20575785.38949 -16018903.39049  21026634.4404   21026636.6314   21026633.5864
       240.0004        198.0004
 -10009632.96749  -7486358.90749  22629861.1474   22629862.3074   22629860.4664
       225.0004        162.0004
   2003324.74649   1647844.65449  24526066.7534   24526066.5034   24526067.0204
       209.0004        139.0004
 -15180284.52849 -11541781.79849  22137252.2234   22137251.9434   22137251.3264
       227.0004        174.0004
   1609277.77949   1538297.19549  24499699.1684   24499699.8224   24499700.2924
       207.0004        138.0004
  -4832930.18749  -2953417.44249  23358372.1044   23358373.6704   23358372.3584
       211.0004        145.0004
 11 10 14  0  5 30.0000000  0  9G05G10G07G08G13G16G02G04G26
 -17359564.48449 -13259866.17649  21451976.5624   21451979.0064   21451977.0064
       238.0004        196.0004
 -19489840.43249 -15176727.93349  20732138.6564   20732142.5844   20732138.2314
       239.0004        196.0004
 -22667282.42149 -17641533.56949  20592786.7404   20592789.1464   20592786.9504
       239.0004        205.0004
 -20629348.63049 -16060640.95749  21016440.0984   21016444.2914   21016440.6694
       238.0004        198.0004
  -9920634.32949  -7417009.34049  22646796.8264   22646799.4224   22646797.4074
       225.0004        163.0004
   2061498.03949   1693174.51949  24537136.4224   24537137.8524   24537136.6944
       203.0004        139.0004
 -15115904.25249 -11491615.36049  22149501.9344   22149503.5934   22149503.3494
       228.0004        174.0004
   1719127.75649   1623894.55949  24520603.1794   24520603.7544   24520600.3344
       203.0004        133.0004
  -4938518.47949  -3035694.02449  23338281.6284   23338282.9544   23338281.5004
       214.0004        149.0004
 11 10 14  0  6  0.0000000  0  9G05G10G07G08G13G16G02G04G26
 -17422521.77849 -13308923.80849  21439996.5194   21439998.6484   21439996.9534
       238.0004        197.0004
 -19434025.45449 -15133235.76349  20742759.9824   20742763.3784   20742759.2754
       239.0004        195.0004
 -22654149.04149 -17631299.76649  20595285.9604   20595288.5624   20595286.5054
       239.0004        205.0004
 -20682427.40149 -16102001.02449  21006340.4074   21006343.7634   21006340.4554
       240.0004        199.0004
  -9831473.20349  -7347533.16849  22663763.6694   22663766.4834   22663763.3024
       224.0004        162.0004
   2120176.20949   1738897.77749  24548303.4234   24548306.0744   24548302.1894
       205.0004        135.0004
 -15051050.31149 -11441079.85249  22161845.1594   22161845.8374   22161843.3644
       228.0004        174.0004
   1828999.86549   1709509.17349  24541508.2154   24541514.8294   24541510.0764
       207.0004        139.0004
  -5043945.25049  -3117844.69449  23318216.7514   23318220.5074   23318217.0454
       210.0004        150.0004
 11 10 14  0  6 30.0000000  0  9G05G10G07G08G13G16G02G04G26
 -17485086.15749 -13357675.26849  21428090.4724   21428092.8574   21428090.5574
       236.0004        196.0004
 -19377755.84249 -15089389.31649  20753467.6134   20753470.9774   20753467.0544
       239.0004        195.0004
 -22640465.22549 -17620637.04349  20597890.5594   20597892.2454   20597890.3484
       239.0004        205.0004
 -20735021.23549 -16142983.20749  20996331.9654   20996335.6444   20996331.2954
       240.0004        199.0004
  -9742151.58449  -7277931.92849  22680759.8224   22680762.4974   22680761.5204
       221.0004        161.0004
   2179356.58149   1785012.36349  24559563.6384   24559565.1504   24559563.3624
       205.0004        136.0004
 -14985725.83749 -11390177.68949  22174273.9074   22174275.7254   22174275.1264
       227.0004        174.0004
   1938890.52449   1795138.22849  24562421.0894   24562423.6564   24562422.5664
       205.0004        140.0004
  -5149209.49649  -3199868.74349  23298184.6924   23298189.2684   23298186.1554
       210.0004        147.0004
 11 10 14  0  7  0.0000000  0  9G05G10G07G08G13G16G02G04G26
 -17547255.66149 -13406119.03749  21416259.1284   21416262.1794   21416260.5014
       237.0004        196.0004
 -19321032.36449 -15045189.21949  20764262.1044   20764265.2764   20764261.3444
       240.0004        195.0004
 -22626231.55949 -17609545.86749  20600598.2184   20600600.7254   20600598.6724
       239.0004        204.0004
 -20787128.87149 -16183586.54949  20986416.4694   20986419.4374   20986416.0184
       241.0004        199.0004
  -9652670.38949  -7208206.34549  22697788.4124   22697790.8874   22697789.2044
       221.0004        159.0004
   2239037.37649   1831516.90249  24570921.8394   24570921.2054   24570921.7324
       206.0004        136.0004
 -14919933.55649 -11338910.99349  22186795.2024   22186795.2064   22186794.6964
       228.0004        173.0004
   2048797.27049   1880779.79349  24583331.8024   24583338.2424   24583332.4894
       196.0004        130.0004
  -5254310.01549  -3281765.25249  23278187.2934   23278188.4874   23278187.2984
       215.0004        150.0004
 11 10 14  0  7 30.0000000  0  9G05G10G07G08G13G16G02G04G26
 -17609028.03049 -13454253.34949  21404505.2674   21404507.6304   21404505.8824
       237.0004        196.0004
 -19263856.08949 -15000636.30449  20775142.4884   20775145.9114   20775141.8554
       238.0004        195.0004
 -22611449.26849 -17598027.19549  20603411.5284   20603413.9324   20603411.8634
       239.0004        205.0004
 -20838748.88249 -16223809.91849  20976593.0124   20976596.6314   20976593.1464
       241.0004        199.0004
  -9563030.79749  -7138357.33949  22714845.7114   22714849.1114   22714846.1554
       220.0004        159.0004
   2299216.82449   1878409.97749  24582374.1914   24582374.1244   24582373.2874
       208.0004        137.0004
 -14853675.61449 -11287281.43849  22199404.2824   22199403.7934   22199403.5384
       228.0004        174.0004
   2158717.95249   1966432.21349  24604252.5594   24604255.2624   24604252.9534
       206.0004        132.0004
  -5359245.23949  -3363532.94349  23258218.0864   23258221.1024   23258218.3034
       212.0004        148.0004
 11 10 14  0  8  0.0000000  0  9G05G10G07G08G13G16G02G04G26
 -17670400.86249 -13502076.32549  21392826.9894   21392828.9404   21392826.9534
       238.0004        197.0004
 -19206227.84549 -14955731.19249  20786108.9604   20786112.1984   20786108.4534
       240.0004        196.0004
 -22596118.74149 -17586081.32649  20606329.2724   20606331.3014   20606329.5254
       239.0004        204.0004
 -20889880.18549 -16263652.48349  20966863.8624   20966866.6394   20966863.3164
       242.0004        199.0004
  -9473233.36049  -7068385.33749  22731934.2074   22731936.8084   22731934.5044
       222.0004        159.0004
   2359892.90849   1925690.00449  24593918.8184   24593917.6344   24593918.3294
       205.0004        135.0004
 -14786954.57449 -11235291.03549  22212099.2134   22212101.4404   22212098.9904
       228.0004        173.0004
   2268649.58449   2052093.31549  24625171.9854   24625174.7764   24625171.1254
       208.0004        140.0004
  -5464013.82749  -3445170.75249  23238280.0824   23238284.3004   23238281.3234
       213.0004        151.0004
 11 10 14  0  8 30.0000000  0  9G05G10G07G08G13G16G02G04G26
 -17731372.76949 -13549586.89949  21381224.2574   21381226.0284   21381224.0034
       237.0004        196.0004
 -19148149.14749 -14910475.08349  20797160.4624   20797163.6864   20797159.8814
       239.0004        196.0004
 -22580241.51349 -17573709.44949  20609350.2744   20609352.7364   20609350.3814
       239.0004        205.0004
 -20940522.30749 -16303113.85449  20957227.1694   20957229.9084   20957226.2374
       242.0004        199.0004
  -9383280.09849  -6998291.91349  22749052.2824   22749054.1864   22749052.5204
       223.0004        158.0004
   2421062.72249   1973354.80549  24605558.7934   24605562.1264   24605557.3704
       201.0004        133.0004
 -14719773.48949 -11182942.16049  22224884.6874   22224884.2714   22224883.5554
       227.0004        172.0004
   2378589.15849   2137760.46149  24646089.3994   24646100.1814   24646091.9364
       195.0004        133.0004
  -5568614.82949  -3526677.98649  23218376.3134   23218379.8194   23218375.8394
       215.0004        153.0004
 11 10 14  0  9  0.0000000  0  9G05G10G07G08G13G16G02G04G26
 -17791941.60249 -13596783.39349  21369697.3894   21369699.6834   21369698.3454
       237.0004        195.0004
 -19089620.88749 -14864868.68549  20808298.5474   20808301.5554   20808297.9494
       240.0004        196.0004
 -22563818.33149 -17560912.16449  20612474.8494   20612477.9274   20612475.6244
       239.0004        205.0004
 -20990673.48449 -16342192.68249  20947682.4734   20947686.2844   20947682.8084
       242.0004        200.0004
  -9293171.78849  -6928077.69149  22766198.4194   22766200.7194   22766199.7204
       220.0004        158.0004
   2482724.87749   2021403.23649  24617294.6874   24617295.6384   24617295.4314
       204.0004        134.0004
 -14652134.59749 -11130236.56849  22237756.6374   22237757.2524   22237756.0504
       229.0004        174.0004
   2488534.60849   2223432.03849  24667016.6314   24667017.8414   24667015.8664
       208.0004        134.0004
  -5673046.89349  -3608053.62049  23198501.7914   23198505.1034   23198503.0124
       212.0004        147.0004
 11 10 14  0  9 30.0000000  0  9G05G10G07G08G13G16G02G04G26
 -17852105.83849 -13643664.61749  21358249.6224   21358250.7424   21358249.8784
       238.0004        196.0004
 -19030644.53749 -14818913.11349  20819521.1614   20819524.6104   20819520.7284
       240.0004        196.0004
 -22546850.71649 -17547690.64149  20615704.3844   20615706.7514   20615704.7064
       238.0004        205.0004
 -21040333.57749 -16380888.83949  20938233.8694   20938236.6494   20938233.4504
       242.0004        200.0004
  -9202909.84549  -6857743.73749  22783373.8804   22783377.3524   22783374.9674
       219.0004        158.0004
   2544876.74749   2069833.24549  24629120.5254   24629122.6214   24629119.3404
       200.0004        132.0004
 -14584041.12949 -11077176.74349  22250713.9104   22250713.8804   22250713.5644
       228.0004        174.0004
   2598482.39849   2309105.73049  24687936.5464   24687938.1174   24687937.7714
       206.0004        131.0004
  -5777309.19349  -3689296.93649  23178663.7394   23178665.3164   23178663.5394
       216.0004        150.0004
 11 10 14  0 10  0.0000000  0  9G05G10G07G08G13G16G02G04G26
 -17911862.42949 -13690228.19249  21346877.3204   21346880.6174   21346877.4994
       236.0004        196.0004
 -18971220.55049 -14772608.72849  20830829.0234   20830831.9874   20830828.6994
       240.0004        195.0004
 -22529338.71549 -17534044.92149  20619036.8314   20619039.4024   20619037.1084
       239.0004        205.0004
 -21089500.33349 -16419200.57149  20928877.0184   20928880.0394   20928876.8114
       241.0004        200.0004
  -9112494.72649  -6787290.42249  22800580.6364   22800583.2214   22800581.2064
       223.0004        159.0004
   2607517.18149   2118643.94749  24641038.6394   24641041.2554   24641040.2794
       199.0004        130.0004
 -14515494.70849 -11023763.95849  22263756.4394   22263757.7964   22263756.7654
       226.0004        172.0004
   2708431.23949   2394780.24649  24708856.8244   24708864.4944   24708859.8114
       191.0004        132.0004
  -5881399.09049  -3770405.94549  23158855.0624   23158857.4554   23158855.3704
       214.0004        152.0004
 11 10 14  0 10 30.0000000  0  9G05G10G07G08G13G16G02G04G26
 -17971208.99249 -13736472.25949  21335584.2654   21335587.4304   21335585.2184
       238.0004        197.0004
 -18911350.08449 -14725956.44449  20842222.5354   20842225.2264   20842221.6574
       240.0004        195.0004
 -22511283.49449 -17519975.91249  20622472.6514   20622474.8584   20622472.6534
       239.0004        205.0004
 -21138172.66449 -16457127.04049  20919615.2344   20919617.8874   20919614.4514
       243.0004        200.0004
  -9021927.23749  -6716718.38349  22817814.0934   22817817.5434   22817815.0264
       221.0004        157.0004
   2670643.96449   2167833.64549  24653053.4194   24653053.3584   24653053.6654
       199.0004        131.0004
 -14446497.80849 -10970000.15849  22276887.9134   22276887.5634   22276886.3674
       226.0004        172.0004
   2818378.49749   2480453.21349  24729781.0524   24729787.7284   24729781.9704
       204.0004        138.0004
  -5985315.62749  -3851379.79949  23139080.5624   23139082.8924   23139080.7944
       216.0004        152.0004
 11 10 14  0 11  0.0000000  0  9G05G10G07G08G13G16G02G04G26
 -18030145.22449 -13782396.59849  21324369.4774   21324371.5354   21324369.8894
       238.0004        196.0004
 -18851035.25249 -14678957.88049  20853698.8944   20853703.1774   20853699.0634
       239.0004        196.0004
 -22492687.23549 -17505485.32249  20626011.0134   20626013.3394   20626011.9214
       239.0004        205.0004
 -21186351.04549 -16494668.61949  20910446.2114   20910450.0534   20910446.8674
       241.0004        200.0004
  -8931210.00449  -6646029.67449  22835078.1594   22835080.8894   22835078.1384
       222.0004        157.0004
   2734253.75149   2217399.72449  24665157.7974   24665162.8464   24665156.9374
       198.0004        132.0004
 -14377054.33149 -10915888.38349  22290102.1524   22290102.9544   22290102.1704
       227.0004        171.0004
   2928319.79749   2566121.74549  24750701.3134   24750706.6684   24750703.2124
       203.0004        134.0004
  -6089058.76449  -3932218.57149  23119339.0564   23119340.4504   23119337.5894
       214.0004        151.0004
 11 10 14  0 11 30.0000000  0  9G05G10G07G08G13G16G02G04G26
 -18088667.54549 -13827998.40749  21313232.5194   21313234.8274   21313233.0654
       237.0004        196.0004
 -18790275.97849 -14631613.02049  20865262.7664   20865265.1294   20865261.3264
       241.0004        195.0004
 -22473549.91549 -17490573.11849  20629653.2504   20629655.1254   20629653.4194
       239.0004        205.0004
 -21234033.49549 -16531823.74649  20901374.2884   20901376.2924   20901373.1084
       243.0004        201.0004
  -8840343.14449  -6575224.37749  22852370.6494   22852371.8044   22852370.2354
       223.0004        158.0004
   2798345.41749   2267341.30649  24677354.6884   24677357.1194   24677353.5914
       200.0004        132.0004
 -14307166.11249 -10861430.05249  22303400.5024   22303402.2024   22303400.8574
       227.0004        173.0004
   3038253.96049   2651784.83649  24771620.9684   24771621.6804   24771624.9994
       191.0004        124.0004
  -6192626.11549  -4012920.41649  23099629.3204   23099632.2994   23099629.8944
       213.0004        149.0004
 11 10 14  0 12  0.0000000  0  9G05G10G07G08G13G16G02G04G26
 -18146775.10349 -13873277.01449  21302174.5814   21302177.9684   21302175.3354
       236.0004        197.0004
 -18729074.60549 -14583923.66849  20876907.9684   20876911.5594   20876907.2704
       240.0004        195.0004
 -22453873.68449 -17475240.98449  20633397.5014   20633399.4564   20633397.9094
       240.0004        205.0004
 -21281219.49149 -16568592.03749  20892393.4374   20892396.7504   20892393.5934
       242.0004        200.0004
  -8749328.56849  -6504303.94949  22869689.6504   22869690.8204   22869689.7734
       223.0004        161.0004
   2862916.20149   2317656.21849  24689641.5994   24689643.8994   24689638.3954
       201.0004        132.0004
 -14236836.73149 -10806627.96549  22316783.2844   22316785.0794   22316784.3034
       226.0004        172.0004
   3148178.00549   2737439.86449  24792537.6424   24792546.8594   24792540.0324
       201.0004        134.0004
  -6296017.05249  -4093484.74949  23079955.8114   23079959.2844   23079955.6994
       215.0004        155.0004
 11 10 14  0 12 30.0000000  0  9G05G10G07G08G13G16G02G04G26
 -18204465.04249 -13918230.20749  21291196.7504   21291199.6304   21291197.3704
       237.0004        198.0004
 -18667430.78249 -14535889.54849  20888638.5424   20888641.6804   20888638.0314
       240.0004        195.0004
 -22433658.20949 -17459488.66349  20637243.7484   20637246.2644   20637244.4184
       239.0004        205.0004
 -21327907.06449 -16604971.94549  20883510.0054   20883513.0254   20883509.7194
       243.0004        201.0004
  -8658166.36649  -6433268.49949  22887036.8774   22887038.2944   22887037.1594
       225.0004        160.0004
   2927964.97549   2368343.54449  24702019.8924   24702023.1884   24702020.4434
       204.0004        134.0004
 -14166067.59049 -10751483.19649  22330250.3774   22330252.1234   22330249.9154
       224.0004        169.0004
   3258089.74549   2823085.25049  24813453.0024   24813459.6434   24813457.0994
       202.0004        141.0004
  -6399229.23149  -4173909.78149  23060314.3724   23060318.1054   23060313.9894
       214.0004        153.0004
 11 10 14  0 13  0.0000000  0  9G05G10G07G08G13G16G02G04G26
 -18261736.28549 -13962857.15749  21280299.2294   21280301.2584   21280299.2724
       238.0004        198.0004
 -18605346.88049 -14487512.50949  20900452.4614   20900455.9164   20900451.9664
       239.0004        195.0004
 -22412906.17649 -17443318.24549  20641193.3154   20641195.4774   20641193.5964
       240.0004        205.0004
 -21374096.65449 -16640963.82149  20874719.5334   20874723.5794   20874719.4564
       242.0004        202.0004
  -8566858.22049  -6362119.32549  22904413.2774   22904414.0904   22904412.9814
       223.0004        159.0004
   2993488.41049   2419400.71549  24714488.3444   24714491.5554   24714487.9304
       205.0004        135.0004
 -14094862.40449 -10695998.65749  22343801.5214   22343800.2414   22343800.3394
       224.0004        168.0004
   3367985.95749   2908718.63749  24834364.7104   24834371.7824   24834366.4554
       188.0004        124.0004
  -6502262.75149  -4254195.62649  23040707.4214   23040710.6694   23040708.2684
       214.0004        152.0004
 11 10 14  0 13 30.0000000  0  9G05G10G07G08G13G16G02G04G26
 -18318586.75949 -14007156.21949  21269480.1434   21269482.8874   21269480.4704
       236.0004        197.0004
 -18542824.27749 -14438793.63049  20912350.5184   20912353.2534   20912349.8854
       240.0004        195.0004
 -22391618.45849 -17426730.40449  20645243.7934   20645246.5514   20645244.4114
       240.0004        205.0004
 -21419787.01849 -16676566.68849  20866026.5924   20866028.9264   20866025.5434
       244.0004        202.0004
  -8475405.16649  -6290857.24049  22921813.5524   22921817.7814   22921814.2534
       219.0004        155.0004
   3059484.37549   2470826.10949  24727046.5394   24727046.8794   24727045.9824
       204.0004        134.0004
 -14023223.79349 -10640176.37949  22357432.0544   22357434.2024   22357433.2574
       223.0004        168.0004
   3477864.04149   2994337.91949  24855279.2824   24855280.7624   24855282.6214
       204.0004        128.0004
  -6605115.97949  -4334340.96149  23021134.3164   23021138.9984   23021136.1864
       213.0004        153.0004
 11 10 14  0 14  0.0000000  0  9G05G10G07G08G13G16G02G04G26
 -18375013.58649 -14051125.16949  21258742.7774   21258745.1454   21258743.5594
       238.0004        198.0004
 -18479863.70549 -14389733.48049  20924331.5834   20924334.8164   20924330.8324
       240.0004        195.0004
 -22369795.03049 -17409725.12649  20649396.5834   20649399.1314   20649396.9554
       239.0004        205.0004
 -21464976.78549 -16711779.47149  20857425.2764   20857429.3864   20857425.8614
       241.0004        201.0004
  -8383807.94349  -6219482.82749  22939245.1874   22939247.5944   22939245.2164
       222.0004        157.0004
   3125950.93449   2522618.21449  24739695.5674   24739695.8584   24739698.8374
       204.0004        132.0004
 -13951154.03549 -10584018.13649  22371147.6564   22371149.3974   22371146.8854
       226.0004        170.0004
   3587721.98349   3079941.57449  24876183.0164   24876189.2444   24876183.8544
       204.0004        139.0004
  -6707786.87149  -4414344.21349  23001598.0304   23001601.4584   23001598.7714
       217.0004        155.0004
 11 10 14  0 14 30.0000000  0  9G05G10G07G08G13G16G02G04G26
 -18431015.17549 -14094762.78349  21248086.6104   21248088.9654   21248086.5244
       238.0004        199.0004
 -18416466.26649 -14340332.91549  20936395.9704   20936398.8094   20936395.2334
       240.0004        195.0004
 -22347437.77649 -17392303.89649  20653651.8564   20653653.9404   20653651.6404
       240.0004        205.0004
 -21509664.89649 -16746601.36649  20848922.1294   20848925.7324   20848922.0884
       243.0004        202.0004
  -8292067.93349  -6147997.12449  22956703.2764   22956704.7734   22956704.0534
       220.0004        157.0004
   3192886.14449   2574775.51749  24752432.7984   24752434.7144   24752431.1734
       203.0004        134.0004
 -13878655.87849 -10527526.10849  22384944.7964   22384945.7714   22384943.7414
       226.0004        170.0004
   3697557.02049   3165527.24249  24897082.5474   24897088.1174   24897081.4814
       188.0004        130.0004
  -6810274.47749  -4494204.69849  22982095.9854   22982099.4534   22982095.4434
       217.0004        154.0004
 11 10 14  0 15  0.0000000  0  9G05G10G07G08G13G16G02G04G26
 -18486589.86549 -14138067.72749  21237509.8254   21237513.1224   21237510.5624
       237.0004        198.0004
 -18352633.25649 -14290592.93249  20948542.2014   20948546.0664   20948542.0604
       239.0004        194.0004
 -22324548.00349 -17374467.70249  20658007.0974   20658009.5094   20658007.6744
       240.0004        205.0004
 -21553851.01349 -16781032.08049  20840513.1324   20840517.1364   20840513.1564
       241.0004        202.0004
  -8200186.37949  -6076401.14449  22974185.9134   22974188.9194   22974187.1834
       220.0004        157.0004
   3260287.22749   2627295.80349  24765258.9624   24765259.1894   24765257.5184
       203.0004        134.0004
 -13805732.53249 -10470702.74749  22398818.5524   22398821.2644   22398819.3744
       222.0004        168.0004
   3807366.45549   3251092.87249  24917977.5074   24917984.0104   24917979.5034
       200.0004        128.0004
  -6912577.59849  -4573921.35249  22962628.7514   22962631.1704   22962627.5524
       217.0004        155.0004
 11 10 14  0 15 30.0000000  0  9G05G10G07G08G13G16G02G04G26
 -18541735.64449 -14181038.47449  21227016.7594   21227018.5454   21227017.4104
       238.0004        198.0004
 -18288365.74449 -14240514.37749  20960772.3574   20960775.8564   20960771.9704
       239.0004        195.0004
 -22301126.92849 -17356217.51649  20662463.8804   20662466.0234   20662464.6934
       239.0004        205.0004
 -21597534.10649 -16815070.83349  20832201.1474   20832204.3514   20832201.0444
       242.0004        201.0004
  -8108164.24949  -6004695.61349  22991698.6264   22991701.8334   22991698.5844
       220.0004        156.0004
   3328152.26749   2680177.64749  24778173.8754   24778174.9804   24778172.6914
       201.0004        132.0004
 -13732386.52349 -10413550.04149  22412777.7974   22412778.3344   22412776.5404
       225.0004        167.0004
   3917147.68349   3336636.83849  24938868.1034   24938868.6674   24938872.9514
       204.0004        130.0004
  -7014694.74749  -4653493.12549  22943195.7004   22943197.8574   22943195.8214
       217.0004        155.0004
 11 10 14  0 16  0.0000000  0  9G05G10G07G08G13G16G02G04G26
 -18596450.61849 -14223673.52149  21216605.0944   21216606.9894   21216605.4934
       238.0004        199.0004
 -18223665.31049 -14190098.48249  20973084.5344   20973088.2414   20973084.0814
       238.0004        194.0004
 -22277175.91549 -17337554.38049  20667022.3094   20667024.2794   20667022.4254
       240.0004        205.0004
 -21640713.51749 -16848717.10749  20823983.7764   20823987.6964   20823983.8664
       241.0004        201.0004
  -8016002.89849  -5932881.63949  23009237.0264   23009237.8044   23009236.8244
       221.0004        156.0004
   3396478.68049   2733419.03549  24791174.4424   24791177.3384   24791173.5884
       203.0004        130.0004
 -13658620.89049 -10356070.32749  22426814.9104   22426816.7164   22426815.2144
       225.0004        168.0004
   4026897.91249   3422156.56749  24959753.9704   24959760.5064   24959752.7224
       192.0004        134.0004
  -7116625.03649  -4732919.30949  22923798.1224   22923801.2344   22923798.2644
       216.0004        154.0004
 11 10 14  0 16 30.0000000  0  9G05G10G07G08G13G16G02G04G26
 -18650732.55849 -14265971.13649  21206275.2654   21206278.0574   21206276.0264
       238.0004        200.0004
 -18158532.88049 -14139345.95549  20985478.8004   20985482.2894   20985478.3714
       239.0004        193.0004
 -22252695.84049 -17318478.99749  20671679.9394   20671682.0424   20671680.7764
       240.0004        205.0004
 -21683388.15949 -16881970.05649  20815864.1434   20815867.0194   20815863.8354
       243.0004        201.0004
  -7923703.06249  -5860959.72249  23026800.4324   23026802.1074   23026802.2214
       222.0004        158.0004
   3465264.58149   2787018.43349  24804264.2394   24804265.4064   24804264.1424
       204.0004        132.0004
 -13584437.92049 -10298265.42749  22440932.4004   22440932.0824   22440931.4884
       225.0004        169.0004
   4136615.37949   3507650.46149  24980629.4764   24980640.5294   24980633.6164
       200.0004        131.0004
  -7218366.78249  -4812198.57749  22904437.6324   22904440.9114   22904437.6304
       216.0004        154.0004
 11 10 14  0 17  0.0000000  0  9G05G10G07G08G13G16G02G04G26
 -18704579.86949 -14307930.07549  21196028.4194   21196031.0534   21196028.4674
       238.0004        199.0004
 -18092970.27249 -14088258.23249  20997955.7944   20997957.9074   20997954.9044
       237.0004        193.0004
 -22227688.83449 -17298993.01649  20676439.0464   20676440.7604   20676439.5154
       240.0004        205.0004
 -21725557.59549 -16914829.33549  20807839.2924   20807842.3664   20807838.4554
       242.0004        202.0004
  -7831266.04349  -5788930.90649  23044390.1784   23044393.2704   23044390.7204
       221.0004        157.0004
   3534507.27449   2840973.70749  24817440.7074   24817442.2864   24817441.2114
       204.0004        135.0004
 -13509841.01549 -10240138.01049  22455125.5934   22455127.2664   22455126.6164
       223.0004        169.0004
   4246296.54649   3593116.27249  25001507.3154   25001501.1984   25001509.0674
       212.0004        128.0004
  -7319919.05849  -4891330.18749  22885113.7364   22885116.4734   22885112.8104
       218.0004        155.0004
 11 10 14  0 17 30.0000000  0  9G05G10G07G08G13G16G02G04G26
 -18757990.32949 -14349548.62549  21185865.2584   21185867.1644   21185866.2174
       239.0004        200.0004
 -18026978.62949 -14036836.18849  21010512.3094   21010516.3054   21010511.7274
       236.0004        193.0004
 -22202155.30249 -17279096.75549  20681297.3384   20681300.0754   20681298.0994
       239.0004        205.0004
 -21767220.62049 -16947294.01749  20799910.0654   20799914.0524   20799910.5794
       242.0004        202.0004
  -7738692.87449  -5716795.99649  23062007.4154   23062009.0234   23062005.9714
       220.0004        153.0004
   3604204.25149   2895283.04249  24830704.8564   24830706.1064   24830705.3954
       207.0004        134.0004
 -13434832.69749 -10181690.00549  22469398.8514   22469401.4574   22469399.6444
       223.0004        168.0004
   4355939.34749   3678552.48749  25022374.6504   25022374.4304   25022373.1124
       196.0004        126.0004
  -7421280.29249  -4970312.95149  22865825.2954   22865827.3614   22865825.0794
       217.0004        155.0004
 11 10 14  0 18  0.0000000  0  9G05G10G07G08G13G16G02G04G26
 -18810961.95849 -14390825.23149  21175784.4054   21175786.8874   21175785.0604
       238.0004        199.0004
 -17960558.95449 -13985080.62949  21023151.9714   21023155.4244   21023151.5654
       237.0004        193.0004
 -22176096.18649 -17258790.94949  20686256.9154   20686258.5514   20686256.9124
       241.0004        204.0004
 -21808375.83849 -16979362.99949  20792079.2714   20792082.7644   20792079.0304
       242.0004        202.0004
  -7645984.22049  -5644555.53649  23079648.1504   23079651.1494   23079647.4944
       219.0004        154.0004
   3674354.21849   2949945.35549  24844054.0974   24844056.2444   24844052.7074
       207.0004        134.0004
 -13359415.33649 -10122923.24149  22483753.5514   22483753.0204   22483750.9374
       225.0004        167.0004
   4465541.82649   3763956.80649  25043226.7504   25043237.0834   25043227.2504
       205.0004        130.0004
  -7522449.01349  -5049145.68649  22846572.3794   22846575.7784   22846573.7954
       217.0004        157.0004
 11 10 14  0 18 30.0000000  0  9G05G10G07G08G13G16G02G04G26
 -18863493.41449 -14431758.81449  21165788.0884   21165790.9074   21165788.5674
       238.0004        200.0004
 -17893713.02849 -13932992.92949  21035872.2504   21035875.7214   21035871.6844
       235.0004        192.0004
 -22149513.73649 -17238077.34949  20691314.0114   20691317.3154   20691314.9444
       241.0004        204.0004
 -21849023.79049 -17011036.70349  20784344.1564   20784347.3484   20784343.9434
       242.0004        202.0004
  -7553141.70949  -5572210.77849  23097316.3974   23097318.3924   23097317.3924
       218.0004        152.0004
   3744953.64049   3004957.88349  24857487.1604   24857488.3194   24857487.2374
       203.0004        134.0004
 -13283592.85649 -10063840.79849  22498179.9564   22498181.2104   22498180.6694
       223.0004        167.0004
   4575100.38349   3849326.93849  25064075.7154   25064078.0654   25064077.1954
       211.0004        140.0004
  -7623424.40049  -5127827.78749  22827357.8384   22827361.9474   22827358.7094
       217.0004        154.0004
 11 10 14  0 19  0.0000000  0  9G05G10G07G08G13G16G02G04G26
 -18915582.83349 -14472347.97649  21155876.2254   21155878.8594   21155876.5674
       239.0004        200.0004
 -17826442.02949 -13880574.00449  21048673.1744   21048677.1064   21048673.0274
       236.0004        192.0004
 -22122409.34649 -17216957.04849  20696473.4014   20696474.9744   20696473.5004
       242.0004        205.0004
 -21889163.67749 -17042314.52249  20776705.9514   20776709.2934   20776705.9934
       243.0004        203.0004
  -7460166.45749  -5499762.54449  23115009.3794   23115010.3324   23115007.4754
       220.0004        151.0004
   3816000.37749   3060318.97649  24871008.8724   24871009.9774   24871006.1124
       207.0004        136.0004
 -13207367.92849 -10004444.78249  22512686.4844   22512686.1384   22512685.5734
       223.0004        168.0004
   4684612.48549   3934661.09649  25084914.2784   25084912.0594   25084916.5344
       188.0004        123.0004
  -7724205.24749  -5206358.29349  22808179.4194   22808184.1894   22808179.9644
       215.0004        156.0004
 11 10 14  0 19 30.0000000  0  9G05G10G07G08G13G16G02G04G26
 -18967226.82049 -14512590.04849  21146048.5714   21146050.5554   21146049.1414
       238.0004        200.0004
 -17758746.06149 -13827823.92549  21061556.6604   21061558.6964   21061555.7294
       237.0004        192.0004
 -22094783.01949 -17195430.03049  20701729.6094   20701732.4824   20701729.9264
       240.0004        204.0004
 -21928793.30349 -17073194.73449  20769164.2464   20769167.7114   20769164.0894
       242.0004        202.0004
  -7367058.29049  -5427210.77049  23132725.1454   23132728.6424   23132726.8874
       217.0004        151.0004
   3887493.32649   3116027.75049  24884613.4484   24884614.5024   24884613.3554
       209.0004        138.0004
 -13130741.97949  -9944736.27749  22527266.5564   22527268.3254   22527266.5914
       223.0004        168.0004
   4794077.27949   4019958.34749  25105748.3744   25105748.6094   25105744.4734
       201.0004        125.0004
  -7824788.76249  -5284735.02849  22789037.7774   22789042.4954   22789038.7544
       215.0004        157.0004
 11 10 14  0 20  0.0000000  0  9G05G10G07G08G13G16G02G04G26
 -19018425.02449 -14552484.75849  21136305.3584   21136307.5174   21136306.2774
       238.0004        199.0004
 -17690627.90749 -13774744.86349  21074518.4854   21074521.9594   21074518.1244
       236.0004        192.0004
 -22066637.32449 -17173498.31949  20707086.3814   20707088.2574   20707086.4504
       243.0004        205.0004
 -21967913.13149 -17103677.70649  20761720.3814   20761723.3344   20761720.2084
       243.0004        202.0004
  -7273819.73749  -5354557.37249  23150469.1674   23150471.2954   23150468.9274
       218.0004        148.0004
   3959428.76549   3172081.32049  24898300.2924   24898302.1164   24898300.2584
       203.0004        134.0004
 -13053719.15649  -9884718.52949  22541924.1584   22541925.4284   22541923.8994
       223.0004        168.0004
   4903490.48349   4105215.31149  25126565.9844   25126570.9024   25126566.8924
       209.0004        141.0004
  -7925175.15549  -5362958.16949  22769937.0944   22769939.2034   22769936.5144
       219.0004        157.0004
 11 10 14  0 20 30.0000000  0  9G05G10G07G08G13G16G02G04G26
 -19069175.69449 -14592030.73249  21126648.3494   21126650.8994   21126648.9934
       239.0004        200.0004
 -17622089.28449 -13721338.16949  21087560.2004   21087564.3884   21087560.1494
       236.0004        192.0004
 -22037973.90749 -17151163.16649  20712540.2344   20712542.0654   20712540.7744
       242.0004        205.0004
 -22006523.03149 -17133763.32649  20754373.3734   20754376.2154   20754372.4944
       243.0004        202.0004
  -7180452.00949  -5281803.34549  23168235.6974   23168238.6594   23168235.6564
       216.0004        148.0004
   4031804.03249   3228477.64549  24912074.2914   24912074.1904   24912074.3064
       204.0004        134.0004
 -12976302.87049  -9824394.16849  22556655.8894   22556657.0984   22556656.1244
       223.0004        167.0004
   5012849.50649   4190430.11349  25147375.0954   25147381.1214   25147377.1044
       192.0004        134.0004
  -8025363.43449  -5441026.93849  22750871.5984   22750873.9274   22750870.9514
       219.0004        158.0004
 11 10 14  0 21  0.0000000  0  9G05G10G07G08G13G16G02G04G26
 -19119475.93249 -14631225.72749  21117077.0804   21117078.9894   21117077.0754
       239.0004        200.0004
 -17553130.32449 -13667603.93549  21100683.4874   21100686.4474   21100683.0354
       237.0004        192.0004
 -22008793.17849 -17128424.92749  20718093.5884   20718095.6464   20718093.8254
       242.0004        205.0004
 -22044621.14549 -17163450.16149  20747122.6974   20747126.4084   20747122.9634
       242.0004        203.0004
  -7086954.97749  -5208948.55149  23186027.3894   23186029.5634   23186028.4534
       215.0004        147.0004
   4104617.69549   3285215.53449  24925929.8214   24925932.7684   24925929.7314
       202.0004        132.0004
 -12898494.85549  -9763764.55449  22571462.4544   22571464.1624   22571461.6734
       222.0004        165.0004
   5122153.18349   4275601.75949  25168174.6734                   25168174.4134
       194.0004        120.0004
  -8125350.90349  -5518939.23849  22731842.7284   22731848.1044   22731843.5904
       217.0004        158.0004
 11 10 14  0 21 30.0000000  0  9G05G10G07G08G13G16G02G04G26
 -19169324.22449 -14670068.55149  21107590.4784   21107592.6224   21107590.7754
       238.0004        199.0004
 -17483752.60649 -13613543.39849  21113885.8744   21113889.1904   21113885.1114
       237.0004        192.0004
 -21979096.80049 -17105284.89749  20723743.8934   20723746.2564   20723744.8764
       241.0004        204.0004
 -22082207.22449 -17192737.99949  20739970.8444   20739974.4014   20739970.7764
       243.0004        203.0004
  -6993330.09349  -5135994.13649  23203843.3884   23203848.1284   23203844.8454
       215.0004        147.0004
   4177867.05249   3342292.96249  24939867.1214   24939869.9534   24939866.6884
       200.0004        133.0004
 -12820298.59549  -9702832.42349  22586343.0464   22586343.8894   22586341.6924
       223.0004        167.0004
   5231398.25949   4360727.80649  25188964.6894   25188970.7344   25188966.5344
       205.0004        131.0004
  -8225137.04049  -5596694.65249  22712854.8034   22712859.0934   22712855.2214
       216.0004        157.0004
 11 10 14  0 22  0.0000000  0  9G05G10G07G08G13G16G02G04G26
 -19218718.96049 -14708557.96649  21098190.9804   21098193.1464   21098191.6874
       238.0004        199.0004
 -17413957.72949 -13559157.80649  21127167.7714   21127170.7774   21127166.7074
       236.0004        192.0004
 -21948886.48549 -17081744.37849  20729493.7154   20729495.5204   20729493.7644
       242.0004        204.0004
 -22119281.08449 -17221626.69949  20732915.5284   20732918.9164   20732915.3004
       242.0004        202.0004
  -6899578.68249  -5062941.12749  23221686.4354   23221687.6634   23221686.1314
       217.0004        148.0004
   4251549.39849   3399707.82749  24953891.7884   24953891.6914   24953889.5644
       204.0004        133.0004
 -12741716.89149  -9641599.95249  22601295.6614   22601297.9044   22601295.2564
       221.0004        167.0004
   5340582.17249   4445806.17449  25209744.4484   25209746.3644   25209744.0454
       203.0004        135.0004
  -8324720.23249  -5674291.88849  22693904.5344   22693908.6144   22693906.3384
       219.0004        160.0004
 11 10 14  0 22 30.0000000  0  9G05G10G07G08G13G16G02G04G26
 -19267658.61349 -14746692.76149  21088878.3904   21088880.5194   21088878.6844
       238.0004        200.0004
 -17343747.59449 -13504448.63849  21140527.3884   21140530.8774   21140527.0244
       236.0004        191.0004
 -21918163.53649 -17057804.41649  20735339.0544   20735341.6874   20735339.5604
       241.0004        203.0004
 -22155841.88349 -17250115.61649  20725959.1214   20725961.7104   20725958.4544
       243.0004        202.0004
  -6805701.79349  -4989790.34249  23239548.6064   23239552.9304   23239550.7314
       215.0004        143.0004
   4325662.25149   3457458.12149  24967994.3234   24967993.3144   24967994.9314
       209.0004        135.0004
 -12662752.61949  -9580069.38349  22616322.5894   22616324.1604   22616323.3004
       222.0004        166.0004
   5449702.44949   4530834.82449  25230504.9294   25230513.9644   25230504.4054
       193.0004        130.0004
  -8424099.73549  -5751730.47049  22674995.1494   22674996.5884   22674995.4144
       220.0004        159.0004
 11 10 14  0 23  0.0000000  0  9G05G10G07G08G13G16G02G04G26
 -19316140.65249 -14784470.97649  21079652.2524   21079655.1864   21079652.6474
       237.0004        200.0004
 -17273122.99749 -13449416.50449  21153966.7934   21153970.4534   21153966.3804
       236.0004        192.0004
 -21886929.07849 -17033465.87749  20741283.5864   20741285.0774   20741283.8664
       242.0004        203.0004
 -22191888.72749 -17278204.06149  20719098.0424   20719102.2454   20719098.1584
       242.0004        202.0004
  -6711699.84449  -4916542.12549  23257439.0054   23257439.0544   23257439.9824
       211.0004        136.0004
   4400203.74949   3515542.41649  24982178.4444   24982179.4304   24982176.6074
       205.0004        132.0004
 -12583408.35949  -9518242.70749  22631420.9334   22631421.7804   22631420.9024
       221.0004        165.0004
   5558756.84849   4615812.08849  25251259.3514   25251263.0874   25251260.3904
       203.0004        126.0004
  -8523273.48649  -5829008.68349  22656121.0134   22656125.1234   22656121.0164
       217.0004        160.0004
 11 10 14  0 23 30.0000000  0  9G05G10G07G08G13G16G02G04G26
 -19364163.30449 -14821891.21149  21070513.7934   21070516.1184   21070514.0594
       238.0004        199.0004
 -17202085.78749 -13394062.85449  21167485.5174   21167488.3844   21167484.9644
       238.0004        192.0004
 -21855185.05049 -17008730.26549  20747323.2894   20747326.4534   20747324.3724
       241.0004        203.0004
 -22227421.16049 -17305891.65749  20712337.9894   20712340.5124   20712337.4904
       243.0004        203.0004
  -6617574.49749  -4843197.71549  23275349.6054   23275347.1234   23275353.3864
       207.0004        131.0004
   4475170.99049   3573958.45249  24996442.6294   24996446.4934   24996442.1294
       203.0004        133.0004
 -12503687.76949  -9456122.78949  22646592.5914   22646593.3664   22646591.3604
       224.0004        164.0004
   5667742.67549   4700736.13349  25271999.3204   25271995.1004   25272000.2794
       205.0004        127.0004
  -8622240.62549  -5906125.91349  22637288.5254   22637293.1584   22637288.8244
       220.0004        162.0004
 11 10 14  0 24  0.0000000  0  9G05G10G07G08G13G16G02G04G26
 -19411724.61749 -14858951.98849  21061463.2094   21061464.8654   21061463.6314
       237.0004        200.0004
 -17130636.87249 -13338388.40449  21181081.6404   21181084.3244   21181080.9074
       237.0004        192.0004
 -21822932.49349 -16983598.39549  20753461.4114   20753463.4934   20753461.4564
       240.0004        202.0004
 -22262438.49249 -17333177.86849  20705674.2094   20705677.0084   20705673.2574
       243.0004        203.0004
  -6523326.38649  -4769757.66249  23293283.2804   23293283.8344   23293282.2514
       205.0004        131.0004
   4550562.03049   3632704.67149  25010790.9424   25010790.5054   25010791.7304
       205.0004        129.0004
 -12423593.07449  -9393711.34649  22661831.5804   22661833.0914   22661833.2854
       220.0004        164.0004
   5776657.85849   4785605.07349  25292722.1584   25292732.4514   25292722.7434
       194.0004        127.0004
  -8720999.41049  -5983080.77349  22618495.3814   22618499.4794   22618495.5164
       217.0004        160.0004
 11 10 14  0 24 30.0000000  0  9G05G10G07G08G13G16G02G04G26
 -19458823.15749 -14895652.14949  21052500.0934   21052503.1704   21052500.5334
       237.0004        200.0004
 -17058777.84449 -13282394.37649  21194755.2254   21194758.3124   21194754.6284
       237.0004        191.0004
 -21790173.05749 -16958071.56849  20759694.8414   20759697.4634   20759695.5564
       240.0004        203.0004
 -22296940.20849 -17360062.30349  20699108.6304   20699111.5494   20699108.4734
       244.0004        203.0004
  -6428956.50749  -4696222.68849  23311241.9304   23311245.9854   23311244.8484
       206.0004        132.0004
   4626373.94049   3691778.86749  25025217.4574   25025214.8944   25025218.1414
       205.0004        131.0004
 -12343127.66149  -9331011.04249  22677145.4184   22677145.0294   22677144.8944
       221.0004        165.0004
   5885499.93649   4870416.93449  25313437.2434   25313443.9874   25313437.3164
       201.0004        130.0004
  -8819548.84849  -6059872.54249  22599741.2154   22599746.3514   22599741.5414
       217.0004        159.0004
 11 10 14  0 25  0.0000000  0  9G05G10G07G08G13G16G02G04G26
 -19505457.50849 -14931990.59949  21043626.4894   21043629.2254   21043627.0014
       238.0004        201.0004
 -16986510.75849 -13226082.38549  21208508.2554   21208510.4944   21208507.4954
       237.0004        191.0004
 -21756908.52049 -16932151.14649  20766025.0824   20766027.5114   20766025.2544
       240.0004        202.0004
 -22330926.22749 -17386544.90249  20692641.0444   20692644.1374   20692640.9464
       243.0004        203.0004
  -6334466.67249  -4622594.26449  23329223.1064   23329225.2704   23329224.1844
       204.0004        132.0004
   4702603.84349   3751178.79849  25039722.6394   25039722.9394   25039721.7494
       203.0004        132.0004
 -12262294.82749  -9268024.44549  22692527.1234   22692528.9294   22692527.0014
       219.0004        164.0004
   5994265.64049   4955169.35149  25334132.8044   25334133.6534   25334133.9374
       201.0004        130.0004
  -8917887.74749  -6136500.23949  22581028.3024   22581033.3404   22581029.2834
       219.0004        161.0004
 11 10 14  0 25 30.0000000  0  9G05G10G07G08G13G16G02G04G26
 -19551625.28949 -14967965.48849  21034840.4064   21034843.5954   21034841.2214
       237.0004        200.0004
 -16913836.31949 -13169452.96649  21222337.1404   21222340.5214   21222336.5614
       236.0004        191.0004
 -21723139.67349 -16905837.76349  20772451.5464   20772453.1724   20772451.7294
       241.0004        202.0004
 -22364395.55649 -17412624.87649  20686272.4804   20686275.3324   20686271.8354
       242.0004        203.0004
  -6239857.15149  -4548872.60149  23347226.3604   23347228.0074   23347225.0664
       203.0004        133.0004
   4779249.85449   3810903.00549  25054308.6734   25054309.7464   25054307.5304
       206.0004        135.0004
 -12181096.84349  -9204753.31749  22707978.2144   22707979.7994   22707978.9344
       222.0004        164.0004
   6102953.53749   5039861.23149  25354814.2324   25354819.2554   25354816.1464
       193.0004        122.0004
  -9016014.60349  -6212962.70149  22562357.0424   22562360.4084   22562355.9314
       219.0004        164.0004
 11 10 14  0 26  0.0000000  0  9G05G10G07G08G13G16G02G04G26
 -19597324.51549 -15003575.28849  21026144.5644   21026146.9394   21026145.4674
       238.0004        200.0004
 -16840756.15849 -13112507.39449  21236242.5824   21236247.3394   21236242.8764
       237.0004        191.0004
 -21688868.59749 -16879133.02749  20778972.8194   20778974.9774   20778973.0494
       241.0004        203.0004
 -22397347.62449 -17438301.80449  20680000.6374   20680004.5244   20680001.0664
       240.0004        203.0004
  -6145129.10849  -4475058.58649  23365253.3644   23365252.0224   23365254.5854
       203.0004        133.0004
   4856309.34049   3870949.37749  25068973.2694   25068974.4184   25068972.8324
       206.0004        136.0004
 -12099537.12949  -9141200.31049  22723499.9834   22723499.6024   22723498.7514
       221.0004        163.0004
   6211560.36649   5124489.91949  25375480.5024   25375491.5874   25375481.8944
       198.0004        126.0004
  -9113927.93349  -6289258.75149  22543722.9924   22543728.6304   22543722.6684
       219.0004        162.0004
 11 10 14  0 26 30.0000000  0  9G05G10G07G08G13G16G02G04G26
 -19642553.84549 -15038818.91849  21017537.3944   21017540.8344   21017538.0354
       238.0004        201.0004
 -16767272.05849 -13055247.08249  21250228.6604   21250230.5404   21250227.0964
       238.0004        190.0004
 -21654096.75449 -16852038.08849  20785589.9834   20785592.2694   20785590.0884
       241.0004        202.0004
 -22429782.16449 -17463575.45449  20673829.5484   20673833.1744   20673829.0234
       241.0004        203.0004
  -6050283.53449  -4401153.01549  23383300.8004   23383305.6484   23383302.0844
       203.0004        133.0004
   4933779.58349   3931315.80149  25083714.3864   25083716.0654   25083714.5714
       204.0004        134.0004
 -12017618.69649  -9077367.78849  22739086.6684   22739088.8984   22739087.4974
       219.0004        163.0004
   6320083.89949   5209053.39949  25396133.1954   25396140.3734   25396134.7984
       195.0004        130.0004
  -9211626.71549  -6365387.65649  22525132.0694   22525135.8064   22525132.5114
       219.0004        161.0004
 11 10 14  0 27  0.0000000  0  9G05G10G07G08G13G16G02G04G26
 -19687311.66649 -15073695.13549  21009021.4044   21009023.7564   21009021.7964
       240.0004        202.0004
 -16693385.28149 -12997672.98149  21264286.9844   21264291.2094   21264287.1954
       236.0004        190.0004
