     2.11           OBSERVATION DATA    G (GPS)             RINEX VERSION / TYPE
Linux 2.4.21-27.ELsmp|Opteron|gcc -static|Linux x86_64|=+   COMMENT
HEADER CHANGED BY EPN CB ON 2011-10-10                      COMMENT
TO BE CONFORM WITH THE INFORMATION IN                       COMMENT
ftp://epncb.oma.be/pub/station/log/brus.log                 COMMENT
                                                            COMMENT
teqc  2010Oct21                         20111010 00:01:17UTCPGM / RUN BY / DATE
teqc  2010Oct21                         20111010 00:01:02UTCCOMMENT
teqc  2010Oct21                         20111009 01:01:01UTCCOMMENT
BIT 2 OF LLI FLAGS DATA COLLECTED UNDER A/S CONDITION       COMMENT
BRUS                                                        MARKER NAME
13101M004                                                   MARKER NUMBER
Carine Bruyninx     ROB                                     OBSERVER / AGENCY
RT919994505         ASHTECH Z-XII3T     1L01-1D04           REC # / TYPE / VERS
CR519994604         ASH701945B_M    NONE                    ANT # / TYPE
  4027894.0130   307045.5980  4919474.9120                  APPROX POSITION XYZ
        3.9702        0.0000        0.0000                  ANTENNA: DELTA H/E/N
     1     1                                                WAVELENGTH FACT L1/2
     7    L1    L2    C1    P2    P1    S1    S2            # / TYPES OF OBSERV
    30.0000                                                 INTERVAL
 SNR is mapped to RINEX snr flag value [0-9]                COMMENT
  L1 & L2: min(max(int(snr_dBHz/6), 0), 9)                  COMMENT
pseudorange smoothing corrections not applied               COMMENT
COORDINATES IN ETRF2000                                     COMMENT
Forced Modulo Decimation to 30 seconds                      COMMENT
  2011    10     9     0     0    0.0000000     GPS         TIME OF FIRST OBS
                                                            END OF HEADER
 11 10  9  0  0  0.0000000  0  9G23G05G10G07G08G13G04G02G16
  -7408269.80449  -5490141.10049  23988819.0464   23988820.5154   23988817.6164
       202.0004        130.0004
 -12822993.81649  -9976276.73649  22149090.6274   22149093.9094   22149091.9104
       229.0004        183.0004
 -21784669.76349 -16703605.94149  20301771.1614   20301773.9384   20301770.2874
       242.0004        200.0004
 -22670631.74449 -17368350.60449  20609641.8234   20609643.4924   20609642.3194
       242.0004        203.0004
 -16465631.65949 -12810623.80249  21650495.2414   21650498.1484   21650494.5084
       236.0004        187.0004
 -14920573.87449 -11010171.28249  21831384.7714   21831387.1804   21831385.2524
       234.0004        176.0004
  -2918966.18349  -2010440.25649  23461422.3604   23461424.7304   23461420.8844
       222.0004        153.0004
 -17732011.56649 -13539532.28949  21642117.4424   21642119.5684   21642118.0594
       233.0004        183.0004
   -574494.50049   -440083.99549  24084766.5454   24084768.5144   24084765.5674
       211.0004        144.0004
 11 10  9  0  0 30.0000000  0  9G23G05G10G07G08G13G04G02G16
  -7312261.57449  -5415329.55149  24007087.7774   24007091.4474   24007090.1684
       201.0004        128.0004
 -12903201.91049 -10038776.53249  22133828.7494   22133831.0554   22133829.1524
       230.0004        184.0004
 -21753785.72949 -16679540.47149  20307648.9084   20307650.7654   20307647.7394
       241.0004        200.0004
 -22687084.05349 -17381170.57249  20606511.3874   20606512.9454   20606511.0464
       241.0004        203.0004
 -16541722.06449 -12869914.99849  21636015.1294   21636018.8054   21636014.8044
       237.0004        187.0004
 -14841180.58349 -10948306.39549  21846492.5144   21846494.6474   21846492.9634
       234.0004        175.0004
  -2813765.69049  -1928465.89749  23481439.3764   23481444.3374   23481439.0454
       216.0004        150.0004
 -17695069.89649 -13510746.59649  21649148.1854   21649149.3204   21649148.1924
       233.0004        184.0004
   -544787.97649   -416936.04349  24090418.5704   24090420.6154   24090418.1474
       212.0004        145.0004
 11 10  9  0  1  0.0000000  0 10G26G23G05G10G07G08G13G04G02G16
   -333116.88849   -233760.32749  24375271.6444
       208.0004        110.0004
  -7216168.72549  -5340452.02849  24025374.0894   24025377.2934   24025371.8274
       198.0004        125.0004
 -12983122.77749 -10101052.50749  22118619.9624   22118622.8544   22118620.3984
       230.0004        185.0004
 -21722409.82549 -16655091.71549  20313617.9964   20313621.2144   20313617.6194
       240.0004        200.0004
 -22702962.61449 -17393543.46849  20603488.2664   20603491.6544   20603489.4064
       240.0004        204.0004
 -16617403.27049 -12928887.34949  21621614.0174   21621617.0994   21621614.0734
       238.0004        188.0004
 -14761561.77449 -10886265.77049  21861643.7954   21861646.6164   21861643.7104
       234.0004        176.0004
  -2708403.96249  -1846365.84449  23501488.3304   23501489.4254   23501487.9834
       217.0004        149.0004
 -17657548.39549 -13481509.07149  21656288.1604   21656289.3414   21656288.4124
       233.0004        182.0004
   -514499.04249   -393334.28249  24096182.8104   24096184.1504   24096181.8624
       214.0004        147.0004
 11 10  9  0  1 30.0000000  0 10G26G23G05G10G07G08G13G04G02G16
   -445075.31949    -53047.50149  24353963.2754
       205.0004         74.0004
  -7119992.36649  -5265509.41449  24043677.9404   24043673.5634   24043673.7534
       199.0004        124.0004
 -13062754.51149 -10163103.19049  22103467.7464   22103468.9764   22103467.7564
       232.0004        183.0004
 -21690542.71249 -16630260.20649  20319682.8964   20319685.6234   20319681.9964
       241.0004        200.0004
 -22718267.66049 -17405469.46749  20600576.6884   20600579.2144   20600576.5144
       240.0004        204.0004
 -16692673.66549 -12987539.58149  21607291.2544   21607293.2924   21607290.1844
       238.0004        188.0004
 -14681719.04949 -10824050.68349  21876837.7704   21876840.1804   21876838.2134
       234.0004        177.0004
  -2602883.80049  -1764142.32349  23521567.3764   23521571.6704   23521568.2594
       213.0004        149.0004
 -17619448.86849 -13451821.15449  21663539.1054   21663539.5084   21663539.3404
       234.0004        183.0004
   -483628.64049   -369279.41549  24102057.1714   24102058.8654   24102057.8744
       212.0004        147.0004
 11 10  9  0  2  0.0000000  0  9G23G05G10G07G08G13G04G02G16
  -7023733.44649  -5190502.51649  24061992.0494   24061993.4554   24061995.0054
       197.0004        125.0004
 -13142095.19749 -10224927.09549  22088368.6294   22088370.7124   22088368.6354
       230.0004        182.0004
 -21658184.62749 -16605046.12849  20325840.1564   20325843.4074   20325839.5964
       241.0004        200.0004
 -22732999.22149 -17416948.59249  20597773.8424   20597775.9214   20597773.8684
       242.0004        204.0004
 -16767531.01649 -13045869.97449  21593044.7954   21593048.3144   21593045.8054
       238.0004        188.0004
 -14601653.41749 -10761661.90449  21892074.0504   21892075.5264   21892074.2194
       234.0004        176.0004
  -2497207.96949  -1681797.57549  23541672.6344   23541679.2704   23541675.2874
       209.0004        149.0004
 -17580772.77549 -13421683.95949  21670898.4954   21670898.8384   21670898.5664
       234.0004        182.0004
   -452177.76649   -344772.20449  24108041.1074   24108045.5134   24108041.5294
       211.0004        147.0004
 11 10  9  0  2 30.0000000  0  9G23G05G10G07G08G13G04G02G16
  -6927392.99249  -5115432.09049  24080328.8564   24080325.9034   24080326.8894
       200.0004        127.0004
 -13221142.80949 -10286522.61649  22073324.8974   22073329.7654   22073326.5934
       231.0004        183.0004
 -21625336.26149 -16579450.00749  20332090.6854   20332093.9594   20332090.0784
       241.0004        199.0004
 -22747157.32049 -17427980.87049  20595078.6504   20595081.5674   20595079.3674
       241.0004        205.0004
 -16841974.01449 -13103877.47949  21578880.2904   21578883.1634   21578879.2984
       239.0004        189.0004
 -14521366.57949 -10699100.74249  21907350.6304   21907353.6834   21907351.4144
       233.0004        176.0004
  -2391379.59349  -1599333.91849  23561812.8254   23561818.8144   23561814.9664
       213.0004        149.0004
 -17541521.92649 -13391098.89149  21678368.0754   21678368.2464   21678367.6724
       234.0004        182.0004
   -420147.30049   -319813.40049  24114135.6194   24114139.4774   24114134.3974
       208.0004        142.0004
 11 10  9  0  3  0.0000000  0 10G23G05G29G10G07G08G13G04G02G16
  -6830972.24649  -5040299.05849  24098677.0144   24098673.1254   24098672.6654
       202.0004        128.0004
 -13299895.16849 -10347888.08049  22058340.4024   22058343.6124   22058341.1094
       232.0004        184.0004
     84314.22449     55561.52149  25234280.4664   25234283.2864
       202.0004        133.0004
 -21591998.11049 -16553472.24349  20338435.8274   20338438.2074   20338434.7254
       242.0004        200.0004
 -22760742.07449 -17438566.38649  20592494.7404   20592496.6794   20592494.8274
       242.0004        204.0004
 -16916000.94749 -13161560.78549  21564792.4434   21564796.0034   21564792.3344
       239.0004        189.0004
 -14440860.37849 -10636368.66349  21922671.7834   21922673.6454   21922671.9704
       234.0004        176.0004
  -2285401.79049  -1516753.79449  23581983.1244   23581985.3094   23581983.2944
       216.0004        148.0004
 -17501697.91849 -13360067.21949  21685946.5524   21685947.0674   21685946.0014
       234.0004        182.0004
   -387538.96449   -294404.32449  24120341.3574   24120342.8024   24120341.9304
       210.0004        142.0004
 11 10  9  0  3 30.0000000  0 11G26G23G05G29G10G07G08G13G04G02G16
    -78054.63649    -41234.00849  24268940.6854
       207.0004         74.0004
  -6734471.61649  -4965103.80549  24117039.2434   24117042.5794   24117035.6244
       201.0004        128.0004
 -13378350.13249 -10409021.81349  22043411.3744   22043412.9554   22043411.2544
       232.0004        183.0004
    116461.25049     80611.08749  25240394.3224   25240398.5674   25240399.5914
       201.0004        131.0004
 -21558169.85549 -16527112.56449  20344872.3364   20344875.5914   20344871.8534
       241.0004        200.0004
 -22773752.70849 -17448704.53249  20590017.8494   20590020.5324   20590018.5734
       241.0004        204.0004
 -16989609.14249 -13218917.80249  21550784.8094   21550788.1984   21550784.9624
       237.0004        188.0004
 -14360135.14549 -10573465.91049  21938034.0564   21938036.1404   21938033.9104
       234.0004        176.0004
  -2179276.33349  -1434058.67149  23602179.4054   23602182.5114   23602177.8404
       218.0004        151.0004
 -17461301.81649 -13328589.75049  21693633.2834   21693634.2404   21693632.3574
       234.0004        182.0004
   -354352.55349   -268544.84349  24126656.6144   24126658.9204   24126656.7504
       210.0004        141.0004
 11 10  9  0  4  0.0000000  0 10G23G05G29G10G07G08G13G04G02G16
  -6637892.50849  -4889847.34749  24135418.6104   24135418.4344   24135417.0304
       196.0004        125.0004
 -13456505.93149 -10469922.41449  22028539.2894   22028540.5064   22028538.5634
       233.0004        183.0004
    149094.34849    106039.51349  25246606.6264   25246611.6384   25246606.1824
       201.0004        134.0004
 -21523852.56949 -16500371.83649  20351403.0824   20351405.7494   20351402.4134
       241.0004        200.0004
 -22786189.93549 -17458395.85949  20587651.4144   20587653.5544   20587651.4514
       241.0004        204.0004
 -17062797.86749 -13275947.94749  21536857.9604   21536861.2144   21536857.3064
       238.0004        189.0004
 -14279193.08649 -10510394.19849  21953434.4554   21953438.8684   21953435.5664
       230.0004        175.0004
  -2073006.79849  -1351251.27549  23622401.7504   23622403.8904   23622401.7624
       220.0004        152.0004
 -17420336.10849 -13296668.44449  21701429.2284   21701429.6874   21701429.0884
       235.0004        182.0004
   -320590.03349   -242236.39249  24133081.2794   24133084.2184   24133081.0524
       211.0004        143.0004
 11 10  9  0  4 30.0000000  0 11G26G23G05G29G10G07G08G13G04G02G16
   -300833.74249   -214828.34749  24226548.1154   24226549.4464
       211.0004        139.0004
  -6541235.80649  -4814530.52049  24153810.8324                   24153812.2304
       186.0004        117.0004
 -13534360.30849 -10530588.14249  22013724.1544   22013725.5124   22013724.3204
       234.0004        185.0004
    182211.80649    131845.35649  25252909.4744   25252911.5864   25252909.9524
       195.0004        130.0004
 -21489046.53849 -16473250.26049  20358025.9244   20358029.1394   20358025.3874
       240.0004        200.0004
 -22798053.85449 -17467640.46749  20585393.6734   20585396.2464   20585394.3354
       241.0004        204.0004
 -17135565.41649 -13332649.91549  21523009.5574   21523013.1614   21523010.4834
       237.0004        189.0004
 -14198035.31549 -10447154.37849  21968878.9984   21968881.1494   21968879.3404
       231.0004        173.0004
  -1966596.11149  -1268333.85349  23642652.3694   23642653.1524   23642649.5234
       218.0004        150.0004
 -17378802.06649 -13264304.26749  21709332.2254   21709333.3934   21709331.7444
       233.0004        182.0004
   -286252.36849   -215479.79049  24139616.8384   24139617.3574   24139616.8904
       213.0004        143.0004
 11 10  9  0  5  0.0000000  0 11G26G23G05G29G10G07G08G13G04G02G16
   -412061.77949   -301499.54249  24205380.9874   24205382.7204   24205382.2074
       210.0004        136.0004
  -6444502.48249  -4739154.01449  24172214.2394
       175.0004        113.0004
 -13611911.02849 -10591017.28049  21998965.6564   21998968.1274   21998966.4434
       233.0004        186.0004
    215812.04949    158027.31149  25259301.8834   25259304.5334   25259301.9304
       199.0004        129.0004
 -21453752.37149 -16445748.32249  20364742.3994   20364745.4074   20364741.6584
       241.0004        200.0004
 -22809344.62249 -17476438.45549  20583245.6144   20583247.7404   20583245.4114
       241.0004        204.0004
 -17207909.70949 -13389022.06949  21509244.5064   21509247.6044   21509243.9074
       239.0004        190.0004
 -14116663.32049 -10383747.67849  21984364.1784   21984366.2134   21984364.5324
       231.0004        172.0004
  -1860047.06949  -1185308.63149  23662924.3384   23662929.0424   23662924.8644
       214.0004        148.0004
 -17336701.45749 -13231498.62449  21717344.1794   21717344.9044   21717344.0644
       234.0004        182.0004
   -251340.74749   -188275.97149  24146258.9934   24146263.1564   24146257.7684
       208.0004        140.0004
 11 10  9  0  5 30.0000000  0 11G26G23G05G29G10G07G08G13G04G02G16
   -523180.20549   -388085.36849  24184234.8144   24184236.4074   24184232.6194
       201.0004        130.0004
  -6347692.77759  -4663717.93259  24190635.3664
       171.0004        111.0004
 -13689155.65149 -10651207.86749  21984265.9154   21984269.4074   21984266.4954
       233.0004        185.0004
    249894.38049    184584.91049  25265788.3034   25265791.8094   25265787.2704
       194.0004        127.0004
 -21417969.82349 -16417865.82849  20371551.4934   20371554.4724   20371550.5114
       240.0004        199.0004
 -22820061.32749 -17484789.12649  20581205.2224   20581208.4194   20581206.2264
       241.0004        204.0004
 -17279828.44249 -13445062.61949  21495558.4604   21495561.6854   21495557.6784
       239.0004        190.0004
 -14035077.56149 -10320174.37649  21999890.5954   21999891.2124   21999890.6184
       233.0004        173.0004
  -1753361.45349  -1102176.97349  23683226.5744   23683230.8764   23683227.8974
       217.0004        151.0004
 -17294035.47449 -13198252.40549  21725463.8894   21725463.8314   21725462.5384
       235.0004        182.0004
   -215855.36349   -160625.05049  24153012.3244   24153013.6294   24153011.6104
       209.0004        140.0004
 11 10  9  0  6  0.0000000  0 11G26G23G05G29G10G07G08G13G04G02G16
   -634189.03949   -474585.60249  24163111.7124   24163115.0844   24163111.8904
       213.0004        142.0004
  -6250808.90449     13178.04449  24209079.8374
       179.0004         74.0004
 -13766093.32849 -10711159.28449  21969626.0824   21969628.2484   21969626.5484
       233.0004        186.0004
    284455.65949    211515.77849  25272365.1134   25272370.9364   25272364.1274
       196.0004        126.0004
 -21381700.70549 -16389604.18449  20378453.5664   20378456.2204   20378453.3594
       242.0004        200.0004
 -22830205.21649 -17492693.44349  20579275.7354   20579278.0574   20579275.8124
       241.0004        204.0004
 -17351321.20749 -13500771.24249  21481953.8874   21481956.8074   21481953.2794
       240.0004        190.0004
 -13953280.61249 -10256436.51949  22015453.9704   22015457.1174   22015455.0164
       231.0004        172.0004
  -1646543.66249  -1018942.35649  23703551.3244   23703559.5674   23703552.7754
       215.0004        151.0004
 -17250806.74649 -13164567.69349  21733689.9354   21733689.9234   21733688.9814
       234.0004        182.0004
   -179798.98249   -132529.22749  24159873.6104   24159874.6534   24159874.3804
       211.0004        142.0004
 11 10  9  0  6 30.0000000  0 10G26G05G29G10G07G08G13G04G02G16
   -745085.94649   -560998.76049  24142008.7594   24142013.0944   24142008.2014
       208.0004        139.0004
 -13842720.85049 -10770869.02549  21955043.9254   21955046.5154   21955044.4574
       233.0004        187.0004
    319495.36849    238819.47449  25279034.6784   25279036.2314   25279033.2104
       195.0004        126.0004
 -21344944.43849 -16360962.94849  20385448.6964   20385451.0444   20385447.3794
       241.0004        200.0004
 -22839775.57649 -17500150.85349  20577454.0194   20577456.6194   20577454.7354
       241.0004        204.0004
 -17422385.18749 -13556145.74849  21468430.2984   21468433.9324   21468429.9084
       238.0004        191.0004
 -13871273.21749 -10192534.66249  22031059.1204   22031061.7614   22031060.0774
       231.0004        171.0004
  -1539595.36749   -935606.05749  23723905.6014   23723908.6534   23723903.7924
       216.0004        149.0004
 -17207016.30449 -13130445.29049  21742020.5954   21742023.2234   21742021.2994
       231.0004        181.0004
   -143171.68249   -103988.49249  24166843.6154   24166847.1594   24166843.7204
       210.0004        144.0004
 11 10  9  0  7  0.0000000  0 10G26G05G29G10G07G08G13G04G02G16
   -855870.53349   -647324.47649  24120924.9574   24120928.5254   24120923.0474
       203.0004        132.0004
 -13919036.66449 -10830335.87449  21940522.2554   21940524.4914   21940522.3274
       234.0004        187.0004
    355011.10349    266493.94749  25285790.6614   25285795.2224   25285795.4204
       188.0004        123.0004
 -21307702.17849 -16331943.01549  20392534.9014   20392537.8474   20392534.0144
       240.0004        199.0004
 -22848773.59149 -17507162.28249  20575741.9964   20575744.4074   20575742.2214
       241.0004        204.0004
 -17493019.76949 -13611185.66449  21454989.1834   21454992.7454   21454989.6714
       239.0004        191.0004
 -13789057.09249 -10128470.18349  22046706.5604   22046707.3194   22046705.7974
       232.0004        172.0004
  -1432520.09749   -852170.75349  23744280.1094   23744284.4874   23744281.5464
       217.0004        147.0004
 -17162666.61149 -13095887.11449  21750462.2534   21750462.4174   21750462.0834
       233.0004        182.0004
   -105975.49549    -75004.51649  24173922.8154   24173922.4184   24173922.8304
       213.0004        142.0004
 11 10  9  0  7 30.0000000  0 10G26G05G29G10G07G08G13G04G02G16
   -966540.18549   -733560.47449  24099865.6664   24099872.2944   24099866.3904
       206.0004        145.0004
 -13995038.05349 -10889557.72049  21926059.4404   21926061.7304   21926059.6004
       234.0004        187.0004
    391002.27649    294539.02349  25292639.7204                   25292638.5444
       191.0004        122.0004
 -21269973.47549 -16302544.04249  20399714.6624   20399717.3794   20399713.9434
       241.0004        199.0004
 -22857198.08749 -17513726.82049  20574138.9954   20574141.3984   20574139.5154
       241.0004        204.0004
 -17563221.72949 -13665888.46649  21441630.9474   21441633.0944   21441630.0394
       240.0004        191.0004
 -13706632.40449 -10064243.16649  22062390.8834   22062392.6034   22062390.9264
       232.0004        171.0004
  -1325319.68049   -768637.99249  23764680.9824   23764684.1524   23764680.5044
       217.0004        149.0004
 -17117758.57049 -13060893.84449  21759007.0664   21759008.6684   21759006.5704
       233.0004        181.0004
    -68210.40949    -45577.22949  24181110.0934   24181108.3424   24181107.8024
       211.0004        143.0004
 11 10  9  0  8  0.0000000  0 10G26G05G29G10G07G08G13G04G02G16
  -1077095.11449   -819707.07849  24078829.9584   24078834.1584   24078829.4614
       207.0004        145.0004
 -14070723.89149 -10948533.67649  21911655.5034   21911659.2614   21911656.5974
       233.0004        188.0004
    427465.92449    322952.32749  25299576.9404                   25299582.5634
       193.0004        121.0004
 -21231759.92549 -16272767.25949  20406986.6104   20406989.4054   20406985.8114
       241.0004        200.0004
 -22865050.64949 -17519845.69549  20572644.6194   20572647.0864   20572645.0484
       241.0004        205.0004
 -17632990.66649 -13720253.85449  21428352.8254   21428356.7884   21428353.2794
       239.0004        192.0004
 -13624001.77749  -9999855.67349  22078113.8784   22078116.3444   22078114.5774
       232.0004        171.0004
  -1217998.02849   -685010.77249  23785103.0384   23785106.9904   23785103.0234
       215.0004        147.0004
 -17072294.95549 -13025467.66649  21767658.7044   21767659.8274   21767658.5324
       233.0004        180.0004
    -29878.81049    -15708.43149  24188402.3134   24188406.3844   24188402.6504
       209.0004        139.0004
 11 10  9  0  8 30.0000000  0 10G26G05G29G10G07G08G13G04G02G16
  -1187533.13049   -905762.61849  24057811.8854   24057817.9284   24057812.8114
       204.0004        133.0004
 -14146091.51349 -11007261.67549  21897314.8294   21897317.0764   21897315.5794
       234.0004        189.0004
    464401.10949    351732.98949  25306605.7354                   25306609.6104
       188.0004        120.0004
 -21193061.49049 -16242612.64349  20414349.8924   20414353.9064   20414349.4784
       240.0004        200.0004
 -22872330.10549 -17525517.98249  20571259.6764   20571261.7994   20571259.7884
       241.0004        205.0004
 -17702324.23049 -13774279.97649  21415160.1414   21415163.2604   21415159.6104
       240.0004        192.0004
 -13541165.84949  -9935308.21749  22093878.8524   22093879.7654   22093878.1944
       234.0004        170.0004
  -1110557.23049   -601290.67449  23805549.3004   23805548.2124   23805549.7274
       217.0004        144.0004
 -17026277.01349 -12989609.53149  21776414.4194   21776416.8314   21776415.0474
       231.0004        181.0004
      9018.70649     14601.22549  24195805.2634   24195804.0344   24195805.0984
       213.0004        140.0004
 11 10  9  0  9  0.0000000  0 10G26G05G29G10G07G08G13G04G02G16
  -1297853.36849   -991726.49649  24036816.4294   24036821.9874   24036817.7974
       204.0004        133.0004
 -14221138.93149 -11065740.18449  21883034.3334   21883035.6464   21883034.1324
       233.0004        187.0004
    501805.65149    380879.25949  25313726.2064                   25313724.9004
       194.0004        122.0004
 -21153878.87149 -16212080.74649  20421806.9464   20421809.6934   20421806.0574
       240.0004        200.0004
 -22879037.99849 -17530744.90649  20569983.4394   20569985.0824   20569983.5294
       242.0004        204.0004
 -17771221.23249 -13827965.92949  21402049.2314   21402052.4824   21402049.3874
       240.0004        192.0004
 -13458126.13649  -9870601.96049  22109679.5734   22109681.3084   22109679.7204
       231.0004        170.0004
  -1003000.26249   -517480.01849  23826014.8694   23826020.2234   23826015.8594
       214.0004        148.0004
 -16979706.86149 -12953321.12349  21785276.5664   21785278.5714   21785276.6064
       232.0004        181.0004
     48480.61849     45350.72149  24203314.9754   24203314.7684   24203313.9714
       212.0004        140.0004
 11 10  9  0  9 30.0000000  0 10G26G05G29G10G07G08G13G04G02G16
  -1408054.65249  -1077597.56349  24015849.4394   24015852.7104   24015848.6254
       210.0004        144.0004
 -14295863.78549 -11123967.32849  21868811.9634   21868816.3004   21868812.9184
       231.0004        186.0004
    539678.44749    410390.53749  25320932.3014                   25320935.6274
       189.0004        123.0004
 -21114212.46849 -16181171.87349  20429354.1534   20429358.0494   20429353.6794
       240.0004        199.0004
 -22885173.31849 -17535525.66049  20568814.9744   20568817.3744   20568815.2174
       241.0004        204.0004
 -17839680.02549 -13881310.41949  21389021.2814   21389025.1054   21389021.9754
       240.0004        192.0004
 -13374883.86449  -9805737.87349  22125519.5984   22125523.1624   22125520.2364
       232.0004        172.0004
   -895329.81049   -433581.03749  23846504.6254   23846510.2814   23846504.2064
       210.0004        146.0004
 -16932586.25749 -12916603.79249  21794244.0314   21794245.7214   21794244.2894
       232.0004        179.0004
     88505.58749     76538.97549  24210930.2244   24210934.1324   24210930.2584
       208.0004        141.0004
 11 10  9  0 10  0.0000000  0 10G26G05G29G10G07G08G13G04G02G16
  -1518135.99249  -1163375.20949  23994898.4564   23994903.3134   23994899.2604
       201.0004        138.0004
 -14370264.49149 -11181941.87749  21854655.0334   21854658.8234   21854655.8594
       233.0004        190.0004
    578016.71249    440264.58949  25328229.3624                   25328224.5404
       190.0004        122.0004
 -21074063.07849 -16149886.64649  20436995.1794   20436998.0354   20436994.4894
       241.0004        200.0004
 -22890737.03349 -17539861.01749  20567756.8754   20567758.7234   20567757.1394
       242.0004        204.0004
 -17907699.11349 -13934312.27449  21376078.1684   21376081.1564   21376077.6374
       240.0004        192.0004
 -13291440.60149  -9740717.15749  22141399.0544   22141401.3214   22141399.0284
       233.0004        171.0004
   -787549.02149   -349596.03449  23867014.6584   23867018.1124   23867015.0484
       217.0004        145.0004
 -16884917.30649 -12879459.15949  21803314.5074   21803316.2194   21803315.0624
       230.0004        180.0004
    129092.12749    108164.92149  24218655.1244   24218656.4214   24218653.7214
       213.0004        141.0004
 11 10  9  0 10 30.0000000  0 10G26G05G29G10G07G08G13G04G02G16
  -1628095.77749  -1249058.01349  23973976.9314   23973980.1724   23973975.9584
       212.0004        135.0004
 -14444338.33849 -11239661.75149  21840559.9144   21840563.5474   21840560.6784
       234.0004        190.0004
    616819.62649    470500.63049  25335612.8904                   25335612.2644
       189.0004        123.0004
 -21033430.88249 -16118225.21249  20444727.1984   20444729.8004   20444726.7804
       241.0004        199.0004
 -22895728.92949 -17543750.79749  20566806.5114   20566808.7964   20566807.1794
       241.0004        205.0004
 -17975276.30449 -13986969.80549  21363217.7814   21363221.9984   21363218.0464
       239.0004        192.0004
 -13207797.05049  -9675540.38249  22157316.3274   22157318.5294   22157315.0474
       231.0004        170.0004
   -679660.19149   -265526.78949  23887544.5054   23887549.1934   23887545.7794
       214.0004        144.0004
 -16836701.32549 -12841888.28249  21812490.8794   21812491.8764   21812490.6054
       232.0004        180.0004
    170239.44749    140227.70949  24226484.0824   24226487.3424   24226483.8344
       210.0004        140.0004
 11 10  9  0 11  0.0000000  0 10G26G05G29G10G07G08G13G04G02G16
  -1737932.77749  -1334645.32649  23953073.9534   23953080.1194   23953074.0684
       207.0004        137.0004
 -14518083.42549 -11297125.44549  21826525.4104   21826529.3164   21826526.3604
       231.0004        187.0004
    656084.89949    501096.86549  25343082.7764                   25343084.9504
       189.0004        122.0004
 -20992316.87849 -16086188.33149  20452550.6274   20452554.0064   20452549.8844
       241.0004        199.0004
 -22900149.79649 -17547195.61549  20565965.9694   20565967.7134   20565965.9414
       242.0004        205.0004
 -18042409.95449 -14039281.71549  21350444.0104   21350446.7764   21350443.1674
       240.0004        193.0004
 -13123954.76749  -9610208.75649  22173269.5994   22173273.2594   22173271.0474
       229.0004        170.0004
   -571666.28849   -181375.72949  23908096.0114   23908101.1384   23908094.9894
       213.0004        144.0004
 -16787940.81949 -12803893.09649  21821769.6784   21821770.2724   21821769.2424
       232.0004        180.0004
    211945.71449    172726.06049  24234421.3844   24234423.4364   24234419.7394
       212.0004        140.0004
 11 10  9  0 11 30.0000000  0 10G26G05G29G10G07G08G13G04G02G16
  -1847645.68649  -1420135.94949  23932195.2544   23932202.5244   23932196.5734
       205.0004        140.0004
 -14591498.06449 -11354331.64749  21812556.1764   21812558.7484   21812556.8714
       234.0004        188.0004
    695811.08349    532052.34149  25350641.6874                   25350642.4244
       182.0004        120.0004
 -20950721.76549 -16053776.56349  20460466.6394   20460468.9134   20460466.0444
       242.0004        200.0004
 -22904000.00649 -17550195.77149  20565232.6264   20565235.1404   20565232.9134
       241.0004        205.0004
 -18109098.84849 -14091247.06849  21337752.0054   21337756.1054   21337752.4664
       239.0004        193.0004
 -13039915.10949  -9544723.32249  22189263.0914   22189265.5534   22189263.4804
       231.0004        171.0004
   -463570.15349    -97145.02349  23928665.5154   23928671.3154   23928667.0474
       215.0004        147.0004
 -16738637.64549 -12765475.05749  21831151.8494   21831152.7374   21831151.5904
       231.0004        180.0004
    254209.67349    205658.97149  24242461.8914   24242464.3654   24242461.2464
       208.0004        139.0004
 11 10  9  0 12  0.0000000  0 10G26G05G29G10G07G08G13G04G02G16
  -1957234.15249  -1505529.41349  23911342.9554   23911346.4844   23911339.4334
       205.0004        138.0004
 -14664580.27249 -11411278.81649  21798649.6944   21798652.1694   21798649.7774
       235.0004        189.0004
    735995.34849    563364.88149  25358291.0014
       191.0004        118.0004
 -20908646.38049 -16020990.56349  20468472.8694   20468476.0334   20468472.4104
       241.0004        199.0004
 -22907280.11749 -17552751.69249  20564608.7254   20564610.8954   20564609.0474
       241.0004        205.0004
 -18175341.87449 -14142864.98049  21325148.0504   21325150.7994   21325146.9544
       241.0004        194.0004
 -12955679.87249  -9479085.49949  22205292.2114   22205293.8604   22205291.6214
       231.0004        170.0004
   -355374.99049    -12837.11549  23949257.1244   23949257.2034   23949255.8774
       214.0004        143.0004
 -16688794.26749 -12726636.07949  21840636.9104   21840638.2494   21840636.4334
       232.0004        180.0004
    297029.48649    239025.04249  24250611.6614   24250614.0874   24250612.9434
       210.0004        141.0004
 11 10  9  0 12 30.0000000  0 10G26G05G29G10G07G08G13G04G02G16
  -2066696.31849  -1590824.49749  23890511.2564   23890518.9514   23890512.4914
       212.0004        140.0004
 -14737328.14649 -11467965.46449  21784805.5164   21784808.2354   21784805.8784
       233.0004        188.0004
    776636.22249     11906.07049  25366029.4094
       185.0004         74.0004
 -20866091.56649 -15987830.98149  20476570.2974   20476573.6534   20476570.1544
       240.0004        199.0004
 -22909990.60149 -17554863.75349  20564092.6524   20564094.9924   20564093.2564
       241.0004        204.0004
 -18241137.50649 -14194134.27449  21312626.6364   21312629.8474   21312626.2684
       239.0004        194.0004
 -12871250.40149  -9413296.32849  22221358.5254   22221360.7294   22221358.6774
       230.0004        170.0004
   -247083.46549     71545.87149  23969862.7094   23969864.8474   23969860.9664
       212.0004        141.0004
 -16638412.64349 -12687377.68649  21850223.3494   21850225.2024   21850223.8164
       229.0004        180.0004
    340403.57649    272822.98449  24258866.1774   24258868.9444   24258865.9104
       209.0004        141.0004
 11 10  9  0 13  0.0000000  0 10G26G05G29G10G07G08G13G04G02G16
  -2176030.39649  -1676020.03749  23869708.7254   23869711.9274   23869708.1924
       207.0004        139.0004
 -14809738.54349 -11524389.14449  21771026.2484   21771029.1734   21771026.5904
       233.0004        188.0004
    817732.15549     43876.49049  25373843.2014
       177.0004        108.0004
 -20823056.97149 -15954297.54249  20484760.3124   20484763.0624   20484759.4444
       241.0004        200.0004
 -22912130.87349 -17556531.48849  20563685.5434   20563687.7754   20563685.9594
       241.0004        205.0004
 -18306483.36249 -14245053.10049  21300192.0304   21300195.6124   21300191.6984
       241.0004        195.0004
 -12786626.93249  -9347355.97749  22237460.8654   22237463.7964   22237461.1974
       229.0004        166.0004
   -138697.71549    156002.28149  23990491.7364   23990491.1884   23990489.4704
       216.0004        147.0004
 -16587494.09449 -12647700.91449  21859912.7164   21859913.9314   21859913.0224
       231.0004        179.0004
    384331.18549    307052.16949  24267223.7034   24267227.1794   24267222.4674
       210.0004        139.0004
 11 10  9  0 13 30.0000000  0 10G26G05G29G10G07G08G13G04G02G16
  -2285236.07249  -1761115.29949  23848921.8334   23848929.0314   23848923.6104
       202.0004        136.0004
 -14881809.81549 -11580548.56349  21757311.4854   21757314.4764   21757311.5884
       233.0004        189.0004
    859281.35359     76154.04659  25381752.5384
       170.0004        108.0004
 -20779544.02649 -15920391.36349  20493040.1164   20493042.7824   20493039.5554
       241.0004        199.0004
 -22913702.05949 -17557755.77649  20563386.3214   20563388.8664   20563386.7804
       241.0004        205.0004
 -18371378.43149 -14295620.65649  21287842.8164   21287846.3754   21287842.1954
       241.0004        195.0004
 -12701811.29249  -9281265.88349  22253602.2984   22253604.3364   22253602.2944
       230.0004        168.0004
    -30220.84449    240529.68049  24011127.9304   24011135.6664   24011128.9564
       210.0004        146.0004
 -16536041.28849 -12607607.83249  21869705.2984   21869705.3584   21869704.4294
       232.0004        180.0004
    428810.56949    341711.39649  24275688.6674   24275690.6884   24275689.4514
       208.0004        138.0004
 11 10  9  0 14  0.0000000  0  9G26G05G10G07G08G13G04G02G16
  -2394311.19249  -1846108.79049  23828172.1984   23828175.9454   23828171.5884
       212.0004        147.0004
 -14953539.61949 -11636441.91349  21743662.5994   21743664.3764   21743662.6104
       235.0004        189.0004
 -20735552.71049 -15886112.42449  20501412.1014   20501414.3874   20501410.9404
       242.0004        199.0004
 -22914703.81049 -17558536.35249  20563195.6924   20563198.2874   20563195.8904
       241.0004        205.0004
 -18435820.75249 -14345835.43449  21275578.7074   21275583.3864   21275579.2734
       240.0004        195.0004
 -12616804.57149  -9215026.91349  22269777.7234   22269781.2994   22269778.6394
       228.0004        166.0004
     78344.64149    325126.10649  24031790.3224   24031791.8244   24031790.0984
       213.0004        140.0004
 -16484055.37049 -12567099.34749  21879596.4754   21879597.9724   21879596.6944
       230.0004        179.0004
    473840.43049    376799.52149  24284259.5594   24284260.8604   24284259.0264
       209.0004        141.0004
 11 10  9  0 14 30.0000000  0  9G26G05G10G07G08G13G04G02G16
  -2503255.45749  -1931000.37549  23807436.4124   23807443.7684   23807438.5774
       205.0004        144.0004
 -15024926.76349 -11692068.25849  21730077.8154   21730080.0534   21730077.9914
       235.0004        189.0004
 -20691084.87249 -15851462.17549  20509873.4934   20509876.5484   20509873.0394
       241.0004        200.0004
 -22915137.48649 -17558874.27849  20563113.3124   20563115.5534   20563113.6174
       241.0004        205.0004
 -18499809.51249 -14395696.77449  21263403.4374   21263406.7344   21263402.9594
       242.0004        195.0004
 -12531608.63449  -9148640.48349  22285989.7594   22285992.5584   22285989.6964
       229.0004        166.0004
    186995.58249    409789.22849  24052465.4974   24052468.8754   24052464.2754
       214.0004        143.0004
 -16431539.25649 -12526177.71549  21889590.7044   21889591.6164   21889589.7214
       230.0004        178.0004
    519418.66949    412314.94549  24292932.0614   24292933.4944   24292930.1754
       211.0004        142.0004
 11 10  9  0 15  0.0000000  0  9G26G05G10G07G08G13G04G02G16
  -2612066.97249  -2015788.53049  23786729.9534   23786738.0024   23786730.9694
       206.0004        135.0004
 -15095968.17249 -11747425.18749  21716558.5144   21716561.8364   21716559.1854
       236.0004        190.0004
 -20646140.36249 -15816440.49049  20518426.6904   20518429.3984   20518425.7124
       243.0004        199.0004
 -22915003.16949 -17558769.60449  20563138.8554   20563141.2144   20563138.8854
       241.0004        205.0004
 -18563342.83449 -14445203.23549  21251311.7814   21251316.5214   21251312.4394
       240.0004        195.0004
 -12446224.15249  -9082107.14549  22302238.2894   22302241.3044   22302237.8444
       230.0004        166.0004
    295729.29949    494516.80849  24073154.5084   24073161.9004   24073154.9854
       210.0004        148.0004
 -16378494.77349 -12484844.37349  21899685.5364   21899686.2474   21899684.2744
       230.0004        178.0004
    565544.49549    448257.10249  24301708.4214   24301710.1064   24301710.1264
       211.0004        141.0004
 11 10  9  0 15 30.0000000  0  9G26G05G10G07G08G13G04G02G16
  -2720744.97049  -2100472.72649  23766050.7314   23766055.6244   23766051.6984
       211.0004        143.0004
 -15166662.32049 -11802511.52849  21703107.6244   21703109.1034   21703107.3474
       237.0004        192.0004
 -20600720.22149 -15781048.18749  20527069.5634   20527072.6924   20527068.6794
       241.0004        199.0004
 -22914301.67549 -17558222.98549  20563271.9674   20563274.6564   20563272.8174
       241.0004        205.0004
 -18626419.52249 -14494353.88149  21239311.0064   21239313.2404   21239309.8304
       242.0004        195.0004
 -12360652.66349  -9015428.07849  22318521.8304   22318524.1904   22318521.9274
       230.0004        168.0004
    404542.99949    579306.64749  24093858.0984   24093867.9374   24093860.2114
       205.0004        144.0004
 -16324924.59349 -12443101.39749  21909877.9534   21909879.9644   21909878.4764
       230.0004        179.0004
    612215.66149    484624.26649  24310589.1854   24310592.1364   24310590.1324
       210.0004        141.0004
 11 10  9  0 16  0.0000000  0  9G26G05G10G07G08G13G04G02G16
  -2829287.79749  -2185051.49349  23745396.5924   23745402.1934   23745397.7484
       207.0004        146.0004
 -15237007.17449 -11857325.70549  21689720.1714   21689722.4054   21689720.5474
       236.0004        190.0004
 -20554824.91349 -15745285.61149  20535802.8784   20535805.9584   20535802.0104
       241.0004        199.0004
 -22913033.27549 -17557234.60249  20563513.5824   20563515.8994   20563513.8654
       241.0004        205.0004
 -18689037.92449 -14543147.41149  21227393.5544   21227397.6454   21227393.3504
       242.0004        196.0004
 -12274895.31249  -8948604.19049  22334840.5674   22334843.0364   22334840.7294
       228.0004        168.0004
    513434.20749    664156.90249  24114583.6584   24114587.8584   24114583.0704
       211.0004        141.0004
 -16270830.33349 -12400950.04649  21920173.6734   21920173.4044   21920173.5384
       231.0004        178.0004
    659430.95549    521415.33249  24319573.5684   24319577.0304   24319573.4354
       210.0004        139.0004
 11 10  9  0 16 30.0000000  0  9G26G05G10G07G08G13G04G02G16
  -2937694.10649  -2269523.87049  23724768.2304   23724771.4824   23724767.2944
       211.0004        142.0004
 -15307000.52249 -11911865.96649  21676400.9714   21676403.3694   21676401.2724
       236.0004        190.0004
 -20508455.47449 -15709153.59649  20544627.2814   20544629.8374   20544626.1704
       242.0004        200.0004
 -22911198.11249 -17555804.59849  20563862.9734   20563865.3494   20563863.5144
       241.0004        205.0004
 -18751196.45149 -14591582.61549  21215566.2424   21215568.9874   21215566.1514
       242.0004        196.0004
 -12188953.13549  -8881636.26949  22351195.7624   22351198.4344   22351195.1364
       230.0004        168.0004
    622400.13049    749065.48749  24135319.7814   24135322.7114   24135320.7354
       214.0004        143.0004
 -16216214.13449 -12358391.97749  21930566.4874   21930566.5744   21930565.4894
       231.0004        178.0004
    707188.88849    558629.24849  24328662.1274   24328664.4454   24328662.8234
       208.0004        139.0004
 11 10  9  0 17  0.0000000  0  9G26G05G10G07G08G13G04G02G16
  -3045963.40549  -2353889.58549  23704164.4074   23704169.8734   23704164.7114
       209.0004        143.0004
 -15376640.67449 -11966131.01549  21663148.9674   21663151.5624   21663148.7464
       236.0004        192.0004
 -20461613.45249 -15672653.33549  20553540.7614   20553543.2934   20553539.9834
       241.0004        199.0004
 -22908797.69449 -17553934.13549  20564319.5234   20564321.5574   20564320.2564
       241.0004        204.0004
 -18812894.33149 -14639658.85249  21203825.1304   21203827.8974   21203824.3694
       243.0004        196.0004
 -12102828.18049  -8814525.93649  22367585.1264   22367587.3924   22367585.2174
       230.0004        167.0004
    731437.17449    834029.38849  24156069.5274   24156074.2634   24156067.5604
       211.0004        143.0004
 -16161078.76049 -12315429.37249  21941056.9164   21941058.4974   21941057.4174
       229.0004        178.0004
    755487.26949    596264.32949  24337853.9844   24337856.4474   24337854.2034
       213.0004        142.0004
 11 10  9  0 17 30.0000000  0  9G26G05G10G07G08G13G04G02G16
  -3154093.92749  -2438147.04549  23683588.2914   23683592.9054   23683588.3344
       211.0004        142.0004
 -15445924.66149 -12020118.52449  21649964.3934   21649966.9814   21649965.1764
       237.0004        191.0004
 -20414298.43649 -15635784.49549  20562544.2484   20562547.0784   20562543.6914
       242.0004        199.0004
 -22905831.60149 -17551622.87849  20564884.2754   20564886.2214   20564884.7104
       242.0004        205.0004
 -18874129.41349 -14687374.48549  21192172.4164   21192175.4264   21192172.3584
       242.0004        196.0004
 -12016520.83349  -8747273.46049  22384007.5764   22384010.5714   22384008.4544
       229.0004        166.0004
    840543.47549    919047.20449  24176833.0904   24176835.3584   24176832.6234
       214.0004        145.0004
 -16105425.99349 -12272063.59749  21951648.3494   21951649.8724   21951647.9834
       230.0004        178.0004
    804324.83449    634319.56449  24347146.5294   24347147.6464   24347146.2824
       210.0004        139.0004
 11 10  9  0 18  0.0000000  0  9G26G05G10G07G08G13G04G02G16
  -3262083.75949  -2522294.98849  23663040.4604   23663041.5154   23663039.4954
       213.0004        144.0004
 -15514850.38249 -12073826.88749  21636848.8864   21636850.1934   21636849.2764
       237.0004        190.0004
 -20366510.94849 -15598547.50749  20571638.5474   20571641.1164   20571637.5094
       242.0004        199.0004
 -22902300.23149 -17548871.16249  20565555.8904   20565558.2944   20565556.5094
       241.0004        205.0004
 -18934900.42149 -14734728.49149  21180608.1924   21180610.9704   21180607.4544
       242.0004        196.0004
 -11930032.14949  -8679879.70049  22400466.7984   22400468.3174   22400468.2684
       230.0004        165.0004
    949716.75549   1004117.33649  24197606.1594   24197609.8744   24197606.4584
       211.0004        139.0004
 -16049257.27049 -12228295.79349  21962336.3504   21962337.2234   21962336.5924
       230.0004        178.0004
    853700.43149    672794.05949  24356541.6664   24356542.9724   24356541.6254
       210.0004        139.0004
 11 10  9  0 18 30.0000000  0  9G26G05G10G07G08G13G04G02G16
  -3369933.47949  -2606333.68549  23642515.0474   23642518.8364   23642515.1384
       211.0004        143.0004
 -15583417.56249 -12127255.85049  21623799.1224   21623802.7644   21623800.1334
       234.0004        191.0004
 -20318253.49949 -15560944.30949  20580820.4254   20580824.0684   20580820.1954
       241.0004        199.0004
 -22898206.13249 -17545680.94249  20566335.7414   20566337.5384   20566335.7854
       243.0004        205.0004
 -18995207.01549 -14781720.62749  21169131.2094   21169135.4044   21169131.4604
       240.0004        196.0004
 -11843364.80349  -8612346.72249  22416960.1464   22416960.8384   22416959.8984
       230.0004        165.0004
   1058952.76249   1089236.31449  24218391.0014   24218396.3684   24218391.7994
       202.0004        136.0004
 -15992576.80949 -12184129.21149  21973122.2274   21973123.6444   21973122.4354
       230.0004        176.0004
    903610.57949    711685.01249  24366039.2794   24366042.6944   24366041.1134
       211.0004        142.0004
 11 10  9  0 19  0.0000000  0  9G26G05G10G07G08G13G04G02G16
  -3477640.21749  -2690260.96149  23622019.0404   23622023.9204   23622018.6594
       210.0004        144.0004
 -15651622.22249 -12180402.32049  21610821.2324   21610824.4544   21610821.4294
       235.0004        192.0004
 -20269525.31349 -15522974.30149  20590093.8594   20590096.6114   20590093.0274
       241.0004        198.0004
 -22893548.13749 -17542051.33249  20567221.1494   20567223.7394   20567221.7644
       241.0004        204.0004
 -19055046.64649 -14828348.87949  21157745.4544   21157747.8564   21157744.6144
       243.0004        196.0004
 -11756518.90249  -8544674.59549  22433484.1244   22433487.8054   22433484.9654
       226.0004        163.0004
   1168249.98049   1174402.93649  24239190.8854   24239196.7014   24239191.9684
       211.0004        145.0004
 -15935385.26449 -12139564.39649  21984004.9714   21984007.0394   21984004.9074
       229.0004        175.0004
    954055.65649    750992.89249  24375640.2974   24375641.8974   24375640.3754
       213.0004        143.0004
 11 10  9  0 19 30.0000000  0  9G26G05G10G07G08G13G04G02G16
  -3585203.14349  -2774076.18949  23601551.9094   23601555.1334   23601552.6334
       216.0004        146.0004
 -15719462.43649 -12233264.82949  21597910.7334   21597914.7634   21597912.4354
       235.0004        192.0004
 -20220327.79249 -15484638.58549  20599455.9194   20599458.6054   20599455.0344
       241.0004        198.0004
 -22888327.26749 -17537983.11049  20568215.6624   20568217.3994   20568215.5924
       242.0004        205.0004
 -19114418.05249 -14874612.29449  21146445.7314   21146449.5564   21146446.0974
       240.0004        196.0004
 -11669495.53349  -8476864.20249  22450044.1354   22450047.5164   22450044.1694
       225.0004        161.0004
   1277605.37849   1259614.90049  24260002.1864   24260004.5594   24259999.7164
       208.0004        139.0004
 -15877685.24449 -12094603.36349  21994985.6024   21994986.2354   21994985.0974
       229.0004        174.0004
   1005033.13749    790715.54149  24385341.0484   24385342.4734   24385339.2404
       211.0004        141.0004
 11 10  9  0 20  0.0000000  0  9G26G05G10G07G08G13G04G02G16
  -3692621.03249  -2857778.43149  23581110.8684   23581114.5454   23581110.5354
       212.0004        146.0004
 -15786936.86349 -12285842.29249  21585071.2134   21585074.2134   21585071.8174
       234.0004        191.0004
 -20170662.00849 -15445937.98549  20608906.8994   20608909.6324   20608906.2384
       242.0004        198.0004
 -22882544.08149 -17533476.73349  20569315.6714   20569317.8864   20569316.2634
       241.0004        205.0004
 -19173320.30949 -14920510.13249  21135238.9024   21135241.6474   21135237.8864
       243.0004        196.0004
 -11582296.27149  -8408916.74849  22466638.4404   22466640.2624   22466639.0474
       225.0004        160.0004
   1387016.10349   1344870.02249  24280818.9494   24280820.8724   24280818.8914
       203.0004        132.0004
 -15819479.04649 -12049247.91649  22006062.3174   22006063.4584   22006062.4414
       230.0004        176.0004
   1056540.94249    830851.43249  24395141.0694   24395145.6194   24395140.3784
       210.0004        138.0004
 11 10  9  0 20 30.0000000  0  9G26G05G10G07G08G13G04G02G16
  -3799893.14049  -2941367.06449  23560695.7034   23560699.9504   23560697.1564
       211.0004        145.0004
 -15854043.51649 -12338133.17649  21572301.6534   21572303.9734   21572301.9194
       236.0004        192.0004
 -20120528.72549 -15406873.09949  20618446.9314   20618449.3214   20618446.4754
       242.0004        198.0004
 -22876199.56749 -17528532.93549  20570523.7914   20570524.7044   20570523.6264
       243.0004        204.0004
 -19231752.20549 -14966041.45149  21124118.3914   21124121.6674   21124118.1914
       242.0004        196.0004
 -11494922.43849  -8340833.24949  22483263.4724   22483268.2024   22483264.6504
       223.0004        162.0004
   1496479.36049   1430166.08649  24301650.7324   24301656.8254   24301651.5654
       210.0004        141.0004
 -15760769.76849 -12003500.43749  22017233.9904   22017235.3974   22017233.5974
       229.0004        175.0004
   1108577.42749    871399.25449  24405046.4754   24405046.3964   24405044.7004
       212.0004        143.0004
 11 10  9  0 21  0.0000000  0  9G26G05G10G07G08G13G04G02G16
  -3907017.19149  -3024840.27349  23540311.1854   23540315.9614   23540311.7284
       211.0004        147.0004
 -15920779.56349 -12390135.28649  21559602.0194   21559604.7584   21559602.6314
       235.0004        192.0004
 -20069928.25649 -15367444.17049  20628075.3884   20628078.5664   20628075.0004
       241.0004        198.0004
 -22869293.69349 -17523151.73149  20571836.6214   20571839.2664   20571837.4904
       241.0004        205.0004
 -19289711.64249 -15011204.63449  21113089.4944   21113092.3804   21113089.4974
       242.0004        197.0004
 -11407374.64149  -8272614.20349  22499925.3924   22499927.3824   22499926.8574
       227.0004        161.0004
   1605993.08249   1515501.40449  24322489.6504   24322495.3434   24322490.9354
       205.0004        142.0004
 -15701558.45849 -11957361.77749  22028502.1824   22028502.5194   22028502.0794
       230.0004        176.0004
   1161141.55149    912358.36949  24415046.8214   24415049.8224   24415047.0934
       212.0004        144.0004
 11 10  9  0 21 30.0000000  0  9G26G05G10G07G08G13G04G02G16
  -4013992.69349  -3108197.82549  23519954.6494   23519959.3764   23519954.5704
       211.0004        146.0004
 -15987143.35249 -12441847.31149  21546973.3324   21546976.8064   21546974.0154
       235.0004        193.0004
 -20018862.13649 -15327652.40249  20637793.9564   20637796.6554   20637792.7694
       241.0004        198.0004
 -22861828.04349 -17517334.33049  20573257.8114   20573259.7024   20573257.8924
       241.0004        204.0004
 -19347197.81349 -15055999.02549  21102149.7164   21102153.1934   21102149.3034
       241.0004        196.0004
 -11319654.99149  -8204261.24949  22516617.0944   22516619.9694   22516618.6684
       226.0004        160.0004
   1715553.90349   1600873.39449  24343339.4234   24343341.8104   24343339.6374
       204.0004        136.0004
 -15641848.15849 -11910834.30349  22039864.2304   22039865.1194   22039863.6844
       229.0004        175.0004
   1214230.64849    953726.50849  24425148.9114   24425152.4884   24425148.0464
       210.0004        143.0004
 11 10  9  0 22  0.0000000  0  9G26G05G10G07G08G13G04G02G16
  -4120818.47549  -3191438.62049  23499627.1594   23499630.5144   23499626.8914
       212.0004        147.0004
 -16053132.92149 -12493267.73749  21534416.0634   21534419.2454   21534416.5754
       235.0004        193.0004
 -19967331.42649 -15287498.61649  20647598.7874   20647602.0774   20647598.3414
       240.0004        197.0004
 -22853803.16749 -17511081.17949  20574784.6054   20574787.1574   20574785.3104
       241.0004        205.0004
 -19404210.05749 -15100424.13449  21091300.7954   21091304.3484   21091300.6384
       242.0004        196.0004
 -11231764.58149  -8135775.22249  22533341.7234   22533344.6824   22533343.6254
       226.0004        160.0004
   1825158.94049   1686279.97749  24364196.1734   24364199.3504   24364198.0794
       211.0004        139.0004
 -15581641.36949 -11863919.95149  22051321.6014   22051322.1624   22051321.6004
       230.0004        174.0004
   1267842.77749    995502.06349  24435351.6444   24435354.3794   24435352.6264
       211.0004        141.0004
 11 10  9  0 22 30.0000000  0  9G26G05G10G07G08G13G04G02G16
  -4227492.65149  -3274561.31549  23479327.6504   23479331.6424   23479328.1914
       213.0004        149.0004
 -16118745.86949 -12544394.69649  21521930.1184   21521933.1504   21521931.2474
       236.0004        193.0004
 -19915336.22049 -15246982.88249  20657493.4234   20657496.6654   20657493.0634
       241.0004        197.0004
 -22845219.56149 -17504392.64149  20576418.6214   20576420.2634   20576418.4624
       242.0004        204.0004
 -19460746.30749 -15144478.33249  21080542.3504   21080545.4144   21080542.8154
       242.0004        197.0004
 -11143704.07049  -8067156.64449  22550100.3224   22550102.5444   22550100.4164
       227.0004        163.0004
   1934806.11549   1771719.35449  24385061.5044   24385067.5224   24385061.2264
       204.0004        139.0004
 -15520940.15349 -11816620.30949  22062870.9704   22062873.1034   22062871.4724
       230.0004        175.0004
   1321977.10649   1037684.56949  24445654.3624   24445654.2124   24445654.1564
       214.0004        141.0004
 11 10  9  0 23  0.0000000  0  9G26G05G10G07G08G13G04G02G16
  -4334014.53649  -3357565.35549  23459057.4094   23459059.9454   23459056.9084
       210.0004        144.0004
 -16183980.62049 -12595226.96849  21509517.0234   21509519.5994   21509517.1774
       236.0004        193.0004
 -19862877.95249 -15206106.32449  20667476.3314   20667479.4054   20667475.3904
       241.0004        197.0004
 -22836078.13949 -17497269.45549  20578157.5574   20578159.8874   20578158.2274
       241.0004        204.0004
 -19516805.49849 -15188160.79749  21069875.2624   21069878.5614   21069874.3654
       243.0004        197.0004
 -11055474.79549  -7998406.60249  22566890.6124   22566892.4854   22566890.7874
       227.0004        162.0004
   2044492.55149   1857189.19249  24405934.3864   24405939.3954   24405935.7594
       206.0004        140.0004
 -15459747.00949 -11768937.36249  22074517.5964   22074517.9254   22074516.9084
       230.0004        176.0004
   1376631.05549   1080272.11049  24456053.6364   24456057.6574   24456053.5534
       211.0004        142.0004
 11 10  9  0 23 30.0000000  0  9G26G05G10G07G08G13G04G02G16
  -4440382.66149  -3440449.54749  23438814.0124   23438817.6554   23438814.4074
       213.0004        144.0004
 -16248834.65949 -12645762.56149  21497174.6814   21497178.2194   21497175.7564
       236.0004        193.0004
 -19809957.67349 -15164869.75049  20677547.2574   20677549.5804   20677545.9714
       242.0004        196.0004
 -22826380.20049 -17489712.60449  20580003.1434   20580005.3394   20580003.4884
       241.0004        204.0004
 -19572386.63549 -15231470.75249  21059298.2644   21059301.2114   21059297.3714
       242.0004        197.0004
 -10967078.01149  -7929526.00449  22583710.2874   22583714.6394   22583710.5554
       226.0004        162.0004
   2154215.26749   1942687.41349  24426816.7554   24426815.8914   24426815.5454
       213.0004        138.0004
 -15398064.76449 -11720873.30149  22086254.7364   22086255.7814   22086254.5764
       230.0004        174.0004
   1431802.84949   1123263.07049  24466551.5714   24466555.6704   24466551.9054
       213.0004        142.0004
 11 10  9  0 24  0.0000000  0  9G26G05G10G07G08G13G04G02G16
  -4546595.90449  -3523213.13349  23418604.5554   23418606.8324   23418603.6744
       212.0004        148.0004
 -16313306.63149 -12696000.44949  21484906.9494   21484909.6164   21484907.8034
       237.0004        194.0004
 -19756576.61949 -15123274.14549  20687704.3114   20687707.5344   20687704.5014
       242.0004        196.0004
 -22816126.03549 -17481722.34049  20581954.1134   20581956.8104   20581954.7844
       241.0004        204.0004
 -19627488.49549 -15274407.24549  21048811.8604   21048815.5404   21048811.9794
       241.0004        197.0004
 -10878515.40049  -7860516.19849  22600564.1714   22600565.0934   22600564.5324
       227.0004        163.0004
   2263971.17049   2028211.55349  24447703.0394   24447705.6754   24447701.6284
       209.0004        137.0004
 -15335895.83349 -11672429.99749  22098084.4334   22098085.8294   22098084.0714
       229.0004        174.0004
   1487490.15249   1166655.70349  24477150.1524   24477149.5844   24477150.4024
       212.0004        141.0004
 11 10  9  0 24 30.0000000  0  9G26G05G10G07G08G13G04G02G16
  -4652652.62649  -3605854.66349  23398422.6084   23398426.2614   23398421.5534
       209.0004        149.0004
 -16377393.48649 -12745938.25549  21472712.3834   21472714.1424   21472712.2394
       238.0004        194.0004
 -19702734.81149 -15081319.49849  20697951.0364   20697953.2234   20697950.0384
       242.0004        196.0004
 -22805316.17549 -17473299.06949  20584011.2974   20584013.9454   20584011.8734
       241.0004        205.0004
 -19682109.26649 -15316968.86149  21038418.4664   21038421.6744   21038418.3354
       242.0004        197.0004
 -10789787.32449  -7791377.45049  22617448.9984   22617451.1514   22617448.2714
       226.0004        161.0004
   2373758.84049   2113760.32649  24468592.5114   24468598.0334   24468591.8464
       208.0004        139.0004
 -15273241.61949 -11623608.56349  22110008.1504   22110009.3214   22110007.8134
       229.0004        174.0004
   1543692.13249   1210449.53049  24487843.6554   24487846.1474   24487843.7324
       209.0004        141.0004
 11 10  9  0 25  0.0000000  0  9G26G05G10G07G08G13G04G02G16
  -4758551.75049  -3688373.39749  23378268.5474   23378273.0114   23378269.9134
       211.0004        147.0004
 -16441093.48249 -12795574.59049  21460589.7554   21460592.4674   21460589.8104
       237.0004        194.0004
 -19648433.59049 -15039006.86549  20708283.5364   20708286.8144   20708283.1954
       242.0004        196.0004
 -22793951.55749 -17464443.51449  20586173.5864   20586176.1524   20586173.8294
       240.0004        204.0004
 -19736247.74349 -15359154.66149  21028117.1694   21028119.2274   21028116.2124
       243.0004        197.0004
 -10700895.03249  -7722110.75149  22634363.4094   22634367.4294   22634363.3714
       225.0004        162.0004
   2483575.02149   2199331.34949  24489491.0334   24489493.3604   24489491.4224
       212.0004        142.0004
 -15210105.24649 -11574411.41449  22122022.2774   22122022.8994   22122022.0214
       229.0004        173.0004
   1600406.26049   1254642.30949  24498636.4344   24498638.4164   24498636.2754
       209.0004        142.0004
 11 10  9  0 25 30.0000000  0  9G26G05G10G07G08G13G04G02G16
  -4864291.89849  -3770768.32549  23358148.3044   23358150.2584   23358149.0484
       215.0004        145.0004
 -16504404.69049 -12844907.98949  21448542.2064   21448544.8794   21448542.9804
       238.0004        195.0004
 -19593674.15449 -14996337.18449  20718704.1724   20718707.0654   20718703.5394
       242.0004        196.0004
 -22782033.44849 -17455156.67049  20588442.0354   20588444.3194   20588442.5664
       241.0004        204.0004
