     2.11           OBSERVATION DATA    G (GPS)             RINEX VERSION / TYPE
Linux 2.4.21-27.ELsmp|Opteron|gcc -static|Linux x86_64|=+   COMMENT
HEADER CHANGED BY EPN CB ON 2011-10-12                      COMMENT
TO BE CONFORM WITH THE INFORMATION IN                       COMMENT
ftp://epncb.oma.be/pub/station/log/brus.log                 COMMENT
                                                            COMMENT
teqc  2010Oct21                         20111012 00:01:18UTCPGM / RUN BY / DATE
teqc  2010Oct21                         20111012 00:01:03UTCCOMMENT
teqc  2010Oct21                         20111011 01:01:02UTCCOMMENT
BIT 2 OF LLI FLAGS DATA COLLECTED UNDER A/S CONDITION       COMMENT
BRUS                                                        MARKER NAME
13101M004                                                   MARKER NUMBER
Carine Bruyninx     ROB                                     OBSERVER / AGENCY
RT919994505         ASHTECH Z-XII3T     1L01-1D04           REC # / TYPE / VERS
CR519994604         ASH701945B_M    NONE                    ANT # / TYPE
  4027894.0130   307045.5980  4919474.9120                  APPROX POSITION XYZ
        3.9702        0.0000        0.0000                  ANTENNA: DELTA H/E/N
     1     1                                                WAVELENGTH FACT L1/2
     7    L1    L2    C1    P2    P1    S1    S2            # / TYPES OF OBSERV
    30.0000                                                 INTERVAL
 SNR is mapped to RINEX snr flag value [0-9]                COMMENT
  L1 & L2: min(max(int(snr_dBHz/6), 0), 9)                  COMMENT
pseudorange smoothing corrections not applied               COMMENT
COORDINATES IN ETRF2000                                     COMMENT
Forced Modulo Decimation to 30 seconds                      COMMENT
  2011    10    11     0     0    0.0000000     GPS         TIME OF FIRST OBS
                                                            END OF HEADER
 11 10 11  0  0  0.0000000  0  9G05G26G07G08G13G10G04G02G16
 -14030717.00049 -10918762.15149  21912891.7914   21912894.6374   21912892.4164
       235.0004        188.0004
  -1867855.83449   -625614.59649  24070529.2684   24070532.7244   24070528.2874
       210.0004        141.0004
 -22065583.18249 -16896940.27949  20572566.2154   20572568.7094   20572566.8474
       240.0004        204.0004
 -19502464.49049 -15183978.90949  21427539.4264   21427543.6004   21427539.3994
       237.0004        191.0004
 -14261515.37549 -10512351.09349  22076412.0544   22076415.3324   22076412.5734
       230.0004        170.0004
 -21221606.21749 -16524667.21349  20410767.3264   20410770.7014   20410766.6044
       240.0004        200.0004
  -1467548.53149   -865426.65149  23789134.3264   23789137.7224   23789136.1964
       216.0004        146.0004
 -16602184.03749 -12918908.44749  21771466.3234   21771467.5064   21771466.7434
       231.0004        181.0004
    332046.55449    485392.28349  24196953.3974   24196954.4584   24196951.5244
       209.0004        139.0004
 11 10 11  0  0 30.0000000  0  9G05G26G07G08G13G10G04G02G16
 -14106098.02449 -10977500.59049  21898547.5084   21898550.2354   21898548.2334
       236.0004        190.0004
  -1978255.12649   -711640.08849  24049518.4614   24049524.3634   24049517.9504
       202.0004        132.0004
 -22072588.05949 -16902398.59949  20571233.2804   20571235.4474   20571233.6084
       239.0004        204.0004
 -19571761.11849 -15237976.26349  21414353.7454   21414356.5724   21414353.2084
       237.0004        191.0004
 -14178707.83249 -10447825.76449  22092171.7204   22092173.3614   22092170.7294
       230.0004        170.0004
 -21182647.51449 -16494309.79949  20418180.8304   20418183.9354   20418180.4704
       241.0004        200.0004
  -1360078.85549   -781684.01149  23809585.3014   23809586.4994   23809584.4214
       214.0004        145.0004
 -16555810.54849 -12882773.26549  21780292.0284   21780293.1524   21780291.8814
       232.0004        181.0004
    371375.36349    516038.10749  24204437.9254   24204438.0134   24204437.2384
       210.0004        138.0004
 11 10 11  0  1  0.0000000  0  9G05G26G07G08G13G10G04G02G16
 -14181158.72049 -11035989.45049  21884264.2584   21884265.9314   21884265.1404
       234.0004        188.0004
  -2088536.27649   -797573.44749  24028533.9434   24028537.8574   24028532.7094
       210.0004        138.0004
 -22079020.75149 -16907411.07749  20570009.5914   20570011.3304   20570009.6254
       240.0004        204.0004
 -19640620.92449 -15291633.24249  21401249.4584   21401252.6284   21401249.2364
       237.0004        191.0004
 -14095695.87949 -10383141.13449  22107967.6864   22107969.1434   22107967.7014
       229.0004        169.0004
 -21143204.72849 -16463575.17249  20425686.6224   20425689.5944   20425686.0064
       239.0004        200.0004
  -1252493.70649   -697851.41449  23830055.0004   23830062.0034   23830054.9234
       210.0004        147.0004
 -16508885.93449 -12846208.63949  21789221.1984   21789222.0284   21789221.4484
       232.0004        181.0004
    411267.54549    547122.93149  24212028.0544   24212029.9024   24212026.3294
       212.0004        140.0004
 11 10 11  0  1 30.0000000  0  9G05G26G07G08G13G10G04G02G16
 -14255897.58549 -11094227.51149  21870040.5384   21870043.7934   21870040.8344
       230.0004        187.0004
  -2198698.39749   -883414.02049  24007570.9794   24007575.2324   24007571.4804
       212.0004        143.0004
 -22084881.80349 -16911978.12349  20568893.1974   20568895.8654   20568894.2784
       239.0004        203.0004
 -19709042.83349 -15344949.00649  21388229.4794   21388232.7924   21388229.4404
       238.0004        192.0004
 -14012481.48549 -10318298.75249  22123802.0084   22123804.9504   22123802.7724
       230.0004        170.0004
 -21103279.12849 -16432464.31949  20433283.6994   20433287.1104   20433283.2174
       241.0004        199.0004
  -1144796.24749   -613931.38049  23850549.9124   23850556.8414   23850551.0604
       210.0004        146.0004
 -16461412.50249 -12809216.35849  21798254.1444   21798256.3464   21798255.2894
       230.0004        181.0004
    451721.13849    578645.23149  24219727.1434   24219727.8074   24219726.1444
       210.0004        141.0004
 11 10 11  0  2  0.0000000  0  9G05G26G07G08G13G10G04G02G16
 -14330311.34649 -11152212.23949  21855880.6634   21855884.3564   21855881.1864
       233.0004        190.0004
  -2308739.50349   -969160.28449  23986628.8884   23986632.6494   23986629.6614
       201.0004        136.0004
 -22090170.93849 -16916099.51449  20567887.8134   20567889.3174   20567887.5604
       240.0004        204.0004
 -19777024.59149 -15397921.78649  21375292.8944   21375296.0364   21375292.2524
       238.0004        191.0004
 -13929065.52649 -10253299.31549  22139676.2174   22139678.2404   22139676.0524
       229.0004        171.0004
 -21062870.38249 -16400976.98749  20440974.2214   20440976.3554   20440973.0854
       241.0004        199.0004
  -1036988.48149   -529925.34249  23871065.0754   23871069.5664   23871068.0194
       214.0004        143.0004
 -16413391.38849 -12771797.32449  21807393.5394   21807394.6624   21807393.3304
       231.0004        181.0004
    492735.79649    610604.70949  24227530.8544   24227533.0654   24227531.0574
       211.0004        140.0004
 11 10 11  0  2 30.0000000  0  9G05G26G07G08G13G10G04G02G16
 -14404398.23049 -11209942.27649  21841782.3164   21841785.4844   21841783.1444
       234.0004        190.0004
  -2418658.28749  -1054811.20449  23965714.9624   23965717.7554   23965713.1794
       211.0004        138.0004
 -22094888.47449 -16919775.50049  20566989.6314   20566991.8534   20566989.8574
       240.0004        204.0004
 -19844564.23849 -15450550.06049  21362439.3544   21362443.3884   21362440.1384
       238.0004        191.0004
 -13845449.37749 -10188143.88749  22155588.1464   22155590.7094   22155587.1714
       228.0004        170.0004
 -21021979.09949 -16369113.66549  20448754.7704   20448757.7884   20448754.3024
       240.0004        199.0004
   -929073.22149   -445835.48149  23891601.2254   23891604.8754   23891601.1414
       209.0004        141.0004
 -16364824.85949 -12733953.28849  21816635.2164   21816635.9274   21816635.7144
       231.0004        180.0004
    534310.04449    643000.20949  24235443.1264   24235444.0974   24235443.8694
       211.0004        141.0004
 11 10 11  0  3  0.0000000  0  9G05G26G07G08G13G10G04G02G16
 -14478156.99849 -11267416.64049  21827745.8594   21827749.2274   21827747.3144
       231.0004        187.0004
  -2528454.40949  -1140366.73749  23944819.5734   23944822.1554   23944822.1224
       211.0004        137.0004
 -22099035.55949 -16923006.99249  20566200.1034   20566202.4484   20566200.6274
       239.0004        204.0004
 -19911661.30249 -15502833.48649  21349672.5624   21349675.3844   21349672.3674
       240.0004        193.0004
 -13761635.22149 -10122834.18949  22171536.8104   22171539.3914   22171536.9254
       228.0004        170.0004
 -20980606.78749 -16336875.51449  20456627.7124   20456631.0284   20456627.3684
       241.0004        199.0004
   -821053.91449   -361664.65849  23912155.3904   23912162.5844   23912156.6894
       207.0004        143.0004
 -16315715.25249 -12695686.06149  21825980.6804   21825981.1414   21825980.4304
       232.0004        180.0004
    576441.67849    675830.03049  24243458.5834   24243460.8734   24243458.1854
       207.0004        139.0004
 11 10 11  0  3 30.0000000  0  9G05G26G07G08G13G10G04G02G16
 -14551584.57149 -11324632.90849  21813773.8734   21813776.4134   21813774.6134
       234.0004        189.0004
  -2638126.00249  -1225825.05749  23923948.7164   23923954.8344   23923946.9654
       200.0004        141.0004
 -22102611.89949 -16925793.75449  20565519.7744   20565522.4924   20565520.3654
       240.0004        204.0004
 -19978313.33249 -15554770.12549  21336987.9234   21336992.3164   21336988.5974
       239.0004        193.0004
 -13677623.04749 -10057370.15349  22187524.9404   22187526.2654   22187525.2854
       233.0004        171.0004
 -20938753.21849 -16304262.35449  20464593.1844   20464595.3344   20464592.1164
       241.0004        199.0004
   -712932.91449   -277414.53849  23932733.0974   23932737.5044   23932732.9524
       217.0004        146.0004
 -16266064.08449 -12656996.84949  21835429.4494   21835430.2974   21835429.0594
       231.0004        180.0004
    619130.09549    709093.72949  24251583.8874   24251585.3584   24251584.2584
       209.0004        140.0004
 11 10 11  0  4  0.0000000  0  9G05G26G07G08G13G10G04G02G16
 -14624679.47649 -11381589.96449  21799864.7554   21799867.3104   21799865.4074
       234.0004        190.0004
  -2747672.08749  -1311185.49149  23903102.3994   23903109.0444   23903102.4514
       204.0004        139.0004
 -22105617.84349 -16928136.06049  20564948.0324   20564950.5174   20564948.4254
       240.0004        205.0004
 -20044519.04849 -15606358.98549  21324390.8184   21324393.3214   21324390.1964
       239.0004        193.0004
 -13593414.76649  -9991753.32349  22203548.4494   22203551.3044   22203547.9574
       232.0004        171.0004
 -20896419.57549 -16271275.09749  20472648.2894   20472651.2234   20472647.4494
       240.0004        199.0004
   -604713.15649   -193087.47449  23953327.4664   23953328.6714   23953324.4724
       210.0004        139.0004
 -16215873.65449 -12617887.44349  21844979.6234   21844980.5274   21844979.5354
       230.0004        180.0004
    662373.42949    742789.86149  24259811.1934   24259812.8464   24259812.8004
       208.0004        140.0004
 11 10 11  0  4 30.0000000  0  9G05G26G07G08G13G10G04G02G16
 -14697439.19049 -11438285.84449  21786019.5834   21786021.3254   21786019.7184
       235.0004        189.0004
  -2857090.95849  -1396446.99349  23882282.2934   23882286.4774   23882283.3154
       212.0004        140.0004
 -22108053.73349 -16930034.16849  20564484.4824   20564486.7334   20564484.8474
       240.0004        204.0004
 -20110276.74349 -15657598.73149  21311876.8964   21311880.1354   21311876.7424
       239.0004        193.0004
 -13509011.49049  -9925984.57249  22219610.1724   22219612.2694   22219611.1774
       230.0004        169.0004
 -20853606.25149 -16237914.07049  20480795.2254   20480798.4794   20480794.4944
       241.0004        199.0004
   -496397.12649   -108685.38349  23973938.2764   23973941.8494   23973938.9044
       210.0004        140.0004
 -16165145.53949 -12578359.07949  21854633.1214   21854633.9724   21854632.5964
       229.0004        179.0004
    706170.45849    776917.39349  24268145.6684   24268148.1974   24268146.1294
       208.0004        138.0004
 11 10 11  0  5  0.0000000  0  9G05G26G07G08G13G10G04G02G16
 -14769862.00249 -11494719.20449  21772236.7314   21772239.5964   21772237.3324
       234.0004        189.0004
  -2966381.76449  -1481608.75749  23861484.5994   23861487.9584   23861483.4124
       202.0004        137.0004
 -22109920.31149 -16931488.63449  20564129.6084   20564131.4234   20564129.2214
       240.0004        204.0004
 -20175585.21249 -15708488.43449  21299449.6614   21299452.7094   21299449.1384
       240.0004        194.0004
 -13424414.84549  -9860065.11249  22235707.2554   22235710.7164   22235707.9004
       227.0004        168.0004
 -20810314.34649 -16204180.13149  20489033.4454   20489036.3894   20489032.8414
       240.0004        199.0004
   -387987.86249    -24210.60749  23994569.7704   23994571.0304   23994569.8124
       215.0004        145.0004
 -16113882.40849 -12538413.82849  21864388.2444   21864389.0244   21864387.8534
       231.0004        179.0004
    750519.49949    811475.10149  24276586.5314   24276586.2314   24276585.4274
       209.0004        139.0004
 11 10 11  0  5 30.0000000  0  9G05G26G07G08G13G10G04G02G16
 -14841945.86649 -11550888.43449  21758520.1404   21758522.7194   21758520.5354
       234.0004        190.0004
  -3075543.61949  -1566669.80449  23840711.2404   23840716.9154   23840712.7214
       208.0004        141.0004
 -22111217.95249 -16932499.77849  20563881.8994   20563884.3784   20563882.4074
       239.0004        204.0004
 -20240443.03449 -15759026.97549  21287107.1014   21287110.4564   21287106.2634
       240.0004        194.0004
 -13339625.74749  -9793995.69849  22251842.7544   22251844.7284   22251843.2524
       229.0004        166.0004
 -20766544.44049 -16170073.73049  20497362.5494   20497365.5214   20497362.1374
       241.0004        199.0004
   -279488.08549     60334.60749  24015215.0424   24015218.8624   24015214.3074
       211.0004        144.0004
 -16062086.12149 -12498053.15949  21874244.3414   21874245.9264   21874244.4434
       229.0004        180.0004
    795418.92849    846461.66149  24285130.5034   24285132.1744   24285129.3384
       211.0004        139.0004
 11 10 11  0  6  0.0000000  0  9G05G26G07G08G13G10G04G02G16
 -14913688.06449 -11606791.44549  21744868.5824   21744869.6934   21744869.0374
       237.0004        190.0004
  -3184574.40049  -1651628.82149  23819965.8074   23819969.3424   23819964.5844
       210.0004        147.0004
 -22111946.65449 -16933067.59349  20563743.2694   20563745.8514   20563743.6294
       239.0004        204.0004
 -20304848.03549 -15809212.67949  21274850.8414   21274854.7674   21274851.2104
       238.0004        194.0004
 -13254645.27349  -9727777.17049  22268014.0804   22268017.7924   22268015.2334
       229.0004        166.0004
 -20722296.59449 -16135594.91249  20505783.4074   20505785.6584   20505782.3864
       241.0004        199.0004
   -170900.39249    144948.35349  24035879.0554   24035877.2664   24035878.6134
       212.0004        137.0004
 -16009758.30649 -12457278.30049  21884202.1544   21884203.1184   21884202.1914
       230.0004        179.0004
    840867.90749    881876.42549  24293778.8784   24293781.1504   24293778.2964
       211.0004        141.0004
 11 10 11  0  6 30.0000000  0  9G05G26G07G08G13G10G04G02G16
 -14985087.35749 -11662427.26649  21731281.8204   21731283.5504   21731281.7394
       235.0004        189.0004
  -3293474.01149  -1736485.59349  23799239.5894   23799245.8404   23799238.5884
       204.0004        138.0004
 -22112107.78449 -16933193.14749  20563713.2324   20563715.3374   20563713.5114
       240.0004        204.0004
 -20368799.81749 -15859045.20649  21262682.3434   21262685.3504   21262681.4404
       239.0004        195.0004
 -13169475.64549  -9661411.23449  22284221.7984   22284223.5584   22284221.1434
       228.0004        167.0004
 -20677572.63449 -16100745.09949  20514293.0454   20514296.3044   20514292.6614
       240.0004        198.0004
    -62228.19049    229628.05049  24056557.7094   24056560.8474   24056558.5544
       213.0004        143.0004
 -15956902.04649 -12416091.66449  21894261.6654   21894261.7784   21894260.7254
       232.0004        179.0004
    886863.77849    917717.37149  24302530.6864   24302533.0064   24302531.0614
       208.0004        138.0004
 11 10 11  0  7  0.0000000  0  9G05G26G07G08G13G10G04G02G16
 -15056140.60749 -11717793.42149  21717759.5604   21717762.8224   21717760.3544
       234.0004        191.0004
  -3402239.99149  -1821238.33749  23778542.4904   23778547.6304   23778542.8594
       204.0004        135.0004
 -22111700.41049 -16932875.71149  20563789.9574   20563792.9974   20563790.8244
       239.0004        205.0004
 -20432295.64549 -15908522.46949  21250597.9964   21250601.9824   21250598.9394
       239.0004        195.0004
 -13084116.80949  -9594897.86049  22300464.2534   22300467.5834   22300464.5244
       229.0004        167.0004
 -20632371.92649 -16065523.79649  20522895.5304   20522898.2064   20522894.7574
       241.0004        199.0004
     46526.81849    314372.18149  24077250.3954   24077259.0214   24077252.9924
       206.0004        147.0004
 -15903518.17249 -12374493.87149  21904419.5284   21904419.9304   21904419.4494
       232.0004        179.0004
    933406.25449    953984.22449  24311387.7334   24311388.6014   24311386.4344
       211.0004        140.0004
 11 10 11  0  7 30.0000000  0  9G05G26G07G08G13G10G04G02G16
 -15126847.42949 -11772889.63749  21704306.0014   21704307.5504   21704306.1024
       238.0004        192.0004
  -3510872.42649  -1905886.96149  23757872.7984   23757877.8774   23757873.1144
       211.0004        147.0004
 -22110726.72149 -16932116.99349  20563975.9224   20563977.5254   20563976.2624
       240.0004        204.0004
 -20495335.54849 -15957644.44549  21238603.9964   21238605.9704   21238602.8564
       241.0004        195.0004
 -12998571.74549  -9528239.41649  22316743.4134   22316746.2414   22316743.5724
       229.0004        167.0004
 -20586696.83449 -16029932.83549  20531586.4984   20531590.1214   20531586.0404
       241.0004        199.0004
    155360.37549    399177.49249  24097958.4784   24097967.1154   24097960.4334
       205.0004        141.0004
 -15849610.33249 -12332487.79949  21914677.9104   21914678.6174   21914678.2764
       231.0004        179.0004
    980492.03449    990674.45249  24320346.4884   24320349.5074   24320346.5424
       206.0004        139.0004
 11 10 11  0  8  0.0000000  0  9G05G26G07G08G13G10G04G02G16
 -15197204.32949 -11827713.21049  21690916.9324   21690918.5784   21690917.7314
       237.0004        191.0004
  -3619369.28749  -1990429.88149  23737226.3594   23737230.2704   23737225.4804
       209.0004        143.0004
 -22109186.09549 -16930916.50749  20564268.3714   20564271.1934   20564269.3114
       239.0004        204.0004
 -20557916.90549 -16006409.11449  21226693.3914   21226697.2824   21226693.3664
       240.0004        195.0004
 -12912840.52249  -9461435.86049  22333056.6894   22333060.3774   22333057.7884
       229.0004        167.0004
 -20540546.79549 -15993971.79249  20540368.8864   20540371.8004   20540368.3254
       241.0004        199.0004
    264270.83349    484042.76649  24118688.2134   24118688.3794   24118688.3034
       215.0004        138.0004
 -15795179.64449 -12290074.29549  21925034.8114   21925035.8064   21925035.1994
       230.0004        178.0004
   1028120.97449   1027787.88849  24329410.2274   24329412.2834   24329410.7724
       207.0004        138.0004
 11 10 11  0  8 30.0000000  0  9G05G26G07G08G13G10G04G02G16
 -15267209.92349 -11882263.02049  21677594.8944   21677597.4434   21677595.0394
       236.0004        190.0004
  -3727729.37149  -2074866.29049  23716604.4264   23716609.7284   23716605.1454
       209.0004        143.0004
 -22107079.73949 -16929275.18649  20564670.1564   20564671.8794   20564670.0674
       240.0004        204.0004
 -20620038.93849 -16054815.88749  21214872.7944   21214875.4574   21214872.3014
       241.0004        195.0004
 -12826924.58049  -9394488.37849  22349407.1624   22349409.3604   22349406.4954
       229.0004        167.0004
 -20493923.17049 -15957641.71049  20549241.3504   20549243.7924   20549240.5344
       240.0004        198.0004
    373255.02949    568965.56849  24139428.5354   24139430.7354   24139428.4854
       212.0004        141.0004
 -15740228.58849 -12247255.32649  21935492.9484   21935492.6694   21935492.7034
       231.0004        177.0004
   1076290.90249   1065322.88249  24338578.2204   24338580.1534   24338578.4344
       210.0004        140.0004
 11 10 11  0  9  0.0000000  0  9G05G26G07G08G13G10G04G02G16
 -15336861.21249 -11936536.74449  21664341.1654   21664343.5324   21664341.5734
       237.0004        192.0004
  -3835951.18249  -2159194.95249  23696011.5944   23696016.2074   23696010.8334
       209.0004        142.0004
 -22104407.47049 -16927192.90649  20565177.7284   20565180.5094   20565178.5324
       239.0004        204.0004
 -20681699.40149 -16102862.97449  21203138.8954   21203142.2254   21203138.3384
       240.0004        195.0004
 -12740824.97549  -9327397.78949  22365791.2974   22365793.3614   22365792.0674
       228.0004        165.0004
 -20446826.31949 -15920942.87949  20558202.6154   20558206.2404   20558202.4474
       239.0004        199.0004
    482311.04649    653944.21649  24160179.7994   24160186.0874   24160180.3634
       212.0004        143.0004
 -15684759.08349 -12204032.38349  21946048.2434   21946048.3754   21946048.3284
       231.0004        177.0004
   1125000.53149   1103278.42649  24347846.1564   24347849.5004   24347845.7634
       211.0004        141.0004
 11 10 11  0  9 30.0000000  0  9G05G26G07G08G13G10G04G02G16
 -15406156.50249 -11990533.05549  21651154.3564   21651156.9434   21651154.8674
       237.0004        192.0004
  -3944033.59349  -2243414.98149  23675446.4224   23675447.8214   23675445.5044
       214.0004        144.0004
 -22101169.70949 -16924670.00149  20565794.8744   20565796.2484   20565794.6144
       240.0004        204.0004
 -20742897.14749 -16150549.51449  21191493.2304   21191496.3504   21191493.1534
       240.0004        195.0004
 -12654542.74149  -9260164.88449  22382209.2594   22382213.1054   22382209.7824
       229.0004        166.0004
 -20399257.24949 -15883876.09449  20567255.8864   20567257.9434   20567254.9594
       241.0004        198.0004
    591435.50049    738976.21749  24180949.4544   24180949.5474   24180946.7754
       214.0004        145.0004
 -15628773.29749 -12160407.13249  21956701.8704   21956702.0044   21956701.7914
       230.0004        178.0004
   1174248.08349   1141653.13249  24357217.9494   24357220.4774   24357218.4564
       210.0004        141.0004
 11 10 11  0 10  0.0000000  0  9G05G26G07G08G13G10G04G02G16
 -15475093.61349 -12044250.29149  21638036.7594   21638038.0784   21638037.0774
       237.0004        191.0004
  -4051975.34849  -2327525.45749  23654904.1104   23654907.3334   23654905.2094
       208.0004        143.0004
 -22097367.39549 -16921707.16549  20566517.5724   20566520.2344   20566518.5274
       239.0004        204.0004
 -20803630.85149 -16197874.45049  21179935.9814   21179939.0274   21179935.4684
       240.0004        196.0004
 -12568079.12549  -9192790.66449  22398664.0004   22398666.4594   22398664.0024
       229.0004        165.0004
 -20351216.45349 -15846441.71349  20576396.5224   20576400.1624   20576396.5224
       239.0004        198.0004
    700626.11449    824059.84549  24201724.9464   24201725.4954   24201722.6924
       206.0004        134.0004
 -15572273.36149 -12116381.20549  21967453.0134   21967454.4994   21967452.7804
       230.0004        177.0004
   1224032.30249   1180446.05549  24366690.4984   24366694.7734   24366692.5224
       209.0004        142.0004
 11 10 11  0 10 30.0000000  0  9G05G26G07G08G13G10G04G02G16
 -15543671.24449 -12097687.40149  21624985.6724   21624988.7924   21624986.3364
       235.0004        191.0004
  -4159775.77849  -2411525.70549  23634390.6614   23634394.1864   23634388.7014
       211.0004        144.0004
 -22093001.81849 -16918305.41249  20567349.1244   20567351.1584   20567349.2634
       240.0004        204.0004
 -20863899.86649 -16244837.30849  21168466.6504   21168470.8784   21168467.0804
       239.0004        195.0004
 -12481436.17249  -9125276.68449  22415151.7204   22415152.8644   22415152.0954
       226.0004        163.0004
 -20302705.52149 -15808641.00549  20585628.5404   20585631.6654   20585627.7024
       239.0004        198.0004
    809879.22549    909192.14749  24222515.2354   24222520.1704   24222516.5064
       207.0004        138.0004
 -15515262.45549 -12071957.14449  21978301.1294   21978302.8574   21978301.8814
       228.0004        177.0004
   1274350.39349   1219654.94649  24376268.2054   24376267.6954   24376268.6314
       212.0004        144.0004
 11 10 11  0 11  0.0000000  0  9G05G26G07G08G13G10G04G02G16
 -15611887.11749 -12150842.60249  21612004.7134   21612007.7774   21612005.3474
       237.0004        192.0004
  -4267433.35949  -2495414.68149  23613903.5364   23613906.1614   23613904.4844
       212.0004        145.0004
 -22088073.25449 -16914464.97449  20568286.5714   20568288.5194   20568287.2904
       240.0004        204.0004
 -20923702.43249 -16291436.67749  21157087.7304   21157090.0724   21157086.8214
       241.0004        196.0004
 -12394615.25349  -9057624.02049  22431671.6334   22431675.1334   22431672.8824
       224.0004        162.0004
 -20253725.25149 -15770474.58049  20594949.5864   20594952.2344   20594949.0334
       240.0004        198.0004
    919192.14149    994370.97249  24243317.0304   24243320.4894   24243316.6164
       210.0004        144.0004
 -15457742.72749 -12027136.59549  21989247.4974   21989249.0234   21989246.8094
       230.0004        176.0004
   1325200.88849   1259278.70749  24385944.3964   24385944.7334   24385944.6624
       211.0004        142.0004
 11 10 11  0 11 30.0000000  0  9G05G26G07G08G13G10G04G02G16
 -15679738.83249 -12203714.06249  21599093.3854   21599095.6324   21599094.0364
       236.0004        193.0004
  -4374946.75249  -2579191.31749  23593445.2844   23593448.0824   23593445.1874
       214.0004        147.0004
 -22082581.93249 -16910186.01049  20569331.5054   20569334.0394   20569331.7114
       239.0004        204.0004
 -20983036.85549 -16337671.28049  21145795.7864   21145799.3494   21145795.7244
       239.0004        196.0004
 -12307616.76149  -8989833.00849  22448227.8524   22448230.3454   22448228.9034
       225.0004        162.0004
 -20204275.79549 -15731942.55649  20604359.0404   20604362.1514   20604358.4084
       240.0004        197.0004
   1028562.88549   1079594.89249  24264130.6734   24264133.5534   24264129.8804
       210.0004        137.0004
 -15399715.90549 -11981920.92149  22000289.7204   22000290.4034   22000289.6974
       230.0004        175.0004
   1376582.62749   1299316.40749  24395721.6354   24395722.6514   24395719.3414
       209.0004        140.0004
 11 10 11  0 12  0.0000000  0  9G05G26G07G08G13G10G04G02G16
 -15747224.09549 -12256299.97349  21586251.1284   21586253.3444   21586251.8164
       235.0004        191.0004
  -4482314.41749  -2662854.41149  23573012.4364   23573015.2934   23573013.0094
       211.0004        144.0004
 -22076528.77949 -16905469.24449  20570483.2984   20570485.1974   20570484.1864
       240.0004        204.0004
 -21041901.65249 -16383539.92749  21134595.4144   21134597.7724   21134594.7364
       241.0004        196.0004
 -12220441.96549  -8921904.61149  22464816.1634   22464819.7194   22464817.1104
       225.0004        162.0004
 -20154358.20949 -15693045.74649  20613858.7974   20613860.7904   20613857.9374
       240.0004        198.0004
   1137988.61749   1164861.71249  24284949.7344   24284953.0054   24284951.8884
       204.0004        133.0004
 -15341184.27549 -11936311.89549  22011428.3994   22011428.5074   22011428.3874
       229.0004        176.0004
   1428493.69249   1339766.56549  24405600.2974   24405601.7394   24405599.0934
       210.0004        141.0004
 11 10 11  0 12 30.0000000  0  9G05G26G07G08G13G10G04G02G16
 -15814341.12449 -12308598.93949  21573479.2044   21573481.4604   21573479.6064
       235.0004        192.0004
  -4589535.30749  -2746403.08049  23552610.1024   23552613.2034   23552609.0014
       213.0004        147.0004
 -22069914.68349 -16900315.40049  20571742.3764   20571744.6324   20571742.0394
       239.0004        204.0004
 -21100295.79149 -16429041.83649  21123481.7354   21123485.5974   21123482.3414
       240.0004        196.0004
 -12133092.39449  -8853840.02749  22481437.7694   22481442.6164   22481438.4204
       223.0004        162.0004
 -20103973.62849 -15653785.04449  20623445.5214   20623449.0454   20623445.0634
       239.0004        198.0004
   1247466.43349   1250169.11449  24305783.5204   24305789.9214   24305783.8604
       207.0004        143.0004
 -15282150.45249 -11890311.55049  22022662.6324   22022662.4214   22022662.1654
       230.0004        176.0004
   1480932.09149   1380627.65449  24415578.4134   24415580.3334   24415579.4614
       213.0004        143.0004
 11 10 11  0 13  0.0000000  0  9G05G26G07G08G13G10G04G02G16
 -15881088.00749 -12360609.49449  21560777.6874   21560780.2494   21560778.2954
       235.0004        193.0004
  -4696608.33449  -2829836.57049  23532234.0214   23532236.8774   23532234.6354
       215.0004        146.0004
 -22062740.03849 -16894724.76849  20573107.1384   20573109.1844   20573107.8244
       241.0004        204.0004
 -21158218.29649 -16474176.23549  21112460.7184   21112463.0444   21112459.8304
       241.0004        196.0004
 -12045569.20949  -8785640.15249  22498094.5784   22498097.6704   22498095.0254
       226.0004        162.0004
 -20053123.20849 -15614161.35049  20633122.8394   20633125.5154   20633121.6934
       240.0004        197.0004
   1356993.37149   1335514.72449  24326624.9644   24326630.4164   24326624.9814
       202.0004        140.0004
 -15222616.82549 -11843921.73749  22033990.8514   22033991.2104   22033990.8324
       228.0004        175.0004
   1533896.09849   1421898.30949  24425657.0954   24425659.5124   24425657.1394
       209.0004        144.0004
 11 10 11  0 13 30.0000000  0  9G05G26G07G08G13G10G04G02G16
 -15947462.65449 -12412329.98649  21548146.7594   21548150.0974   21548147.8164
       235.0004        194.0004
  -4803532.24949  -2913153.91549  23511886.5824   23511890.1564   23511887.3794
       210.0004        145.0004
 -22055005.72449 -16888698.01749  20574578.3704   20574580.8884   20574578.8224
       239.0004        203.0004
 -21215667.65949 -16518941.95249  21101527.4794   21101531.0284   21101527.2864
       240.0004        196.0004
 -11957873.80849  -8717306.08649  22514782.4994   22514784.2124   22514782.4884
       226.0004        161.0004
 -20001807.56149 -15574175.14849  20642887.3094   20642890.6354   20642886.6504
       239.0004        197.0004
   1466566.78249   1420896.53349  24347476.3184   24347478.9864   24347478.4734
       205.0004        134.0004
 -15162585.58949 -11797144.14349  22045414.5224   22045415.6154   22045413.7644
       230.0004        175.0004
   1587383.62749   1463576.89249  24435835.4314   24435837.5014   24435835.0824
       212.0004        142.0004
 11 10 11  0 14  0.0000000  0  9G05G26G07G08G13G10G04G02G16
 -16013462.46649 -12463758.39349  21535587.6764   21535590.2964   21535588.3914
       236.0004        193.0004
  -4910305.32849  -2996353.59249  23491568.8434   23491572.4664   23491568.6964
       214.0004        147.0004
 -22046712.27649 -16882235.58049  20576157.7974   20576159.5904   20576157.8804
       241.0004        204.0004
 -21272642.27749 -16563337.73749  21090685.4004   21090688.8704   21090685.3974
       239.0004        196.0004
 -11870006.87149  -8648838.34349  22531501.5814   22531504.7164   22531502.4374
       225.0004        162.0004
 -19950026.91949 -15533826.62549  20652740.7724   20652743.6094   20652740.3784
       238.0004        197.0004
   1576184.43849   1506312.97349  24368335.6674   24368342.3664   24368336.9104
       205.0004        137.0004
 -15102058.91549 -11749980.48949  22056932.1074   22056933.8544   22056932.2574
       229.0004        173.0004
   1641393.65649   1505662.59949  24446113.9984   24446114.0354   24446113.7414
       212.0004        141.0004
 11 10 11  0 14 30.0000000  0  9G05G26G07G08G13G10G04G02G16
 -16079085.39049 -12514893.12849  21523100.2244   21523102.4904   21523100.7984
       237.0004        193.0004
  -5016926.66749  -3079435.11449  23471278.4834   23471283.1394   23471280.0434
       210.0004        148.0004
 -22037860.25549 -16875337.88549  20577841.2904   20577843.6914   20577842.0814
       240.0004        204.0004
 -21329141.01949 -16607362.70449  21079934.4504   21079937.6554   21079934.7134
       240.0004        196.0004
 -11781969.78449  -8580238.03749  22548255.3934   22548256.6604   22548254.7174
       226.0004        161.0004
 -19897782.75749 -15493116.89549  20662682.4774   20662686.0004   20662682.0844
       239.0004        196.0004
   1685843.60749   1591761.65649  24389205.0164   24389209.6654   24389206.1814
       200.0004        137.0004
 -15041039.47849 -11702432.88749  22068544.2834   22068544.4854   22068543.7384
       229.0004        176.0004
   1695924.03949   1548153.79449  24456490.8334   24456491.5624   24456490.3054
       214.0004        142.0004
 11 10 11  0 15  0.0000000  0  9G05G26G07G08G13G10G04G02G16
 -16144330.01049 -12565733.08249  21510684.9754   21510686.8444   21510684.9294
       237.0004        193.0004
  -5123394.86349  -3162397.28449  23451017.8974   23451021.6384   23451018.8014
       208.0004        143.0004
 -22028451.12749 -16868006.08649  20579632.5324   20579634.6174   20579632.7794
       240.0004        204.0004
 -21385162.73249 -16651015.95949  21069274.2744   21069276.9544   21069273.5744
       241.0004        197.0004
 -11693763.79749  -8511506.09949  22565040.9224   22565043.1524   22565040.3924
       226.0004        164.0004
 -19845075.86949 -15452046.62149  20672712.4774   20672715.5894   20672711.6194
       239.0004        196.0004
   1795541.38949   1677240.35349  24410078.3984   24410084.0374   24410079.0664
       205.0004        139.0004
 -14979529.52249 -11654503.08049  22080249.4414   22080249.8634   22080248.9064
       228.0004        174.0004
   1750972.66949   1591048.82149  24466964.7824   24466967.2484   24466965.6514
       209.0004        141.0004
 11 10 11  0 15 30.0000000  0  9G05G26G07G08G13G10G04G02G16
 -16209194.27949 -12616276.64949  21498340.4474   21498344.2334   21498340.9504
       235.0004        194.0004
  -5229708.97849  -3245239.42349  23430789.3634   23430790.4214   23430789.6194
       213.0004        147.0004
 -22018485.51149 -16860240.66449  20581528.2134   20581530.7194   20581528.5824
       239.0004        203.0004
 -21440706.53249 -16694296.81849  21058704.3894   21058707.0724   21058703.7154
       241.0004        197.0004
 -11605390.38549  -8442643.70349  22581857.1134   22581860.2994   22581857.3084
       226.0004        162.0004
 -19791907.52549 -15410616.77949  20682830.1694   20682832.9084   20682829.4234
       238.0004        196.0004
   1905274.64849   1762746.80949  24430962.8794   24430964.9114   24430961.1214
       209.0004        138.0004
 -14917531.97849 -11606193.32949  22092046.3134   22092047.6404   22092046.5094
       229.0004        175.0004
   1806537.33549   1634345.96449  24477539.3884   24477540.3484   24477538.3624
       211.0004        142.0004
 11 10 11  0 16  0.0000000  0  9G05G26G07G08G13G10G04G02G16
 -16273675.39349 -12666521.66649  21486071.3844   21486073.3224   21486071.6914
       238.0004        195.0004
  -5335867.38449  -3327960.20349  23410587.7634   23410590.7794   23410586.7634
       214.0004        148.0004
 -22007963.61849 -16852041.78049  20583530.9354   20583533.0134   20583531.0374
       239.0004        204.0004
 -21495770.41649 -16737203.71549  21048225.1164   21048229.2384   21048225.4954
       241.0004        197.0004
 -11516850.37249  -8373651.48849  22598705.6004   22598708.8034   22598705.8794
       225.0004        161.0004
 -19738278.22549 -15368827.73849  20693035.7404   20693038.6194   20693034.4164
       241.0004        195.0004
   2015041.38949   1848279.37849  24451850.4134   24451853.5614   24451847.8214
       202.0004        133.0004
 -14855048.54249 -11557504.97649  22103937.2884   22103937.6304   22103937.5844
       228.0004        174.0004
   1862616.81849   1678044.28749  24488210.5184   24488212.1494   24488210.0644
       210.0004        140.0004
 11 10 11  0 16 30.0000000  0  9G05G26G07G08G13G10G04G02G16
 -16337772.02149 -12716467.10149  21473874.1974   21473876.3144   21473874.6734
       238.0004        195.0004
  -5441869.03349  -3410558.81449  23390415.3504   23390419.7134   23390414.4664
       212.0004        148.0004
 -21996887.35249 -16843410.92349  20585638.4754   20585640.7394   20585638.8764
       240.0004        204.0004
 -21550353.82149 -16779736.22349  21037838.7954   21037842.3554   21037838.9364
       241.0004        197.0004
 -11428145.12449  -8304530.53349  22615586.6624   22615589.1584   22615586.8594
       225.0004        161.0004
 -19684189.32049 -15326680.58649  20703328.1434   20703331.3654   20703327.7164
       241.0004        196.0004
   2124838.58349   1933835.53649  24472743.0474   24472746.1184   24472743.0004
       208.0004        138.0004
 -14792081.87249 -11508440.05749  22115918.0434   22115919.3854   22115918.3964
       226.0004        172.0004
   1919208.92149   1722142.01649  24498979.2254   24498981.4054   24498979.9794
       211.0004        141.0004
 11 10 11  0 17  0.0000000  0  9G05G26G07G08G13G10G04G02G16
 -16401481.44449 -12766110.80349  21461750.0724   21461752.5364   21461750.6434
       236.0004        194.0004
  -5547712.28249  -3493034.02349  23370273.7224   23370276.6724   23370274.7884
       212.0004        146.0004
 -21985256.42249 -16834347.84649  20587851.3394   20587854.2064   20587852.2504
       239.0004        204.0004
 -21604455.36849 -16821893.24049  21027544.3824   21027546.9324   21027543.5104
       242.0004        197.0004
 -11339275.59649  -8235281.57249  22632497.8284   22632498.9724   22632498.7904
       224.0004        160.0004
 -19629641.53949 -15284175.85649  20713708.8154   20713711.5934   20713708.3284
       241.0004        195.0004
   2234663.75749   2019413.59149  24493642.3194   24493645.4134   24493641.2794
       207.0004        138.0004
 -14728634.49949 -11459000.59049  22127993.8374   22127993.1644   22127993.0084
       230.0004        174.0004
   1976311.88649   1766637.82349  24509846.2984   24509847.6044   24509847.2594
       211.0004        138.0004
 11 10 11  0 17 30.0000000  0  9G05G26G07G08G13G10G04G02G16
 -16464802.18249 -12815451.64349  21449701.2794   21449703.0464   21449701.8444
       239.0004        196.0004
  -5653396.48749  -3575385.37849  23350162.6174   23350163.9114   23350162.3154
       212.0004        144.0004
 -21973072.53449 -16824853.89949  20590170.4004   20590172.4234   20590170.6834
       240.0004        203.0004
 -21658074.19949 -16863674.12149  21017339.6944   21017343.5684   21017339.8504
       240.0004        197.0004
 -11250243.36549  -8165905.82349  22649439.3864   22649442.0124   22649440.3524
       226.0004        161.0004
 -19574636.06449 -15241314.47349  20724175.8204   20724178.8794   20724175.1024
       241.0004        195.0004
   2344513.87549   2105011.08549  24514546.6554   24514550.0204   24514547.3034
       202.0004        133.0004
 -14664709.52449 -11409188.97949  22140156.7634   22140157.3554   22140157.1664
       226.0004        174.0004
   2033923.17749   1811529.73349  24520809.5214   24520811.2514   24520809.8354
       209.0004        137.0004
 11 10 11  0 18  0.0000000  0  9G05G26G07G08G13G10G04G02G16
 -16527732.46849 -12864488.21649  21437726.1354   21437728.0014   21437726.1184
       238.0004        196.0004
  -5758920.37549  -3657611.71649  23330082.9914   23330085.7224   23330082.8574
       213.0004        150.0004
 -21960336.63449 -16814929.79849  20592593.8934   20592595.7914   20592594.2554
       240.0004        204.0004
 -21711209.08649 -16905077.90449  21007228.9694   21007232.8954   21007228.9394
       241.0004        198.0004
 -11161049.60949  -8096404.21549  22666413.2344   22666414.0174   22666412.9604
       224.0004        160.0004
 -19519174.38349 -15198097.59249  20734730.0894   20734732.6054   20734728.9684
       241.0004        195.0004
   2454386.23149   2190625.88449  24535453.0174   24535457.5074   24535453.9104
       203.0004        135.0004
 -14600309.24349 -11359006.99549  22152412.4704   22152413.2754   22152410.9494
       229.0004        173.0004
   2092040.79249   1856816.19249  24531868.2704   24531868.6154   24531867.9714
       206.0004        136.0004
 11 10 11  0 18 30.0000000  0  9G05G26G07G08G13G10G04G02G16
 -16590269.53149 -12913218.39349  21425825.1914   21425827.0894   21425825.5484
       238.0004        194.0004
  -5864281.93349  -3739711.49249  23310031.8954   23310036.6254   23310032.7734
       211.0004        150.0004
 -21947048.98749 -16804575.76949  20595122.1104   20595125.0914   20595123.0094
       239.0004        204.0004
 -21763858.21149 -16946103.18149  20997210.3554   20997213.9374   20997210.0324
       241.0004        198.0004
 -11071694.86349  -8026777.17349  22683415.7274   22683419.0054   22683415.6554
       223.0004        161.0004
 -19463256.45749 -15154525.17749  20745370.6614   20745373.5254   20745370.0324
       240.0004        195.0004
   2564278.56549   2276256.27349  24556365.7594   24556371.5344   24556367.8304
       208.0004        141.0004
 -14535435.43149 -11308456.07849  22164757.6544   22164758.9184   22164756.7674
       227.0004        174.0004
   2150663.93749   1902496.57549  24543023.8034   24543024.5104   24543025.4724
       208.0004        135.0004
 11 10 11  0 19  0.0000000  0  9G05G26G07G08G13G10G04G02G16
 -16652411.69049 -12961640.84849  21413999.6464   21414001.8834   21414000.6224
       239.0004        195.0004
  -5969480.50549  -3821684.38249  23290013.4704   23290017.1204   23290012.9934
       213.0004        146.0004
 -21933210.83049 -16793792.75249  20597756.0314   20597757.9854   20597756.3354
       240.0004        204.0004
 -21816020.96349 -16986749.46649  20987284.1654   20987287.5444   20987284.2754
       242.0004        198.0004
 -10982180.84349  -7957025.99749  22700449.9744   22700452.2984   22700448.6134
       223.0004        158.0004
 -19406883.89749 -15110598.51849  20756097.5164   20756100.7214   20756096.9184
       240.0004        194.0004
   2674187.90949   2361899.90149  24577279.8384   24577284.4154   24577281.5724
       198.0004        136.0004
 -14470091.27949 -11257538.63749  22177190.9704   22177193.1504   22177190.5034
       226.0004        172.0004
   2209789.39249   1948568.32949  24554274.7794   24554276.1064   24554274.0674
       203.0004        136.0004
 11 10 11  0 19 30.0000000  0  9G05G26G07G08G13G10G04G02G16
 -16714157.27749 -13009754.28849  21402250.2494   21402252.4844   21402250.9204
       239.0004        196.0004
  -6074514.94049  -3903529.38949  23270027.8234   23270028.8124   23270028.1984
       215.0004        149.0004
 -21918823.37349 -16782581.73949  20600493.5254   20600495.9384   20600493.9834
       240.0004        204.0004
 -21867696.64149 -17027016.20349  20977450.6214   20977453.9244   20977450.3254
       242.0004        198.0004
 -10892508.85749  -7887151.76549  22717514.5894   22717517.4894   22717514.1344
       222.0004        158.0004
 -19350058.18749 -15066318.75649  20766912.2664   20766914.5914   20766910.9174
       241.0004        194.0004
   2784111.44849   2447554.51649  24598198.4384   24598200.1204   24598200.6664
       207.0004        130.0004
 -14404279.47749 -11206256.82249  22189716.1284   22189716.0324   22189716.6344
       230.0004        172.0004
   2269415.23549   1995030.04649  24565621.8294   24565624.3864   24565623.6234
       208.0004        136.0004
 11 10 11  0 20  0.0000000  0  9G05G26G07G08G13G10G04G02G16
 -16775503.41549 -13057556.48049  21390576.8854   21390578.8964   21390577.4024
       239.0004        196.0004
  -6179383.29549  -3985244.92549  23250070.8744   23250074.9204   23250070.8784
       212.0004        148.0004
 -21903886.92849 -16770942.94949  20603335.8134   20603338.3884   20603336.4694
       240.0004        204.0004
 -21918883.39149 -17066901.96249  20967710.3854   20967713.2854   20967710.0644
       242.0004        198.0004
 -10802679.62249  -7817154.96549  22734607.3764   22734610.0344   22734608.5054
       221.0004        157.0004
 -19292779.81949 -15021686.28949  20777811.1274   20777814.7654   20777810.6754
       240.0004        195.0004
   2894047.17049   2533218.80249  24619119.5694   24619120.4684   24619119.1094
       211.0004        137.0004
 -14338001.77349 -11154611.91649  22202329.1214   22202329.8664   22202327.6754
       231.0004        172.0004
   2329539.92749   2041880.43349  24577064.3534   24577065.3504   24577061.8214
       208.0004        137.0004
 11 10 11  0 20 30.0000000  0  9G05G26G07G08G13G10G04G02G16
 -16836448.38549 -13105046.06549  21378978.7904   21378981.0604   21378979.5044
       238.0004        196.0004
  -6284084.53349  -4066830.18749  23230146.7664   23230150.4174   23230147.8964
       218.0004        153.0004
 -21888402.65549 -16758877.27949  20606282.8534   20606284.5444   20606282.8924
       240.0004        204.0004
 -21969580.36949 -17106406.06749  20958063.9484   20958065.8814   20958062.5064
       242.0004        199.0004
 -10712694.28549  -7747036.53949  22751731.5774   22751734.2664   22751731.8624
       222.0004        157.0004
 -19235049.79149 -14976701.88949  20788797.4024   20788800.0734   20788796.6574
       240.0004        195.0004
   3003992.31849   2618890.34649  24640038.5334   24640043.6374   24640040.6854
       201.0004        136.0004
 -14271261.01049 -11102606.17149  22215028.0134   22215030.0994   22215028.4424
       228.0004        173.0004
   2390161.60349   2089118.06949  24588600.0774   24588601.3324   24588601.1684
       205.0004        134.0004
 11 10 11  0 21  0.0000000  0  9G05G26G07G08G13G10G04G02G16
 -16896990.35249 -13152221.62349  21367457.5024   21367459.6554   21367458.7324
       238.0004        195.0004
  -6388617.25549  -4148284.19349  23210254.7194   23210258.5414   23210254.6714
       215.0004        152.0004
 -21872371.91049 -16746385.78749  20609332.9134   20609335.1864   20609333.4274
       240.0004        204.0004
 -22019786.35949 -17145527.58749  20948508.0434   20948511.9534   20948508.4114
       242.0004        198.0004
 -10622554.02249  -7676797.39249  22768885.0144   22768888.8244   22768884.9494
       221.0004        156.0004
 -19176869.10249 -14931366.32249  20799868.0194   20799871.4654   20799867.6324
       241.0004        195.0004
   3113944.15049   2704566.96849  24660962.9674   24660968.0404   24660962.6684
       202.0004        132.0004
 -14204060.20049 -11050241.95649  22227815.1054   22227817.4704   22227815.7184
       226.0004        173.0004
   2451278.07649   2136741.30349  24600228.4104   24600229.9424   24600232.5074
       205.0004        134.0004
 11 10 11  0 21 30.0000000  0  9G05G26G07G08G13G10G04G02G16
 -16957127.88249 -13199082.04649  21356014.8794   21356016.1304   21356015.0824
       239.0004        195.0004
  -6492981.31249  -4229606.81149  23190394.2744   23190395.9444   23190393.3964
       212.0004        145.0004
 -21855796.28149 -16733469.71649  20612487.0914   20612489.5214   20612487.9254
       240.0004        204.0004
 -22069501.07449 -17184266.30449  20939049.4054   20939051.6844   20939048.6144
       243.0004        199.0004
 -10532260.72249  -7606439.00449  22786066.3044   22786070.4834   22786067.4384
       221.0004        155.0004
 -19118239.81949 -14885681.22149  20811025.3654   20811028.4854   20811024.7134
       241.0004        195.0004
   3223899.11749   2790246.13449  24681887.7754   24681886.7784   24681890.4084
       210.0004        132.0004
 -14136402.22449 -10997521.53349  22240691.7544   22240692.0224   22240691.9514
       229.0004        173.0004
   2512886.22749   2184747.65449  24611952.6714   24611954.6244   24611954.1234
       203.0004        132.0004
 11 10 11  0 22  0.0000000  0  9G05G26G07G08G13G10G04G02G16
 -17016857.77949 -13245624.81549  21344647.4764   21344650.5984   21344648.0984
       237.0004        195.0004
  -6597173.94649  -4310795.80749  23170568.7924   23170570.0234   23170568.0254
       217.0004        150.0004
 -21838675.63249 -16720128.94249  20615745.2804   20615747.3604   20615745.5484
       240.0004        204.0004
 -22118722.52549 -17222620.65449  20929681.5974   20929684.7804   20929681.8424
       242.0004        199.0004
 -10441814.54449  -7535961.46749  22803278.2754   22803281.4294   22803279.6054
       223.0004        156.0004
 -19059161.98349 -14839646.56249  20822266.7184   20822270.3284   20822266.2114
       240.0004        194.0004
   3333855.78749   2875926.82449  24702810.2414   24702813.1054   24702810.1944
       194.0004        131.0004
 -14068288.94749 -10944446.26349  22253652.2794   22253653.6444   22253652.1724
       227.0004        172.0004
   2574985.14049   2233136.37649  24623770.3454   24623771.4084   24623769.0354
       200.0004        130.0004
 11 10 11  0 22 30.0000000  0  9G05G26G07G08G13G10G04G02G16
 -17076178.31049 -13291848.60449  21333360.2154   21333362.5444   21333360.4074
       240.0004        196.0004
  -6701194.18249  -4391850.45849  23150770.9054   23150776.3814   23150772.9314
       212.0004        151.0004
 -21821010.87549 -16706364.19349  20619106.6424   20619108.8174   20619106.8924
       240.0004        204.0004
 -22167449.63249 -17260589.81049  20920410.0804   20920412.5434   20920408.9654
       243.0004        199.0004
 -10351216.59749  -7465365.68949  22820518.7044   22820521.6584   22820520.5384
       222.0004        157.0004
 -18999636.69549 -14793263.24149  20833595.0264   20833597.7064   20833594.3274
       242.0004        195.0004
   3443811.70549   2961606.61749  24723732.6374   24723743.7704   24723734.0404
       200.0004        134.0004
 -13999722.81449 -10891018.12549  22266700.8984   22266700.5784   22266701.5964
       228.0004        170.0004
   2637572.75449   2281905.94049  24635679.0754   24635678.7564   24635678.9904
       201.0004        130.0004
 11 10 11  0 23  0.0000000  0  9G05G26G07G08G13G10G04G02G16
 -17135087.75049 -13337752.07149  21322150.0084   21322151.9234   21322150.3304
       239.0004        195.0004
  -6805040.86349  -4472769.86549  23131010.4144   23131015.0414   23131011.5424
       215.0004        151.0004
 -21802803.59149 -16692176.69149  20622571.2894   20622573.7984   20622571.6584
       240.0004        204.0004
 -22215681.59149 -17298173.15049  20911230.6974   20911234.5634   20911230.9204
       242.0004        199.0004
 -10260468.59949  -7394652.96649  22837787.7314   22837789.5154   22837787.9764
       222.0004        158.0004
 -18939665.25049 -14746532.24949  20845006.8284   20845010.0904   20845006.0554
       241.0004        195.0004
   3553763.41149   3047283.17249  24744659.0884   24744662.3114   24744659.9574
       209.0004        138.0004
 -13930706.96749 -10837239.55749  22279833.7564   22279834.2264   22279834.0154
       226.0004        170.0004
   2700646.65349   2331054.45349  24647682.2554   24647683.3354   24647681.6514
       201.0004        130.0004
 11 10 11  0 23 30.0000000  0  9G05G26G07G08G13G10G04G02G16
 -17193584.43249 -13383333.90449  21311018.6144   21311019.8944   21311018.3274
       239.0004        196.0004
  -6908713.24649  -4553553.50549  23111282.9384   23111285.8094   23111283.4894
       215.0004        149.0004
 -21784055.58149 -16677567.84449  20626139.1214   20626141.1924   20626139.4854
       240.0004        204.0004
 -22263417.94649 -17335370.28949  20902148.1414   20902150.5134   20902147.3464
       244.0004        199.0004
 -10169571.41849  -7323824.03349  22855085.5374   22855085.6614   22855084.0844
       222.0004        156.0004
 -18879249.44849 -14699455.00649  20856503.3784   20856506.7564   20856502.8534
       242.0004        195.0004
   3663708.29849   3132954.58349  24765581.0574   24765582.6454   24765582.1744
       202.0004        127.0004
 -13861244.38249 -10783112.89749  22293052.5384   22293054.1674   22293052.7344
       227.0004        171.0004
   2764204.28549   2380579.84649  24659776.3264   24659776.3504   24659775.6404
       198.0004        131.0004
 11 10 11  0 24  0.0000000  0  9G05G26G07G08G13G10G04G02G16
 -17251666.28649 -13428592.48549  21299964.9374   21299968.1034   21299965.3324
       237.0004        196.0004
  -7012209.70249  -4634200.05749  23091588.2574   23091590.9454   23091589.0644
       216.0004        151.0004
 -21764767.20449 -16662537.93449  20629809.3284   20629811.6174   20629809.8174
       240.0004        204.0004
 -22310657.83949 -17372180.57349  20893157.7364   20893160.9974   20893157.1594
       243.0004        200.0004
 -10078526.54949  -7252879.98649  22872410.4104   22872411.4894   22872410.8864
       224.0004        159.0004
 -18818390.26149 -14652032.29049  20868085.8844   20868087.9144   20868084.4274
       241.0004        195.0004
   3773644.27949   3218619.07149  24786497.9114   24786509.2614   24786499.6524
       196.0004        129.0004
 -13791337.62749 -10728640.12049  22306354.4114   22306356.7284   22306355.2454
       227.0004        172.0004
   2828243.79149   2430480.76349  24671964.0244   24671966.3624   24671962.4204
       200.0004        131.0004
 11 10 11  0 24 30.0000000  0  9G05G26G07G08G13G10G04G02G16
 -17309330.90549 -13473525.95649  21288992.0994   21288994.9774   21288993.0024
       238.0004        197.0004
  -7115528.75849  -4714708.33649  23071927.4564   23071931.1624   23071927.0474
       215.0004        154.0004
 -21744939.60149 -16647087.84049  20633582.7704   20633584.4054   20633582.9714
       240.0004        204.0004
 -22357399.82049 -17408602.86749  20884263.2954   20884266.6534   20884262.9544
       243.0004        200.0004
  -9987334.68649  -7181821.41949  22889762.8544   22889766.1844   22889763.6944
       222.0004        160.0004
 -18757088.37949 -14604264.59749  20879749.7554   20879753.3974   20879748.7874
       240.0004        194.0004
   3883568.20449   3304273.90949  24807416.3384   24807423.7564   24807418.8624
       205.0004        142.0004
 -13720989.01949 -10673823.04649  22319741.7904   22319742.8144   22319741.3864
       228.0004        171.0004
   2892762.90449   2480755.40349  24684242.1634   24684242.9254   24684239.9584
       202.0004        132.0004
 11 10 11  0 25  0.0000000  0  9G05G26G07G08G13G10G04G02G16
 -17366576.22349 -13518132.70649  21278099.0434   21278101.3644   21278099.3294
       236.0004        197.0004
  -7218669.21849  -4795077.46049  23052299.3404   23052302.5794   23052300.1794
       215.0004        151.0004
 -21724573.46649 -16631218.12249  20637457.4994   20637460.5144   20637458.5694
       239.0004        204.0004
 -22403642.95049 -17444636.45449  20875463.4594   20875466.4244   20875462.7464
       243.0004        200.0004
  -9895996.66149  -7110648.94349  22907145.2514   22907146.0074   22907145.4434
       222.0004        157.0004
 -18695344.82449 -14556152.74949  20891499.9774   20891502.7974   20891499.1524
       241.0004        195.0004
   3993478.10549   3389917.98349  24828331.5734   24828336.0104   24828330.4324
       193.0004        132.0004
 -13650201.39849 -10618663.88349  22333210.2304   22333213.9964   22333210.9134
       222.0004        168.0004
   2957759.58249   2531402.17149  24696609.1104   24696611.7434   24696609.8874
       205.0004        132.0004
 11 10 11  0 25 30.0000000  0  9G05G26G07G08G13G10G04G02G16
 -17423401.05449 -13562411.78449  21267284.8524   21267287.3144   21267285.5404
       236.0004        196.0004
  -7321630.25549  -4875306.80349  23032708.2874   23032709.9304   23032707.8414
       216.0004        152.0004
 -21703670.76349 -16614930.29449  20641435.8484   20641437.9324   20641436.0214
       240.0004        204.0004
 -22449386.96949 -17480281.12249  20866759.3164   20866761.4874   20866758.7774
       244.0004        201.0004
  -9804514.43749  -7039364.11349  22924552.1024   22924555.9204   22924552.6624
       220.0004        157.0004
 -18633161.80049 -14507698.43749  20903332.0744   20903335.8994   20903332.0234
       240.0004        195.0004
   4103370.82649   3475548.62049  24849238.9694   24849245.6094   24849244.6224
       192.0004        122.0004
 -13578977.72449 -10563164.94949  22346765.0724   22346767.5694   22346764.9804
       224.0004        166.0004
   3023231.37649   2582419.10149  24709069.0024   24709070.7894   24709068.7394
       206.0004        134.0004
 11 10 11  0 26  0.0000000  0  9G05G26G07G08G13G10G04G02G16
 -17479802.69249 -13606361.11649  21256552.6194   21256554.9814   21256553.2224
       239.0004        197.0004
  -7424409.90649  -4955394.76149  23013148.9964   23013151.0624   23013148.2274
       214.0004        151.0004
 -21682232.06149 -16598224.80149  20645515.1244   20645517.7794   20645515.8244
       240.0004        204.0004
 -22494630.01449 -17515535.41849  20858148.7624   20858152.2874   20858148.4564
       243.0004        200.0004
  -9712888.44749  -6967967.25049  22941988.6234   22941991.6804   22941988.1224
       222.0004        155.0004
 -18570539.56749 -14458901.90749  20915249.3464   20915252.3134   20915248.7904
       240.0004        194.0004
   4213244.11349   3561164.22949  24870153.8844   24870157.6894   24870154.2954
       204.0004        137.0004
 -13507320.56249 -10507328.22249  22360402.5504   22360402.1884   22360401.7734
       226.0004        169.0004
   3089176.36249   2633804.75349  24721616.6574   24721619.1774   24721616.7564
       205.0004        134.0004
 11 10 11  0 26 30.0000000  0  9G05G26G07G08G13G10G04G02G16
 -17535779.45649 -13649979.38149  21245901.0794   21245903.4394   21245901.4184
       238.0004        198.0004
  -7527007.21549  -5035340.68349  22993625.5954   22993627.5694   22993626.4074
       216.0004        153.0004
 -21660258.86349 -16581102.80949  20649696.6704   20649699.1364   20649696.8634
       240.0004        204.0004
 -22539371.63249 -17550398.99849  20849635.3004   20849638.4044   20849634.9564
       244.0004        200.0004
  -9621120.03049  -6896459.41049  22959451.4174   22959453.6474   22959451.3074
       221.0004        156.0004
 -18507479.68249 -14409764.34249  20927249.2804   20927252.3014   20927247.8664
       240.0004        194.0004
   4323095.08249   3646762.33349  24891057.7584   24891061.9794   24891055.8804
       199.0004        137.0004
 -13435232.65249 -10451155.85249  22374119.0174   22374120.6824   22374118.5314
       226.0004        170.0004
   3155592.29149   2685557.42149  24734254.9614   24734258.6414   24734255.1324
       204.0004        133.0004
 11 10 11  0 27  0.0000000  0  9G05G26G07G08G13G10G04G02G16
 -17591329.45649 -13693265.09049  21235329.9764   21235332.4644   21235329.9484
       237.0004        197.0004
  -7629420.88649  -5115143.49649  22974135.5384   22974140.0014   22974136.0554
       214.0004        153.0004
