     2.11           OBSERVATION DATA    G (GPS)             RINEX VERSION / TYPE
Linux 2.4.21-27.ELsmp|Opteron|gcc -static|Linux x86_64|=+   COMMENT
HEADER CHANGED BY EPN CB ON 2011-10-14                      COMMENT
TO BE CONFORM WITH THE INFORMATION IN                       COMMENT
ftp://epncb.oma.be/pub/station/log/brus.log                 COMMENT
                                                            COMMENT
teqc  2010Oct21                         20111014 00:01:18UTCPGM / RUN BY / DATE
teqc  2010Oct21                         20111014 00:01:02UTCCOMMENT
teqc  2010Oct21                         20111013 01:01:02UTCCOMMENT
BIT 2 OF LLI FLAGS DATA COLLECTED UNDER A/S CONDITION       COMMENT
BRUS                                                        MARKER NAME
13101M004                                                   MARKER NUMBER
Carine Bruyninx     ROB                                     OBSERVER / AGENCY
RT919994505         ASHTECH Z-XII3T     1L01-1D04           REC # / TYPE / VERS
CR519994604         ASH701945B_M    NONE                    ANT # / TYPE
  4027894.0130   307045.5980  4919474.9120                  APPROX POSITION XYZ
        3.9702        0.0000        0.0000                  ANTENNA: DELTA H/E/N
     1     1                                                WAVELENGTH FACT L1/2
     7    L1    L2    C1    P2    P1    S1    S2            # / TYPES OF OBSERV
    30.0000                                                 INTERVAL
 SNR is mapped to RINEX snr flag value [0-9]                COMMENT
  L1 & L2: min(max(int(snr_dBHz/6), 0), 9)                  COMMENT
pseudorange smoothing corrections not applied               COMMENT
COORDINATES IN ETRF2000                                     COMMENT
Forced Modulo Decimation to 30 seconds                      COMMENT
  2011    10    13     0     0    0.0000000     GPS         TIME OF FIRST OBS
                                                            END OF HEADER
 11 10 13  0  0  0.0000000  0  9G05G16G10G08G13G07G04G02G26
 -15875266.59449 -12354940.81049  21692455.9314   21692457.4604   21692455.9884
       235.0004        189.0004
    998599.54849    943561.96349  24338947.6244   24338950.4164   24338946.7474
       208.0004        140.0004
 -20482205.13549 -15948659.13749  20544848.4904   20544851.5794   20544847.8484
       242.0004        199.0004
 -19622014.19849 -15259510.00249  21225983.4014   21225988.0054   21225983.8004
       241.0004        195.0004
 -12956026.89349  -9792828.71549  22331369.1764   22331372.7854   22331369.7214
       228.0004        165.0004
 -22878897.09849 -17811150.56549  20565050.6364   20565052.8644   20565050.9874
       241.0004        204.0004
    168902.23649    650606.65349  24122676.9814   24122678.4344   24122678.1344
       215.0004        140.0004
 -15665526.56349 -11930893.88949  21930052.5104   21930053.5664   21930051.9334
       230.0004        178.0004
  -2917856.64549  -2252874.81749  23729075.4034   23729079.4164   23729074.0934
       210.0004        140.0004
 11 10 13  0  0 30.0000000  0  9G05G16G10G08G13G07G04G02G26
 -15945290.25949 -12409504.69749  21679130.0054   21679132.6474   21679130.3144
       235.0004        189.0004
   1047172.48149    981411.00249  24348189.4144   24348191.9074   24348190.0374
       206.0004        138.0004
 -20435336.25949 -15912137.94449  20553767.5424   20553770.1344   20553766.4884
       242.0004        199.0004
 -19684098.57249 -15307887.41449  21214170.5474   21214173.1514   21214170.1714
       242.0004        195.0004
 -12870135.33349  -9725900.25949  22347715.4414   22347716.4374   22347716.0864
       230.0004        165.0004
 -22876519.41949 -17809297.82049  20565502.8984   20565505.4344   20565503.3214
       240.0004        204.0004
    277899.47849    735539.61449  24143421.6214   24143422.6294   24143418.6064
       213.0004        141.0004
 -15610244.80249 -11887817.22049  21940573.2614   21940573.0154   21940572.6234
       231.0004        177.0004
  -3026163.65749  -2337269.91349  23708464.5654   23708470.1734   23708465.2234
       206.0004        142.0004
 11 10 13  0  1  0.0000000  0  9G05G16G10G08G13G07G04G02G26
 -16014960.18949 -12463792.94449  21665873.0934   21665876.0094   21665872.7224
       236.0004        191.0004
   1096283.39749   1019679.26049  24357535.4564   24357536.8684   24357534.9214
       209.0004        138.0004
 -20387994.89749 -15875248.58149  20562775.5914   20562778.8484   20562774.9834
       241.0004        199.0004
 -19745722.08849 -15355905.70649  21202443.3014   21202446.7214   21202442.6184
       241.0004        195.0004
 -12784060.79249  -9658829.21249  22364094.7384   22364096.2324   22364094.9624
       229.0004        166.0004
 -22873576.52849 -17807004.65249  20566063.2774   20566065.4304   20566063.4574
       242.0004        204.0004
    386967.38249    820527.48949  24164175.3454   24164179.6814   24164175.1304
       215.0004        145.0004
 -15554445.90349 -11844337.57349  21951190.0724   21951191.5014   21951189.2554
       227.0004        175.0004
  -3134332.40149  -2421557.14349  23687880.0924   23687885.9554   23687881.3424
       210.0004        142.0004
 11 10 13  0  1 30.0000000  0  9G05G16G10G08G13G07G04G02G26
 -16084274.03149 -12517803.71849  21652682.2124   21652685.6624   21652683.4004
       236.0004        191.0004
   1145931.13449   1058365.82449  24366982.1834   24366984.9304   24366983.0864
       210.0004        142.0004
 -20340181.49849 -15837991.40649  20571874.7104   20571877.6124   20571874.0444
       242.0004        198.0004
 -19806883.01449 -15403563.55149  21190804.4654   21190808.0034   21190804.6304
       242.0004        195.0004
 -12697803.32449  -9591615.60849  22380507.9384   22380510.4244   22380509.0884
       229.0004        166.0004
 -22870068.76349 -17804271.32549  20566729.9184   20566732.7674   20566730.7094
       240.0004        204.0004
    496103.11649    905568.27349  24184943.1954   24184945.6704   24184942.2964
       214.0004        143.0004
 -15498132.74249 -11800457.20449  21961906.4834   21961907.8844   21961905.3274
       228.0004        176.0004
  -3242361.09349  -2505735.32049  23667326.9994   23667327.9724   23667325.1394
       215.0004        144.0004
 11 10 13  0  2  0.0000000  0  9G05G16G10G08G13G07G04G02G26
 -16153230.23749 -12571535.82749  21639561.2604   21639562.8104   21639561.2834
       235.0004        190.0004
   1196113.67949   1097469.10449  24376532.7204   24376534.3954   24376533.8234
       211.0004        141.0004
 -20291897.24149 -15800367.31549  20581061.9034   20581065.7014   20581061.9344
       240.0004        198.0004
 -19867580.09949 -15450859.94349  21179254.7864   21179257.6474   21179253.9434
       242.0004        195.0004
 -12611364.71149  -9524260.86349  22396957.7414   22396959.2644   22396958.2004
       229.0004        164.0004
 -22865996.90649 -17801098.44049  20567505.9224   20567508.0034   20567505.9304
       241.0004        204.0004
    605303.84049    990659.79049  24205722.7894   24205724.1994   24205720.2954
       211.0004        135.0004
 -15441307.60449 -11756177.89349  21972719.6364   21972721.3614   21972720.3654
       230.0004        176.0004
  -3350249.02749  -2589803.79549  23646793.2174   23646797.2494   23646793.6334
       211.0004        143.0004
 11 10 13  0  2 30.0000000  0  9G05G16G10G08G13G07G04G02G26
 -16221826.30049 -12624987.30849  21626506.3894   21626509.6364   21626507.2574
       233.0004        190.0004
   1246829.35849   1136987.80849  24386184.3864   24386183.7154   24386183.5884
       212.0004        140.0004
 -20243142.78349 -15762376.84849  20590340.0154   20590343.2584   20590339.7114
       241.0004        198.0004
 -19927812.00149 -15497793.88149  21167791.8664   21167796.4884   21167792.4834
       241.0004        196.0004
 -12524745.97249  -9456765.76549  22413440.6634   22413442.7544   22413440.2474
       229.0004        163.0004
 -22861361.68349 -17797486.58249  20568387.2284   20568389.6204   20568387.6434
       240.0004        204.0004
    714567.16749   1075800.01849  24226513.1374   24226521.8544   24226514.2324
       213.0004        143.0004
 -15383971.96549 -11711500.79949  21983630.3044   21983631.3184   21983630.0254
       228.0004        176.0004
  -3457994.73349  -2673761.41749  23626289.5684   23626294.7744   23626289.7184
       208.0004        144.0004
 11 10 13  0  3  0.0000000  0  9G05G16G10G08G13G07G04G02G26
 -16290060.14149 -12678156.51749  21613522.5954   21613525.9424   21613523.3294
       234.0004        191.0004
   1298076.46449   1176920.63049  24395935.4314   24395936.6324   24395934.9014
       209.0004        141.0004
 -20193918.91149 -15724020.59849  20599707.4404   20599710.6714   20599706.7304
       241.0004        197.0004
 -19987576.95849 -15544363.94849  21156420.5904   21156423.4424   21156419.6024
       242.0004        196.0004
 -12437948.41049  -9389131.30849  22429957.1604   22429960.3014   22429957.7094
       226.0004        161.0004
 -22856163.53849 -17793436.07849  20569377.3284   20569379.1394   20569377.6164
       242.0004        205.0004
    823890.08149   1160986.64549  24247318.5624   24247322.9894   24247318.0444
       210.0004        144.0004
 -15326128.54149 -11666428.02249  21994636.9824   21994638.0144   21994637.4044
       228.0004        174.0004
  -3565596.73749  -2757607.07749  23605815.1584   23605818.8834   23605815.6774
       215.0004        146.0004
 11 10 13  0  3 30.0000000  0  9G05G16G10G08G13G07G04G02G26
 -16357930.03449 -12731042.14149  21600607.3804   21600610.8584   21600608.3704
       234.0004        193.0004
   1349852.79649   1217265.81049  24405789.8004   24405790.6504   24405788.8644
       211.0004        141.0004
 -20144227.12049 -15685299.72549  20609163.3794   20609166.4574   20609162.5104
       242.0004        198.0004
 -20046874.39849 -15590569.73149  21145135.1484   21145138.9794   21145135.0974
       241.0004        196.0004
 -12350974.00449  -9321359.07549  22446508.3544   22446510.2484   22446507.4634
       225.0004        161.0004
 -22850403.39249 -17788947.64949  20570472.7464   20570475.1304   20570473.4064
       241.0004        204.0004
    933269.67149   1246217.45549  24268132.1264   24268135.9734   24268126.7224
       204.0004        133.0004
 -15267780.09849 -11620961.72149  22005740.7924   22005742.3094   22005740.9184
       227.0004        175.0004
  -3673054.32849  -2841340.23549  23585365.7984   23585368.6184   23585365.4274
       215.0004        146.0004
 11 10 13  0  4  0.0000000  0  9G05G16G10G08G13G07G04G02G26
 -16425433.10449 -12783641.93049  21587761.8024   21587765.2804   21587761.8994
       233.0004        191.0004
   1402157.54649   1258022.75749  24415741.1444   24415744.8934   24415741.4404
       211.0004        144.0004
 -20094067.36849 -15646214.21549  20618708.2794   20618711.4274   20618707.9654
       241.0004        197.0004
 -20105702.07449 -15636409.45449  21133942.1204   21133944.5884   21133941.0664
       242.0004        196.0004
 -12263822.98649  -9253449.22749  22463091.6944   22463095.2614   22463091.3424
       226.0004        162.0004
 -22844081.33549 -17784021.35849  20571676.6924   20571678.1354   20571676.4114
       242.0004        204.0004
   1042703.77949   1331490.81049  24288954.8334   24288960.4864   24288954.2114
       203.0004        133.0004
 -15208928.28649 -11575103.17749  22016939.4144   22016941.4684   22016939.4864
       227.0004        175.0004
  -3780365.79849  -2924959.53449  23564942.8704   23564949.2484   23564944.9154
       209.0004        144.0004
 11 10 13  0  4 30.0000000  0  9G05G16G10G08G13G07G04G02G26
 -16492568.22249 -12835954.99549  21574985.9094   21574988.9864   21574987.1144
       235.0004        191.0004
   1454988.19549   1299189.52149  24425794.5554   24425797.3884   24425795.2544
       210.0004        142.0004
 -20043440.91549 -15606765.03649  20628342.0364   20628345.3214   20628341.7184
       241.0004        197.0004
 -20164059.17849 -15681882.50249  21122835.7764   21122839.3894   21122835.6294
       241.0004        196.0004
 -12176497.11849  -9185403.11649  22479709.0354   22479712.4334   22479709.3284
       225.0004        161.0004
 -22837198.93449 -17778658.44849  20572985.3064   20572987.8984   20572985.9084
       241.0004        204.0004
   1152189.14349   1416804.06849  24309789.3634   24309797.2594   24309790.5774
       206.0004        143.0004
 -15149575.60449 -11528854.36349  22028235.5104   22028235.6134   22028234.4584
       231.0004        175.0004
  -3887530.00849  -3008464.03749  23544550.6714   23544556.2414   23544551.3074
       209.0004        146.0004
 11 10 13  0  5  0.0000000  0  9G05G16G10G08G13G07G04G02G26
 -16559332.46049 -12887979.07249  21562281.5194   21562284.8264   21562282.0614
       234.0004        192.0004
   1508343.40149   1340765.01049  24435948.5094   24435950.1684   24435948.2484
       212.0004        142.0004
 -19992348.28149 -15566952.59949  20638065.3044   20638068.4064   20638064.5734
       241.0004        197.0004
 -20221944.02649 -15726987.54849  21111821.8704   21111824.3614   21111821.0244
       242.0004        196.0004
 -12088996.70649  -9117221.02049  22496361.5674   22496364.3014   22496360.5594
       226.0004        161.0004
 -22829755.84449 -17772858.62349  20574402.0314   20574403.9724   20574402.0404
       241.0004        204.0004
   1261723.83749   1502155.69049  24330630.3724   24330641.2054   24330631.7824
       200.0004        136.0004
 -15089724.14849 -11482216.87949  22039623.8504   22039625.1614   22039623.9954
       229.0004        174.0004
  -3994545.14049  -3091852.43849  23524187.0444   23524191.1154   23524188.2804
       211.0004        145.0004
 11 10 13  0  5 30.0000000  0  9G05G16G10G08G13G07G04G02G26
 -16625724.82949 -12939713.37549  21549647.4574   21549650.6294   21549648.0714
       235.0004        193.0004
   1562220.67949   1382747.28149  24446201.3864   24446200.7184   24446200.4624
       212.0004        141.0004
 -19940791.44449 -15526778.44549  20647875.4384   20647878.4954   20647875.0454
       240.0004        197.0004
 -20279356.15749 -15771724.24549  21100895.3424   21100899.1024   21100895.1384
       241.0004        196.0004
 -12001324.24949  -9048904.83449  22513044.6684   22513047.8394   22513044.7634
       224.0004        160.0004
 -22821753.67449 -17766623.16049  20575924.5014   20575927.0874   20575925.0034
       241.0004        204.0004
   1371304.04249   1587542.82549  24351485.7464   24351491.9174   24351487.1584
       208.0004        132.0004
 -15029377.07749 -11435193.21949  22051106.4314   22051108.1644   22051108.1184
       226.0004        173.0004
  -4101411.13749  -3175124.57049  23503850.7704   23503856.0394   23503852.2504
       210.0004        145.0004
 11 10 13  0  6  0.0000000  0  9G05G16G10G08G13G07G04G02G26
 -16691742.56349 -12991155.74949  21537085.0754   21537088.2444   21537085.1944
       235.0004        193.0004
   1616618.69049   1425135.33349  24456552.0574   24456554.0304   24456551.7694
       211.0004        141.0004
 -19888770.75549 -15486242.84949  20657774.7564   20657778.0814   20657774.1324
       240.0004        196.0004
 -20336293.98849 -15816091.37349  21090060.4874   21090064.4264   21090060.7224
       241.0004        196.0004
 -11913480.30249  -8980455.02349  22529759.0744   22529763.2394   22529759.8264
       223.0004        159.0004
 -22813193.24249 -17759952.68249  20577554.1374   20577556.0294   20577554.1014
       241.0004        204.0004
   1480927.52549   1672963.80349  24372345.4144   24372352.9774   24372344.9484
       201.0004        137.0004
 -14968536.27149 -11387784.80449  22062685.5364   22062686.5584   22062685.5294
       229.0004        174.0004
  -4208126.28049  -3258279.16649  23483545.5134   23483550.1244   23483546.1294
       213.0004        150.0004
 11 10 13  0  6 30.0000000  0  9G05G16G10G08G13G07G04G02G26
 -16757383.28049 -13042304.35649  21524593.8704   21524596.7204   21524594.8434
       236.0004        192.0004
   1671535.94249   1467927.98549  24467002.6794   24467004.1254   24467003.2944
       212.0004        142.0004
 -19836286.69349 -15445346.19449  20667762.2624   20667765.3714   20667761.6834
       240.0004        196.0004
 -20392755.73549 -15860087.51649  21079316.5014   21079319.8184   21079316.6264
       242.0004        197.0004
 -11825465.83949  -8911872.36849  22546509.3694   22546511.4954   22546509.0714
       226.0004        163.0004
 -22804074.20949 -17752846.94349  20579288.5824   20579291.1314   20579289.5564
       241.0004        204.0004
   1590591.96449   1758416.56149  24393214.7374   24393222.8294   24393214.5634
       203.0004        138.0004
 -14907203.96349 -11339993.41649  22074357.3524   22074357.2504   22074357.0644
       229.0004        174.0004
  -4314688.63849  -3341314.74249  23463265.1324   23463269.1064   23463265.4714
       208.0004        144.0004
 11 10 13  0  7  0.0000000  0  9G05G16G10G08G13G07G04G02G26
 -16822645.38449 -13093157.94149  21512175.1694   21512177.4884   21512175.8154
       235.0004        192.0004
   1726969.72349   1511123.11349  24477551.9224   24477553.2054   24477551.4914
       211.0004        141.0004
 -19783340.54249 -15404089.46049  20677838.4594   20677840.4624   20677837.0064
       241.0004        196.0004
 -20448740.41849 -15903711.92449  21068663.8174   21068666.5784   21068662.8114
       241.0004        197.0004
 -11737282.53049  -8843158.12949  22563290.8504   22563292.0184   22563290.8924
       226.0004        163.0004
 -22794398.37849 -17745307.32749  20581130.0764   20581132.4044   20581130.3904
       240.0004        204.0004
   1700294.38149   1843898.85049  24414091.8644   24414094.1364   24414092.1544
       206.0004        138.0004
 -14845382.86449 -11291821.13749  22086119.8644   22086121.6054   22086120.2604
       228.0004        173.0004
  -4421097.64649  -3424230.79449  23443014.4094   23443018.8764   23443017.2784
       208.0004        143.0004
 11 10 13  0  7 30.0000000  0  9G05G16G10G08G13G07G04G02G26
 -16887526.55749 -13143714.68649  21499827.5634   21499831.5534   21499828.4174
       235.0004        193.0004
   1782918.27349   1554719.38649  24488197.5344   24488199.6754   24488197.1704
       210.0004        141.0004
 -19729933.11249 -15362473.29649  20688000.3824   20688004.0324   20688000.1844
       241.0004        196.0004
 -20504247.06549 -15946963.83949  21058100.0084   21058103.7384   21058100.2514
       241.0004        197.0004
 -11648931.43949  -8774313.15449  22580102.0154   22580104.6394   22580102.5184
       225.0004        162.0004
 -22784166.17349 -17737334.17349  20583077.0904   20583079.3404   20583077.4074
       241.0004        203.0004
   1810031.96749   1929408.69949  24434975.7964   24434978.9904   24434976.5924
       211.0004        138.0004
 -14783075.14149 -11243269.69749  22097978.0934   22097978.7834   22097977.5154
       229.0004        173.0004
  -4527351.75149  -3507026.19449  23422797.6034   23422800.7884   23422798.2944
       212.0004        146.0004
 11 10 13  0  8  0.0000000  0  9G05G16G10G08G13G07G04G02G26
 -16952025.39249 -13193973.50949  21487555.0644   21487557.8904   21487555.4404
       237.0004        194.0004
   1839379.95149   1598715.47949  24498942.3944   24498944.8184   24498942.4444
       209.0004        141.0004
 -19676065.68049 -15320498.68049  20698251.1934   20698254.6154   20698250.7444
       240.0004        196.0004
 -20559274.73649 -15989842.52749  21047628.9974   21047632.3224   21047628.5894
       241.0004        197.0004
 -11560414.01349  -8705338.56449  22596946.8694   22596949.6454   22596945.9774
       226.0004        161.0004
 -22773379.14149 -17728928.69149  20585129.8464   20585132.6894   20585130.5114
       241.0004        204.0004
   1919801.88849   2014943.72549  24455864.0564   24455867.6874   24455862.5444
       205.0004        135.0004
 -14720283.80049 -11194341.41149  22109925.8744   22109927.7544   22109925.8814
       228.0004        172.0004
  -4633450.32849  -3589700.33849  23402609.9274   23402611.7074   23402607.9504
       213.0004        149.0004
 11 10 13  0  8 30.0000000  0  9G05G16G10G08G13G07G04G02G26
 -17016139.10749 -13243932.25049  21475356.0294   21475356.9174   21475355.3674
       238.0004        194.0004
   1896352.91449   1643109.99349  24509783.4254   24509782.9054   24509781.3614
       208.0004        139.0004
 -19621738.92949 -15278166.16449  20708589.2274   20708593.1924   20708588.7334
       241.0004        196.0004
 -20613821.57949 -16032346.53549  21037249.0234   21037252.5594   21037248.4504
       241.0004        197.0004
 -11471730.69249  -8636234.70549  22613823.7584   22613824.9214   22613823.9414
       226.0004        160.0004
 -22762036.99649 -17720090.64849  20587287.8464   20587290.6354   20587287.9664
       240.0004        203.0004
   2029602.09749   2100502.22549  24476758.2834   24476760.9924   24476758.8814
       209.0004        140.0004
 -14657010.56549 -11145037.60849  22121967.4774   22121967.9874   22121966.4264
       229.0004        173.0004
  -4739391.25349  -3672251.61949  23382447.6614   23382452.8164   23382447.2854
       211.0004        148.0004
 11 10 13  0  9  0.0000000  0  9G05G16G10G08G13G07G04G02G26
 -17079865.69849 -13293589.32549  21463227.5814   21463230.1004   21463227.7634
       237.0004        193.0004
   1953835.21149   1687901.38549  24520722.9454   24520723.7094   24520724.0674
       210.0004        138.0004
 -19566953.80049 -15235476.46949  20719014.6634   20719017.7764   20719014.1224
       241.0004        195.0004
 -20667886.26349 -16074474.84049  21026961.5054   21026963.9024   21026961.0474
       242.0004        197.0004
 -11382883.13549  -8567002.89149  22630730.5044   22630732.0094   22630730.7594
       227.0004        162.0004
 -22750140.93449 -17710820.98849  20589551.9004   20589554.3704   20589552.2774
       240.0004        203.0004
   2139429.56249   2186082.06549  24497659.2564   24497660.3604   24497659.2834
       212.0004        139.0004
 -14593258.14949 -11095360.41749  22134099.1574   22134099.8324   22134099.2474
       228.0004        173.0004
  -4845173.26249  -3754679.15549  23362318.5184   23362320.8444   23362319.0014
       213.0004        145.0004
 11 10 13  0  9 30.0000000  0  9G05G16G10G08G13G07G04G02G26
 -17143203.54449 -13342943.49049  21451175.3754   21451177.7504   21451175.8044
       238.0004        195.0004
   2011824.36949   1733087.76449  24531756.5964   24531762.0174   24531756.4484
       206.0004        139.0004
 -19511711.63849 -15192430.64249  20729526.3554   20729529.9014   20729526.5474
       240.0004        194.0004
 -20721468.44249 -16116227.16549  21016764.0864   21016768.1454   21016764.1404
       241.0004        197.0004
 -11293872.82649  -8497644.21149  22647668.8344   22647670.5734   22647668.7484
       227.0004        162.0004
 -22737692.66149 -17701121.02849  20591920.6854   20591923.0074   20591920.9474
       241.0004        203.0004
   2249281.40049   2271680.89049  24518562.3544   24518563.1894   24518561.0234
       205.0004        132.0004
 -14529029.64749 -11045312.23949  22146319.5834   22146322.0744   22146319.9554
       227.0004        173.0004
  -4950795.76049  -3836982.37849  23342221.8004   23342221.7114   23342220.4814
       215.0004        148.0004
 11 10 13  0 10  0.0000000  0  9G05G16G10G08G13G07G04G02G26
 -17206150.45249 -13391993.02449  21439197.2864   21439199.4034   21439197.2654
       239.0004        195.0004
   2070318.97749   1778667.97749  24542888.2474   24542890.9174   24542888.5224
       205.0004        136.0004
 -19456013.22449 -15149029.29649  20740125.8894   20740129.1614   20740125.5344
       241.0004        195.0004
 -20774565.87249 -16157601.76549  21006659.8334   21006663.9024   21006660.0614
       240.0004        197.0004
 -11204700.06549  -8428158.97749  22664637.3044   22664639.3384   22664637.3334
       225.0004        162.0004
 -22724692.47649 -17690991.00949  20594394.7444   20594397.1754   20594395.2214
       241.0004        204.0004
   2359155.28549   2357296.88049  24539468.6654   24539472.3374   24539471.3254
       210.0004        138.0004
 -14464327.01449 -10994894.64149  22158632.3624   22158634.7584   22158633.8824
       227.0004        172.0004
  -5056256.83349  -3919159.76249  23322151.1254   23322154.3534   23322150.5664
       213.0004        150.0004
 11 10 13  0 10 30.0000000  0  9G05G16G10G08G13G07G04G02G26
 -17268704.48749 -13440736.42649  21427293.1244   21427295.3844   21427293.3854
       238.0004        195.0004
   2129316.64149   1824640.17749  24554115.0854   24554117.1654   24554115.5424
       205.0004        135.0004
 -19399859.71849 -15105273.33349  20750811.4584   20750814.5324   20750810.8244
       241.0004        194.0004
 -20827178.25949 -16198598.40749  20996648.5074   20996652.3844   20996648.3964
       241.0004        198.0004
 -11115366.51549  -8358548.44449  22681635.9924   22681638.7994   22681636.7234
       223.0004        159.0004
 -22711141.01849 -17680431.43049  20596974.0004   20596975.7864   20596974.2184
       242.0004        204.0004
   2469048.11849   2442927.63949  24560382.4834   24560386.9184   24560383.2154
       210.0004        142.0004
 -14399153.00249 -10944109.71449  22171035.0504   22171037.3404   22171034.5824
       227.0004        173.0004
  -5161555.65949  -4001210.70749  23302110.3984   23302115.4404   23302112.0254
       212.0004        147.0004
 11 10 13  0 11  0.0000000  0  9G05G16G10G08G13G07G04G02G26
 -17330863.10649 -13489171.70849  21415464.5634   21415466.9954   21415465.0044
       238.0004        194.0004
   2188815.75149   1871003.11649  24565437.5684   24565440.6234   24565436.7924
       207.0004        136.0004
 -19343251.75049 -15061163.25049  20761583.8134   20761586.7744   20761582.9494
       241.0004        194.0004
 -20879304.49149 -16239216.23049  20986729.4834   20986732.6264   20986729.3974
       244.0004        198.0004
 -11025873.46649  -8288813.63449  22698666.5134   22698669.7314   22698667.0084
       222.0004        157.0004
 -22697039.52849 -17669443.24649  20599656.4624   20599659.1834   20599657.1324
       241.0004        204.0004
   2578957.84649   2528571.55649  24581293.9504   24581300.9404   24581294.1414
       200.0004        133.0004
 -14333509.80149 -10892959.19749  22183526.9394   22183528.3184   22183527.4314
       228.0004        173.0004
  -5266690.87449  -4083134.22049  23282107.3554   23282108.8104   23282107.7494
       217.0004        149.0004
 11 10 13  0 11 30.0000000  0  9G05G16G10G08G13G07G04G02G26
 -17392624.75649 -13537297.66649  21403711.5004   21403714.4834   21403712.1614
       238.0004        194.0004
   2248813.94449   1917754.95449  24576856.1414   24576855.0264   24576855.9004
       210.0004        136.0004
 -19286191.23249 -15016700.53649  20772442.6894   20772445.1204   20772441.9844
       241.0004        195.0004
 -20930943.36949 -16279454.29149  20976902.8994   20976905.9964   20976902.5914
       243.0004        198.0004
 -10936222.31949  -8218955.63049  22715727.2664   22715729.2214   22715728.3024
       223.0004        157.0004
 -22682388.78149 -17658027.08549  20602444.7244   20602447.6224   20602445.1964
       241.0004        204.0004
   2688881.40749   2614226.17849  24602214.0564   24602215.9824   24602214.6624
       208.0004        131.0004
 -14267400.29149 -10841445.30349  22196108.4194   22196109.7244   22196107.2074
       229.0004        172.0004
  -5371661.05149  -4164929.14849  23262132.3064   23262134.6394   23262131.6704
       215.0004        149.0004
 11 10 13  0 12  0.0000000  0  9G05G16G10G08G13G07G04G02G26
 -17453987.05749 -13585112.44549  21392035.5064   21392037.6714   21392035.7994
       238.0004        195.0004
   2309309.81449   1964894.56349  24588368.5554   24588368.6294   24588366.4164
       207.0004        135.0004
 -19228678.15249 -14971885.16249  20783386.4954   20783389.9494   20783386.3524
       241.0004        195.0004
 -20982093.22549 -16319311.30549  20967168.9334   20967172.5834   20967169.0894
       243.0004        198.0004
 -10846413.32349  -8148974.60349  22732816.8724   22732819.4164   22732817.0924
       222.0004        156.0004
 -22667189.52149 -17646183.50749  20605337.1724   20605339.5244   20605337.3614
       241.0004        203.0004
   2798816.52149   2699890.00949  24623134.9154   24623139.7624   24623135.4324
       210.0004        138.0004
 -14200826.57649 -10789569.70349  22208776.2724   22208777.4094   22208776.0414
       228.0004        172.0004
  -5476464.53949  -4246594.11649  23242186.9544   23242190.0094   23242186.3164
       212.0004        148.0004
 11 10 13  0 12 30.0000000  0  9G05G16G10G08G13G07G04G02G26
 -17514948.46449 -13632614.83149  21380434.3764   21380436.5844   21380434.6334
       237.0004        194.0004
   2370300.32949   2012419.60149  24599971.7664   24599976.1144   24599970.2604
       201.0004        132.0004
 -19170714.43749 -14926718.65049  20794416.5444   20794420.0694   20794415.9214
       241.0004        195.0004
 -21032753.69949 -16358786.97849  20957529.9164   20957532.0814   20957528.8894
       244.0004        198.0004
 -10756448.41949  -8078872.10449  22749937.1634   22749938.0264   22749936.9304
       224.0004        157.0004
 -22651443.43049 -17633913.82549  20608333.7694   20608336.1364   20608333.8254
       241.0004        203.0004
   2908759.81449   2785560.07249  24644052.7044   24644061.8384   24644051.5364
       195.0004        135.0004
 -14133792.10549 -10737335.07949  22221530.6944   22221533.1274   22221531.6824
       225.0004        171.0004
  -5581100.91349  -4328128.88549  23222276.6454   23222279.6774   23222276.4694
       216.0004        153.0004
 11 10 13  0 13  0.0000000  0  9G05G16G10G08G13G07G04G02G26
 -17575506.99049 -13679803.28149  21368910.0014   21368912.0614   21368910.5454
       237.0004        193.0004
   2431783.62249   2060328.70449  24611673.2934   24611676.9814   24611675.5204
       206.0004        132.0004
 -19112301.18949 -14881201.85449  20805532.3504   20805535.8494   20805531.9454
       242.0004        195.0004
 -21082923.80149 -16397880.55149  20947981.3074   20947984.9734   20947981.4244
       244.0004        198.0004
 -10666328.77449  -8008649.03149  22767085.0724   22767088.4614   22767086.3724
       221.0004        155.0004
 -22635151.39549 -17621218.73149  20611433.3744   20611436.2134   20611434.0024
       240.0004        204.0004
   3018709.00449   2871234.58749  24664979.0074   24664981.1474   24664978.5654
       207.0004        133.0004
 -14066299.24749 -10684743.27649  22234375.8064   22234378.0104   22234375.0984
       228.0004        174.0004
  -5685568.73349  -4409532.35649  23202395.3114   23202398.3374   23202395.3244
       212.0004        147.0004
 11 10 13  0 13 30.0000000  0  9G05G16G10G08G13G07G04G02G26
 -17635660.22949 -13726675.94949  21357464.4264   21357465.6714   21357464.3604
       238.0004        195.0004
   2493757.70249   2108620.17149  24623467.5384   24623468.9174   24623466.4314
       201.0004        130.0004
 -19053439.32149 -14835335.48149  20816733.5284   20816736.6954   20816732.8124
       241.0004        194.0004
 -21132602.20949 -16436590.98249  20938528.8844   20938531.8144   20938528.5444
       244.0004        199.0004
 -10576055.31949  -7938306.13749  22784262.7844   22784266.5494   22784263.9654
       219.0004        154.0004
 -22618314.44349 -17608099.02449  20614637.9904   20614640.0644   20614638.2734
       241.0004        204.0004
   3128661.24249   2956911.74149  24685901.5714   24685901.6864   24685899.7474
       210.0004        131.0004
 -13998350.51349 -10631796.23449  22247306.8234   22247307.2034   22247304.9554
       228.0004        173.0004
  -5789866.75949  -4490803.47649  23182547.2904   23182551.3204   23182547.9534
       214.0004        146.0004
 11 10 13  0 14  0.0000000  0  9G05G16G10G08G13G07G04G02G26
 -17695405.61649 -13773230.78349  21346093.8054   21346097.4914   21346094.4094
       236.0004        194.0004
   2556221.21549   2157292.99149  24635350.9334   24635352.9214   24635352.3834
       200.0004        128.0004
 -18994129.20149 -14789119.82349  20828019.0954   20828022.9604   20828019.1394
       242.0004        195.0004
 -21181786.97049 -16474916.74449  20929168.4214   20929171.8094   20929168.1284
       243.0004        198.0004
 -10485628.47649  -7867843.67249  22801472.1154   22801475.0554   22801472.6344
       222.0004        157.0004
 -22600932.66049 -17594554.76949  20617945.5694   20617947.8024   20617945.8554
       241.0004        204.0004
   3238615.09149   3042590.17549  24706821.0634   24706830.2614   24706826.0514
       193.0004        133.0004
 -13929947.70149 -10578495.35049  22260322.3104   22260322.8894   22260322.7344
       227.0004        170.0004
  -5893992.38849  -4571940.33149  23162734.2354   23162736.9054   23162734.5884
       215.0004        150.0004
 11 10 13  0 14 30.0000000  0  9G05G16G10G08G13G07G04G02G26
 -17754742.38749 -13819467.21349  21334802.7864   21334805.8964   21334803.8994
       238.0004        195.0004
   2619170.98249   2206344.79949  24647332.0714   24647332.0694   24647331.4924
       203.0004        129.0004
 -18934373.36449 -14742556.85449  20839391.0504   20839393.9964   20839390.2084
       242.0004        195.0004
 -21230478.56349 -16512858.22649  20919903.2374   20919906.1484   20919902.3654
       244.0004        198.0004
 -10395050.64649  -7797263.56549  22818707.2174   22818713.0044   22818707.1024
       220.0004        156.0004
 -22583008.23649 -17580587.68149  20621356.0724   20621358.7194   20621356.6234
       241.0004        204.0004
   3348566.51149   3128266.40549  24727747.5044   24727754.2124   24727747.5494
       205.0004        139.0004
 -13861094.80449 -10524843.77249  22273424.9514   22273426.0734   22273424.9164
       226.0004        170.0004
  -5997946.17849  -4652943.18649  23142952.8484   23142955.5674   23142953.7254
       217.0004        152.0004
 11 10 13  0 15  0.0000000  0  9G05G16G10G08G13G07G04G02G26
 -17813667.98349 -13865383.26549  21323590.5674   21323592.0814   21323590.3704
       238.0004        195.0004
   2682605.59849   2255774.32349  24659402.0034   24659405.5294   24659401.3304
       201.0004        130.0004
 -18874171.82249 -14695646.57749  20850846.2984   20850850.3014   20850846.5264
       241.0004        195.0004
 -21278675.23249 -16550414.06349  20910730.9424   20910734.9164   20910731.4374
       243.0004        199.0004
 -10304322.09049  -7726566.02249  22835973.0794   22835976.5634   22835973.8584
       223.0004        155.0004
 -22564541.62849 -17566198.11249  20624870.4484   20624872.4214   20624870.7184
       241.0004        204.0004
   3458513.31949   3213939.20449  24748668.6334   24748673.5964   24748669.9614
       206.0004        136.0004
 -13791793.58449 -10470842.83649  22286613.4924   22286614.7094   22286612.2314
       227.0004        170.0004
  -6101725.57049  -4733810.18349  23123204.4634   23123207.7324   23123203.4884
       214.0004        151.0004
 11 10 13  0 15 30.0000000  0  9G05G16G10G08G13G07G04G02G26
 -17872180.87549 -13910977.71949  21312454.7284   21312457.6134   21312455.3794
       237.0004        194.0004
   2746522.00749   2305579.27149  24671566.2214   24671566.9824   24671566.8724
       199.0004        129.0004
 -18813526.56449 -14648390.55349  20862387.7424   20862390.9544   20862386.9364
       244.0004        195.0004
 -21326376.40249 -16587583.78349  20901655.3574   20901657.2504   20901654.3894
       245.0004        200.0004
 -10213444.98249  -7655752.73149  22853268.0794   22853268.9934   22853267.2224
       225.0004        158.0004
 -22545534.53149 -17551387.38249  20628487.1814   20628489.7924   20628487.4184
       241.0004        204.0004
   3568452.80049   3299606.44949  24769592.0924   24769595.2704   24769589.6904
       198.0004        126.0004
 -13722047.27549 -10416495.10049  22299883.8884   22299885.8484   22299884.1574
       226.0004        171.0004
  -6205330.37149  -4814541.18449  23103487.6764   23103491.3024   23103489.0454
       214.0004        147.0004
 11 10 13  0 16  0.0000000  0  9G05G16G10G08G13G07G04G02G26
 -17930278.10149 -13956248.27549  21301398.9164   21301402.4964   21301399.5774
       236.0004        195.0004
   2810919.13049   2355758.85949  24683821.3804   24683822.2384   24683817.6204
       203.0004        131.0004
 -18752438.02149 -14600789.10649  20874012.1124   20874015.4564   20874011.4674
       242.0004        195.0004
 -21373580.38949 -16624366.08849  20892671.5384   20892674.6334   20892671.2634
       244.0004        199.0004
 -10122419.16249  -7584823.55249  22870588.9834   22870591.8314   22870588.3884
       223.0004        158.0004
 -22525987.36549 -17536155.81849  20632207.2814   20632209.3724   20632207.8604
       242.0004        204.0004
   3678382.85549   3385266.17649  24790507.8324   24790519.2144   24790510.3024
       201.0004        132.0004
 -13651858.25049 -10361802.37049  22313240.7084   22313242.2994   22313241.2284
       225.0004        171.0004
  -6308758.43149  -4895134.42649  23083807.4494   23083811.1124   23083806.9504
       217.0004        153.0004
 11 10 13  0 16 30.0000000  0  9G05G16G10G08G13G07G04G02G26
 -17987958.05849 -14001193.67749  21290423.4664   21290426.2694   21290423.9874
       237.0004        195.0004
   2875794.22749   2406310.89949  24696165.6054   24696167.2474   24696164.8284
       205.0004        133.0004
 -18690907.40049 -14552843.19249  20885720.9804   20885724.3674   20885720.1604
       242.0004        194.0004
 -21420286.70049 -16660760.59949  20883783.8944   20883786.7944   20883783.6264
       244.0004        200.0004
 -10031246.26449  -7513779.76749  22887938.5254   22887939.9864   22887938.3424
       226.0004        158.0004
 -22505901.52449 -17520504.50149  20636029.0264   20636031.6624   20636029.5344
       241.0004        204.0004
   3788300.51949   3470916.20549  24811425.4674   24811431.2314   24811428.3334
       207.0004        142.0004
 -13581229.12049 -10306766.71549  22326681.3244   22326683.3754   22326681.0294
       226.0004        169.0004
  -6412008.63049  -4975589.04749  23064158.2974   23064161.9114   23064157.7894
       215.0004        153.0004
 11 10 13  0 17  0.0000000  0  9G05G16G10G08G13G07G04G02G26
 -18045219.02449 -14045812.61649  21279527.9254   21279529.9354   21279527.6644
       237.0004        196.0004
   2941145.30549   2457233.73649  24708601.5214   24708604.4774   24708602.5244
       203.0004        135.0004
 -18628935.92049 -14504553.74749  20897514.2224   20897516.8434   20897513.5284
       242.0004        194.0004
 -21466494.50149 -16696766.65249  20874990.0804   20874994.0704   20874989.9104
       244.0004        200.0004
  -9939927.37449  -7442622.20549  22905317.2784   22905316.9064   22905317.8134
       225.0004        158.0004
 -22485278.17449 -17504434.35549  20639954.0304   20639956.3054   20639954.3684
       242.0004        204.0004
   3898203.23949   3556554.69949  24832335.8414   24832350.2224   24832339.0684
       190.0004        127.0004
 -13510162.92649 -10251390.47749  22340204.3074   22340205.8754   22340204.1324
       225.0004        166.0004
  -6515079.76749  -5055904.18549  23044545.1114   23044547.5584   23044545.9404
       217.0004        150.0004
 11 10 13  0 17 30.0000000  0  9G05G16G10G08G13G07G04G02G26
 -18102058.74249 -14090103.29049  21268710.1714   21268713.4544   21268710.5424
       237.0004        195.0004
   3006970.18249   2508525.80349  24721126.4814   24721128.2344   24721129.3154
       201.0004        132.0004
 -18566524.76849 -14455921.70249  20909390.5474   20909393.5964   20909389.9144
       242.0004        194.0004
 -21512202.42449 -16732383.20349  20866293.9504   20866296.1294   20866293.0444
       245.0004        200.0004
  -9848463.31549  -7371351.52849  22922720.1914   22922724.0264   22922720.2114
       222.0004        156.0004
 -22464118.16949 -17487946.03549  20643979.8684   20643982.8164   20643980.3854
       241.0004        204.0004
   4008088.66449   3642179.65849  24853250.5864   24853255.1074   24853252.4094
       202.0004        127.0004
 -13438662.04349 -10195675.52849  22353810.5994   22353811.7664   22353810.5934
       224.0004        166.0004
  -6617970.41949  -5136078.66249  23024964.5164   23024968.9314   23024965.2644
       216.0004        152.0004
 11 10 13  0 18  0.0000000  0  9G05G16G10G08G13G07G04G02G26
 -18158475.75249 -14134064.59049  21257974.7044   21257977.6414   21257975.3604
       238.0004        196.0004
   3073266.19549   2560185.02849  24733742.0994   24733744.7634   24733742.0054
       202.0004        131.0004
 -18503675.83949 -14406948.52449  20921350.0124   20921353.1904   20921349.3044
       242.0004        194.0004
 -21557410.25549 -16767610.06649  20857689.7244   20857692.6934   20857689.4644
       244.0004        200.0004
  -9756855.88549  -7299969.15449  22940152.0144   22940155.1574   22940153.1424
       222.0004        155.0004
 -22442423.41249 -17471041.02649  20648108.8354   20648110.8864   20648109.4464
       242.0004        204.0004
   4117953.22349   3727788.44549  24874156.4874   24874163.8094   24874157.7064
       205.0004        139.0004
 -13366729.63849 -10139624.31949  22367498.7374   22367500.3584   22367499.0614
       223.0004        169.0004
  -6720679.85749  -5216111.94049  23005418.9754   23005423.4954   23005420.5174
       216.0004        153.0004
 11 10 13  0 18 30.0000000  0  9G05G16G10G08G13G07G04G02G26
 -18214467.72149 -14177694.69349  21247321.1204   21247323.2974   21247320.9124
       238.0004        197.0004
   3140031.22849   2612209.71649  24746447.9444   24746447.9984   24746449.6774
       206.0004        132.0004
 -18440389.74649 -14357634.71049  20933393.2844   20933396.1524   20933392.2594
       242.0004        193.0004
 -21602116.49149 -16802446.07749  20849182.4624   20849185.9164   20849182.4044
       244.0004        200.0004
  -9665105.72249  -7228475.53649  22957613.6404   22957615.5894   22957613.2194
       222.0004        155.0004
 -22420194.55049 -17453719.82249  20652338.8484   20652341.0324   20652339.2684
       241.0004        203.0004
   4227795.34049   3813379.64349  24895060.8234   24895066.4294   24895059.0384
       197.0004        133.0004
 -13294367.96649 -10083238.62849  22381269.7074   22381271.1434   22381270.2354
       226.0004        169.0004
  -6823206.16449  -5296002.54649  22985911.6914   22985913.0444   22985911.2404
       216.0004        154.0004
 11 10 13  0 19  0.0000000  0  9G05G16G10G08G13G07G04G02G26
 -18270032.34849 -14220991.79549  21236746.2974   21236749.2684   21236746.8794
       238.0004        196.0004
   3207263.42649   2664598.39849  24759242.0674   24759243.8244   24759239.6084
       204.0004        133.0004
 -18376667.58749 -14307981.09949  20945518.2224   20945521.8054   20945517.9964
       241.0004        193.0004
 -21646320.23149 -16836890.53049  20840770.3214   20840774.1464   20840770.2384
       243.0004        200.0004
  -9573213.60249  -7156871.30849  22975097.5244   22975100.1994   22975098.3804
       219.0004        154.0004
 -22397432.50849 -17435983.16149  20656669.9634   20656673.0374   20656670.4764
       241.0004        204.0004
   4337612.57549   3898951.34949  24915954.5284   24915968.3034   24915954.5234
       200.0004        126.0004
 -13221579.87249 -10026520.67449  22395120.9234   22395121.4854   22395120.9964
       224.0004        167.0004
  -6925548.01349  -5375749.38649  22966434.8324   22966439.3594   22966435.1494
       218.0004        152.0004
 11 10 13  0 19 30.0000000  0  9G05G16G10G08G13G07G04G02G26
 -18325168.72049 -14263955.20249  21226254.7554   21226256.2204   21226254.8974
       238.0004        195.0004
   3274959.80549   2717348.76149  24772124.2004   24772126.3154   24772123.7594
       202.0004        130.0004
 -18312511.26049 -14257989.17849  20957727.2174   20957731.0934   20957726.7774
       241.0004        193.0004
 -21690021.59349 -16870943.52449  20832454.5234   20832458.0044   20832454.6014
       243.0004        200.0004
  -9481182.04349  -7085158.43049  22992611.8494   22992615.7054   22992611.6034
       221.0004        155.0004
 -22374139.58449 -17417832.83049  20661102.9014   20661104.5284   20661103.4214
       241.0004        203.0004
   4447401.17849   3984501.00549  24936847.3584   24936845.4294   24936846.8834
       207.0004        124.0004
 -13148368.56749  -9969472.92549  22409052.1434   22409052.2604   22409052.0854
       224.0004        165.0004
  -7027704.95649  -5455352.12949  22946995.3064   22946998.2834   22946994.9604
       217.0004        155.0004
 11 10 13  0 20  0.0000000  0  9G05G16G10G08G13G07G04G02G26
 -18379874.03649 -14306582.71749  21215844.1194   21215846.6124   21215845.0514
       239.0004        197.0004
   3343118.75049   2770459.61649  24785094.1194   24785095.7524   24785095.1434
       200.0004        130.0004
 -18247921.38849 -14207659.43149  20970018.7184   20970021.8564   20970018.1204
       241.0004        193.0004
 -21733218.88449 -16904603.73149  20824233.8754   20824237.7814   20824233.8504
       242.0004        200.0004
  -9389010.92749  -7013336.83549  23010153.0034   23010153.6434   23010151.5114
       222.0004        155.0004
 -22350316.17349 -17399269.12149  20665636.3254   20665638.5354   20665636.9954
       242.0004        204.0004
   4557159.50449   4070027.07349  24957735.2424   24957744.4854   24957735.2344
       199.0004        135.0004
 -13074736.45249  -9912097.27049  22423063.4974   22423064.6814   22423063.9954
       225.0004        167.0004
  -7129674.80949  -5534809.15149  22927591.3984   22927593.9024   22927590.5174
       217.0004        151.0004
 11 10 13  0 20 30.0000000  0  9G05G16G10G08G13G07G04G02G26
 -18434146.02549 -14348872.57349  21205517.2384   21205519.8144   21205517.4104
       239.0004        198.0004
   3411738.23949   2823929.35549  24798151.9154   24798154.2204   24798151.1584
       205.0004        132.0004
 -18182898.91249 -14156992.59049  20982391.5404   20982394.7764   20982390.8834
       240.0004        192.0004
 -21775910.89249 -16937870.21649  20816110.3504   20816113.7484   20816110.2134
       243.0004        200.0004
  -9296701.22049  -6941407.22749  23027717.2154   23027719.8984   23027718.5384
       223.0004        156.0004
 -22325962.88149 -17380292.52649  20670270.2624   20670272.6844   20670270.7994
       242.0004        204.0004
   4666885.59549   4155527.65349  24978613.7444   24978621.9424   24978616.2604
       200.0004        132.0004
 -13000686.19549  -9854395.78049  22437156.4604   22437157.0104   22437156.1664
       227.0004        167.0004
  -7231455.90449  -5614119.04049  22908221.3224   22908225.6514   22908220.8044
       214.0004        151.0004
 11 10 13  0 21  0.0000000  0  9G05G16G10G08G13G07G04G02G26
 -18487983.49149 -14390823.83149  21195271.9414   21195274.7004   21195271.8564
       239.0004        197.0004
   3480815.24049   2877755.53849  24811296.8764   24811301.5054   24811297.8914
       204.0004        133.0004
 -18117445.96349 -14105990.32049  20994847.7884   20994849.9284   20994846.9254
       239.0004        192.0004
 -21818097.85149 -16970743.14949  20808082.6854   20808085.8914   20808082.1214
       243.0004        200.0004
  -9204254.53349  -6869370.89249  23045309.1694   23045311.6964   23045309.9334
       222.0004        156.0004
 -22301081.95949 -17360904.78649  20675005.3504   20675006.8054   20675005.6904
       241.0004        203.0004
   4776575.61549   4241000.35949  24999491.0814   24999490.2474   24999492.5884
       213.0004        130.0004
 -12926221.16449  -9796371.11149  22451325.9384   22451327.2594   22451325.8764
       224.0004        167.0004
  -7333047.88949  -5693281.58149  22888890.7374   22888893.4784   22888889.3784
       219.0004        153.0004
 11 10 13  0 21 30.0000000  0  9G05G16G10G08G13G07G04G02G26
 -18541384.70649 -14432435.17449  21185110.5134   21185112.1144   21185111.0784
       240.0004        198.0004
   3550347.27249   2931936.27349  24824528.4064   24824530.2064   24824528.1074
       203.0004        134.0004
 -18051564.05949 -14054653.79349  21007384.0354   21007387.4974   21007383.3784
       238.0004        192.0004
 -21859779.05549 -17003221.99249  20800150.2244   20800153.8524   20800150.4514
       243.0004        200.0004
  -9111671.93649  -6797228.65649  23062928.3124   23062930.4644   23062928.3874
       221.0004        152.0004
 -22275675.42949 -17341107.48149  20679840.0744   20679842.1154   20679840.0364
       241.0004        203.0004
   4886227.10749   4326443.30349  25020358.3974   25020358.2844   25020356.7424
       201.0004        128.0004
 -12851344.19249  -9738025.46649  22465573.4234   22465575.0694   22465574.2324
       224.0004        167.0004
  -7434449.57449  -5772295.85349  22869593.3324   22869596.4174   22869594.7404
       217.0004        154.0004
 11 10 13  0 22  0.0000000  0  9G05G16G10G08G13G07G04G02G26
 -18594346.87349 -14473704.39349  21175030.7794   21175033.6484   21175031.6864
       237.0004        197.0004
   3620333.16249   2986470.71449  24837847.7134   24837848.2064   24837845.3424
       204.0004        134.0004
 -17985253.29149 -14002983.09249  21020002.5854   21020006.2474   21020001.7604
       238.0004        192.0004
 -21900952.54049 -17035305.21449  20792316.0554   20792319.1494   20792315.8154
       243.0004        201.0004
  -9018953.61649  -6724980.63149  23080571.1494   23080575.2534   23080571.3594
       218.0004        150.0004
 -22249742.64349 -17320900.11349  20684775.0464   20684776.8484   20684775.3104
       242.0004        203.0004
   4995838.98349   4411855.05349  25041214.1164   25041228.0844   25041212.9994
       200.0004        127.0004
 -12776057.10749  -9679360.23249  22479901.2904   22479902.1234   22479901.6974
       226.0004        165.0004
  -7535658.70549  -5851160.05649  22850335.9534   22850338.1434   22850335.2864
       217.0004        155.0004
 11 10 13  0 22 30.0000000  0  9G05G16G10G08G13G07G04G02G26
 -18646868.99349 -14514630.70749  21165036.6424   21165040.0184   21165036.9574
       239.0004        197.0004
   3690769.18549   3041355.90549  24851250.6024   24851253.1744   24851251.6934
       204.0004        134.0004
 -17918516.01949 -13950980.05049  21032702.2414   21032705.6084   21032701.1794
       238.0004        191.0004
 -21941618.30949 -17066992.80949  20784577.4414   20784580.6104   20784577.3024
       244.0004        201.0004
  -8926101.90249  -6652628.70749  23098240.0284   23098244.2744   23098241.1354
       217.0004        150.0004
 -22223286.35649 -17300284.81849  20689808.5794   20689811.5664   20689809.1214
       241.0004        203.0004
   5105406.95149   4497232.47849  25062064.0444   25062067.5494   25062065.2494
       211.0004        140.0004
 -12700363.80349  -9620378.43149  22494305.3554   22494306.6734   22494305.1614
       225.0004        167.0004
  -7636674.90649  -5929873.94949  22831111.1694   22831114.2644   22831110.1064
       216.0004        150.0004
 11 10 13  0 23  0.0000000  0  9G05G16G10G08G13G07G04G02G26
 -18698948.20249 -14555211.90749  21155126.5274   21155129.2834   21155127.2414
       239.0004        198.0004
   3761654.15649   3096590.91549  24864739.4284   24864740.7484   24864740.2464
       207.0004        136.0004
 -17851352.97649 -13898645.23549  21045482.1664   21045486.2074   21045482.0224
       237.0004        190.0004
 -21981774.95449 -17098283.67949  20776936.0424   20776939.1314   20776935.7984
       244.0004        201.0004
  -8833117.07849  -6580173.02549  23115935.2504   23115937.6244   23115935.8824
       218.0004        148.0004
 -22196306.77049 -17279261.76649  20694943.5844   20694945.1614   20694943.9834
       243.0004        203.0004
   5214929.39349   4582574.73049  25082906.1064   25082911.3644   25082903.1094
       197.0004        124.0004
 -12624266.57949  -9561081.91749  22508785.1824   22508786.9544   22508785.7624
       221.0004        166.0004
  -7737496.00849  -6008435.82449  22811925.8234   22811928.5024   22811925.8504
       216.0004        154.0004
 11 10 13  0 23 30.0000000  0  9G05G16G10G08G13G07G04G02G26
 -18750583.26249 -14595447.02149  21145300.7664   21145302.9474   21145301.3754
       239.0004        198.0004
   3832985.20449   3152173.50849  24878314.2474   24878315.2404   24878312.5894
       208.0004        136.0004
 -17783765.81849 -13845979.94649  21058344.8194   21058347.4744   21058343.4554
       239.0004        190.0004
 -22021422.56549 -17129177.90549  20769390.9084   20769394.5374   20769390.9544
       244.0004        201.0004
  -8740000.36049  -6507614.56049  23133653.9464   23133656.4974   23133654.7374
       218.0004        150.0004
 -22168806.37249 -17257832.87349  20700176.0964   20700178.7024   20700176.3994
       241.0004        203.0004
   5324404.01649   4667879.69649  25103736.9254                   25103734.9964
       195.0004        121.0004
 -12547768.43249  -9501473.01549  22523341.8394   22523344.6034   22523343.5994
       222.0004        167.0004
  -7838121.25949  -6086845.07049  22792777.0444   22792782.0074   22792776.8314
       216.0004        156.0004
 11 10 13  0 24  0.0000000  0  9G05G16G10G08G13G07G04G02G26
 -18801772.16849 -14635334.48549  21135559.2174   21135562.1264   21135560.1024
       238.0004        197.0004
   3904759.73949   3208101.68949  24891971.5914   24891974.6964   24891969.7844
       205.0004        135.0004
 -17715755.75049 -13792985.09949  21071286.7714   21071289.9824   21071285.9224
       239.0004        191.0004
 -22060560.21449 -17159674.76349  20761943.3964   20761946.8104   20761943.2244
       244.0004        201.0004
  -8646752.71849  -6434954.09849  23151398.8304   23151400.9744   23151400.3744
       217.0004        147.0004
 -22140785.46749 -17235998.40349  20705508.2564   20705511.1664   20705508.7674
       242.0004        203.0004
   5433827.68949   4753144.72949  25124560.5664   25124564.0964   25124561.9294
       211.0004        138.0004
 -12470872.26949  -9441553.95749  22537975.1464   22537978.3284   22537974.5634
       223.0004        169.0004
  -7938549.24849  -6165100.60049  22773666.9374   22773670.6974   22773667.3814
       218.0004        155.0004
 11 10 13  0 24 30.0000000  0  9G05G16G10G08G13G07G04G02G26
 -18852512.98749 -14674872.77549  21125904.2544   21125906.9134   21125904.8134
       239.0004        198.0004
   3976975.63549   3264373.81349  24905713.7374   24905714.9044   24905716.5644
       206.0004        132.0004
 -17647323.88149 -13739661.57349  21084308.7394   21084311.8824   21084307.8524
       239.0004        192.0004
 -22099187.13049 -17189773.63249  20754592.9634   20754596.3884   20754592.4734
       244.0004        201.0004
  -8553375.41849  -6362192.60449  23169167.8774   23169170.1294   23169167.7424
       217.0004        147.0004
 -22112246.02549 -17213759.86949  20710938.9174   20710941.5924   20710939.2444
       241.0004        203.0004
   5543198.09849   4838368.43349  25145372.9854   25145376.2814   25145373.0144
       199.0004        134.0004
 -12393581.00249  -9381327.02449  22552682.2754   22552685.5334   22552684.5674
       224.0004        167.0004
  -8038778.56249  -6243201.33749  22754594.9264   22754597.2194   22754593.8964
       218.0004        155.0004
 11 10 13  0 25  0.0000000  0  9G05G16G10G08G13G07G04G02G26
 -18902804.27349 -14714060.78949  21116334.4914   21116336.7964   21116334.5744
       238.0004        198.0004
   4049630.24249   3320987.76049  24919538.8764   24919540.6954   24919540.6764
       200.0004        132.0004
 -17578472.04149 -13686010.82249  21097410.9904   21097414.5374   21097409.8494
       239.0004        191.0004
 -22137302.94549 -17219474.25349  20747339.4344   20747342.8564   20747339.2774
       243.0004        201.0004
  -8459869.94149  -6289331.21149  23186960.1174   23186964.8244   23186961.5014
       216.0004        144.0004
 -22083189.70949 -17191118.58549  20716469.1544   20716470.7994   20716469.4154
       243.0004        203.0004
   5652512.61449   4923548.53749  25166170.9654                   25166171.7964
       188.0004        118.0004
 -12315897.77049  -9320794.65649  22567466.7814   22567466.9384   22567466.0084
       224.0004        164.0004
  -8138808.34049  -6321146.60049  22735557.6804   22735563.3114   22735559.2904
       217.0004        156.0004
 11 10 13  0 25 30.0000000  0  9G05G16G10G08G13G07G04G02G26
 -18952643.50949 -14752896.55049  21106849.5954   21106851.8274   21106850.3904
       238.0004        197.0004
   4122721.68049   3377942.11449  24933447.7444   24933449.6964   24933448.0634
       201.0004        131.0004
 -17509201.17649 -13632033.53849  21110592.8574   21110596.2024   21110591.8974
       239.0004        191.0004
 -22174906.24849 -17248775.51049  20740183.6744   20740187.4034   20740184.2544
       244.0004        201.0004
  -8366236.24149  -6216369.91449  23204779.2764   23204782.5924   23204777.0694
       214.0004        144.0004
 -22053617.16549 -17168075.03549  20722095.4194   20722097.7764   20722096.0894
       241.0004        202.0004
   5761769.06349   5008683.39049  25186966.6254   25186969.4274   25186968.0194
       205.0004        128.0004
 -12237824.83049  -9259958.60849  22582322.4734   22582324.2544   22582322.9904
       224.0004        166.0004
  -8238636.62449  -6398934.83749  22716561.8774   22716565.7744   22716560.8234
       215.0004        156.0004
 11 10 13  0 26  0.0000000  0  9G05G16G10G08G13G07G04G02G26
 -19002029.37749 -14791379.05249  21097452.8624   21097454.1124   21097452.5224
       239.0004        198.0004
   4196246.93849   3435234.52649  24947440.1674   24947441.1094   24947439.6694
       205.0004        132.0004
 -17439513.21949 -13577731.25749  21123854.5964   21123857.3854   21123853.5384
       239.0004        191.0004
 -22211997.27449 -17277677.58449  20733125.3354   20733128.9414   20733124.8214
       242.0004        200.0004
  -8272476.30449  -6143310.27549  23222622.7544   23222623.5744   23222622.3964
       219.0004        146.0004
 -22023530.45649 -17144630.84349  20727821.4004   20727823.4144   20727822.0344
       243.0004        203.0004
   5870964.62249   5093770.88649  25207746.7794   25207751.1574   25207744.3214
       205.0004        135.0004
 -12159365.71549  -9198821.66349  22597254.9124   22597255.1014   22597253.6844
       224.0004        166.0004
  -8338262.45849  -6476565.29849  22697603.7414   22697607.6244   22697603.5854
       219.0004        156.0004
 11 10 13  0 26 30.0000000  0  9G05G16G10G08G13G07G04G02G26
 -19050959.41949 -14829506.35349  21088141.0714   21088143.4944   21088141.5854
       238.0004        198.0004
   4270203.93849   3492863.36349  24961514.0794   24961516.1144   24961512.7694
       207.0004        133.0004
 -17369409.34549 -13523104.87949  21137193.9054   21137197.2704   21137193.7314
       238.0004        191.0004
 -22248575.27349 -17306179.90649  20726165.8534   20726168.3924   20726165.6934
       245.0004        201.0004
  -8178590.75649  -6070152.74649  23240487.0314   23240489.3354   23240488.0414
       216.0004        144.0004
 -21992930.64049 -17120786.82449  20733644.2614   20733646.6674   20733644.6514
       242.0004        202.0004
   5980096.77949   5178808.86449  25228511.2554   25228519.7994   25228510.8124
       193.0004        130.0004
 -12080523.06449  -9137385.87749  22612257.3444   22612259.0534   22612257.1674
       224.0004        166.0004
  -8437684.57849  -6554037.07349  22678685.3924   22678688.1934   22678686.0204
       222.0004        159.0004
 11 10 13  0 27  0.0000000  0  9G05G16G10G08G13G07G04G02G26
 -19099431.87449 -14867277.09349  21078916.7524   21078919.9944   21078916.5994
       237.0004        198.0004
   4344590.57149   3550826.95249  24975669.9264   24975670.9754   24975668.8954
       207.0004        133.0004
