     2.11           OBSERVATION DATA    G (GPS)             RINEX VERSION / TYPE
teqc  2012Jun6                          20151118 02:04:17UTCPGM / RUN BY / DATE
OSX ker:10.8.0|Core 2 Duo|gcc 4.2 -m64|OSX ker:10.8.0+|=+   COMMENT
Linux 2.4.21-27.ELsmp|Opteron|gcc -static|Linux x86_64|=+   COMMENT
HEADER CHANGED BY EPN CB ON 2011-10-15                      COMMENT
TO BE CONFORM WITH THE INFORMATION IN                       COMMENT
ftp://epncb.oma.be/pub/station/log/brus.log                 COMMENT
                                                            COMMENT
teqc  2010Oct21                         20111015 00:01:18UTCCOMMENT
teqc  2010Oct21                         20111015 00:01:03UTCCOMMENT
teqc  2010Oct21                         20111014 01:01:02UTCCOMMENT
BIT 2 OF LLI FLAGS DATA COLLECTED UNDER A/S CONDITION       COMMENT
 SNR is mapped to RINEX snr flag value [0-9]                COMMENT
  L1 & L2: min(max(int(snr_dBHz/6), 0), 9)                  COMMENT
pseudorange smoothing corrections not applied               COMMENT
COORDINATES IN ETRF2000                                     COMMENT
Forced Modulo Decimation to 30 seconds                      COMMENT
BRUS                                                        MARKER NAME
13101M004                                                   MARKER NUMBER
Carine Bruyninx     ROB                                     OBSERVER / AGENCY
RT919994505         ASHTECH Z-XII3T     1L01-1D04           REC # / TYPE / VERS
CR519994604         ASH701945B_M    NONE                    ANT # / TYPE
  4027894.0130   307045.5980  4919474.9120                  APPROX POSITION XYZ
        3.9702        0.0000        0.0000                  ANTENNA: DELTA H/E/N
     1     1                                                WAVELENGTH FACT L1/2
     7    L1    L2    C1    P2    P1    S1    S2            # / TYPES OF OBSERV
    30.0000                                                 INTERVAL
teqc windowed: start @ 2011 Oct 14 04:00:00.000             COMMENT
teqc windowed: delta = 14400.000 sec                        COMMENT
  2011    10    14     4     0    0.0000000     GPS         TIME OF FIRST OBS
                                                            END OF HEADER
 11 10 14  4  0  0.0000000  0  8G05G17G28G15G18G27G09G26
   4514605.21449   3784935.37949  25614496.9054   25614500.0094   25614498.7824
       197.0004        127.0004
  -4111471.73249  -2966505.09449  23346389.0004   23346392.4774   23346389.6654
       222.0004        164.0004
 -10820637.37749  -8412656.74949  22351001.4324   22351003.5344   22351001.6154
       232.0004        177.0004
 -22721098.24549 -17688732.04249  20385971.9744   20385974.5764   20385972.7954
       245.0004        214.0004
 -11884440.37749  -9245753.71349  22842477.0344   22842477.5804   22842476.9304
       222.0004        160.0004
 -14156234.11049 -11008473.87549  21029117.2644   21029120.5774   21029117.4764
       238.0004        196.0004
 -17699090.83549 -13745929.37749  21584521.8124   21584524.4724   21584522.0744
       235.0004        184.0004
 -15926577.05849 -11597816.08249  21247320.7484   21247322.5224   21247320.1384
       239.0004        191.0004
 11 10 14  4  0 30.0000000  0  8G05G17G28G15G18G27G09G26
   4625525.23449   3871366.54049  25635604.8964   25635610.2244   25635607.1994
       198.0004        130.0004
  -4181519.34349  -3021087.59449  23333058.0554   23333063.0584   23333059.9474
       219.0004        164.0004
 -10754623.42449  -8361217.30749  22363564.4454   22363565.8534   22363563.6334
       233.0004        176.0004
 -22721262.65949 -17688860.17749  20385942.6064   20385943.2884   20385942.8024
       247.0004        215.0004
 -11912078.62449  -9267290.00749  22837219.0984   22837217.9884   22837217.9144
       224.0004        160.0004
 -14187637.08149 -11032943.70849  21023142.1534   21023144.6724   21023141.8954
       239.0004        197.0004
 -17783132.40349 -13811416.28149  21568529.6334   21568531.7364   21568529.1564
       235.0004        184.0004
 -15843465.72049 -11533054.01249  21263133.9724   21263138.6344   21263134.6844
       237.0004        191.0004
 11 10 14  4  1  0.0000000  0  8G05G17G28G15G18G27G09G26
   4736356.00449   3957728.13649  25656695.8854   25656696.2714   25656696.3074
       197.0004        125.0004
  -4251200.39949  -3075384.47149  23319800.3454   23319801.9374   23319800.3344
       223.0004        164.0004
 -10688268.69449  -8309512.31049  22376190.6264   22376191.7404   22376190.1964
       233.0004        175.0004
 -22720911.73049 -17688586.73749  20386008.9634   20386010.4104   20386009.3844
       245.0004        215.0004
 -11939171.47049  -9288401.32749  22832062.5304   22832063.5234   22832062.6044
       223.0004        160.0004
 -14218765.75449 -11057199.81249  21017218.0574   21017220.7674   21017218.2514
       239.0004        196.0004
 -17866899.51449 -13876689.33149  21552588.5844   21552591.3094   21552588.7094
       235.0004        184.0004
 -15759962.42749 -11467986.54049  21279025.4234   21279028.5124   21279025.5014
       239.0004        190.0004
 11 10 14  4  1 30.0000000  0  8G05G17G28G15G18G27G09G26
   4847094.80749   4044018.07549  25677766.6014   25677773.1144   25677772.2474
       194.0004        125.0004
  -4320513.00749  -3129394.21949  23306608.9414   23306612.8484   23306609.8604
       220.0004        165.0004
 -10621575.56149  -8257543.63449  22388882.1464   22388883.1084   22388881.6774
       231.0004        176.0004
 -22720045.49349 -17687911.74949  20386173.3474   20386175.2464   20386173.7004
       245.0004        215.0004
 -11965718.57449  -9309087.37549  22827010.7814   22827011.4874   22827010.8924
       224.0004        159.0004
 -14249620.64649 -11081242.57949  21011346.6464   21011349.4164   21011346.3684
       239.0004        197.0004
 -17950391.23549 -13941747.80049  21536700.3354   21536703.3424   21536700.7304
       235.0004        184.0004
 -15676069.36149 -11402615.36349  21294990.0544   21294993.0104   21294990.3364
       237.0004        190.0004
 11 10 14  4  2  0.0000000  0  8G05G17G28G15G18G27G09G26
   4957739.42449   4130234.61149  25698822.0394   25698827.7374   25698822.7274
       194.0004        126.0004
  -4389454.33449  -3183114.68749  23293491.0714   23293494.0374   23293491.4824
       222.0004        165.0004
 -10554545.99049  -8205312.81649  22401636.7874   22401639.3834   22401636.9974
       232.0004        175.0004
 -22718663.52749 -17686834.90349  20386435.5554   20386438.6904   20386436.1644
       245.0004        214.0004
 -11991718.52449  -9329347.08049  22822062.8994   22822064.2944   22822062.9984
       222.0004        158.0004
 -14280201.48949 -11105071.80549  21005527.1934   21005530.1464   21005527.5644
       239.0004        197.0004
 -18033606.22749 -14006590.64249  21520864.9194   21520868.1164   21520865.4034
       235.0004        184.0004
 -15591788.25749 -11336941.79849  21311027.3204   21311030.9924   21311027.6114
       237.0004        190.0004
 11 10 14  4  2 30.0000000  0  8G05G17G28G15G18G27G09G26
   5068288.40349   4216376.59849  25719859.7194   25719867.0574   25719861.9204
       195.0004        127.0004
  -4458021.14749  -3236543.30049  23280443.1034   23280446.5764   23280443.3184
       223.0004        167.0004
 -10487181.33549  -8152820.86749  22414457.4024   22414457.9524   22414455.8504
       233.0004        176.0004
 -22716764.30249 -17685354.99549  20386797.4164   20386799.9424   20386797.6674
       244.0004        214.0004
 -12017169.76949  -9349179.21749  22817218.2074   22817221.0194   22817218.4394
       222.0004        159.0004
 -14310507.48549 -11128686.85049  20999760.4044   20999763.0874   20999760.1144
       239.0004        197.0004
 -18116542.09849 -14071215.96949  21505082.5424   21505086.0194   21505082.7494
       234.0004        184.0004
 -15507119.53949 -11270966.20349  21327140.3114   21327142.6014   21327140.2194
       240.0004        190.0004
 11 10 14  4  3  0.0000000  0  8G05G17G28G15G18G27G09G26
   5178737.86249   4302441.04449  25740876.5504   25740879.6394   25740876.9784
       191.0004        123.0004
  -4526211.71549  -3289678.72949  23267466.7114   23267468.8834   23267467.2614
       222.0004        166.0004
 -10419484.87749  -8100070.38749  22427338.1774   22427340.0114   22427338.7844
       232.0004        175.0004
 -22714349.08549 -17683473.02149  20387256.0104   20387259.4284   20387257.5504
       244.0004        215.0004
 -12042073.10649  -9368584.42849  22812480.1804   22812481.9104   22812479.6914
       222.0004        160.0004
 -14340539.81749 -11152088.66749  20994045.0984   20994048.1264   20994045.2364
       239.0004        197.0004
 -18199199.38649 -14135624.22249  21489352.6034   21489356.6294   21489353.1834
       234.0004        183.0004
 -15422066.48549 -11204691.13949  21343325.9634   21343327.8184   21343325.8814
       239.0004        190.0004
 11 10 14  4  3 30.0000000  0  8G05G17G28G15G18G27G09G26
   5289086.40849   4388426.82649  25761876.3244   25761882.5364   25761879.2024
       194.0004        127.0004
  -4594022.57649  -3342518.31549  23254561.8044   23254565.9414   23254563.4524
       221.0004        165.0004
 -10351457.89449  -8047062.35349  22440283.9544   22440284.6184   22440282.7184
       233.0004        176.0004
 -22711416.20149 -17681187.67649  20387816.3324   20387817.3434   20387816.4864
       246.0004        215.0004
 -12066427.19249  -9387561.64349  22807845.3704   22807847.5854   22807846.4584
       222.0004        160.0004
 -14370297.58149 -11175276.52349  20988381.9824   20988386.0304   20988382.1624
       238.0004        197.0004
 -18281576.00249 -14199813.78549  21473678.0944   21473680.6214   21473678.3254
       236.0004        184.0004
 -15336630.07449 -11138117.32649  21359581.8024   21359585.5854   21359582.3414
       236.0004        188.0004
 11 10 14  4  4  0.0000000  0  8G05G17G28G15G18G27G09G26
   5399331.46949   4474331.95149  25782855.0694   25782860.4934   25782853.7304
       194.0004        121.0004
  -4661451.84349  -3395060.55449  23241730.6414   23241734.6314   23241732.2714
       222.0004        164.0004
 -10283103.06349  -7993798.84149  22453291.9004   22453292.4914   22453291.2094
       233.0004        175.0004
 -22707966.06949 -17678499.27049  20388471.7994   20388473.6094   20388472.2064
       244.0004        214.0004
 -12090231.29849  -9406110.29249  22803316.1464   22803318.5114   22803315.7954
       223.0004        160.0004
 -14399781.47449 -11198250.97649  20982771.3384   20982775.0254   20982771.8134
       241.0004        197.0004
 -18363671.21249 -14263784.05149  21458054.8124   21458058.3854   21458055.1574
       234.0004        184.0004
 -15250812.41849 -11071246.46349  21375912.6474   21375916.0034   21375913.2104
       237.0004        187.0004
 11 10 14  4  4 30.0000000  0  8G05G17G28G15G18G27G09G26
   5509471.68949   4560155.34049  25803813.9734                   25803815.4614
       185.0004        119.0004
  -4728496.08349  -3447302.80349  23228974.5114   23228975.7454   23228974.1474
       225.0004        166.0004
 -10214420.97349  -7940280.33149  22466360.9444   22466362.5304   22466361.6484
       232.0004        174.0004
 -22703996.92049 -17675406.43749  20389227.3264   20389229.2164   20389227.7684
       245.0004        214.0004
 -12113483.90749  -9424229.21749  22798891.5954   22798893.7624   22798890.9304
       223.0004        162.0004
 -14428990.39049 -11221011.16549  20977213.5544   20977216.4484   20977213.5964
       241.0004        197.0004
 -18445482.70549 -14327533.25749  21442486.2404   21442490.2414   21442486.9074
       234.0004        184.0004
 -15164614.34049 -11004079.16549  21392316.5934   21392319.2164   21392317.0474
       237.0004        187.0004
 11 10 14  4  5  0.0000000  0  9G05G17G28G15G12G18G27G09G26
   5619503.81549   4645894.50549  25824753.7054                   25824753.3424
       185.0004        121.0004
  -4795153.75849  -3499243.83249  23216287.5444   23216291.4494   23216288.3814
       223.0004        167.0004
 -10145414.88349  -7886509.35049  22479493.2924   22479494.2074   22479491.9874
       233.0004        175.0004
 -22699509.11549 -17671909.45449  20390080.7414   20390083.1144   20390081.3944
       244.0004        214.0004
   -131976.54349    -79818.25249  24937394.6774
       209.0004         79.0004
 -12136185.13449  -9441918.49249  22794570.5034   22794573.2634   22794570.5844
       222.0004        161.0004
 -14457925.25449 -11243557.80549  20971707.7874   20971710.1744   20971707.7344
       242.0004        197.0004
 -18527009.89449 -14391060.91049  21426973.7074   21426976.5224   21426972.6864
       235.0004        185.0004
 -15078038.13249 -10936617.20949  21408791.8114   21408794.1854   21408791.9144
       237.0004        188.0004
 11 10 14  4  5 30.0000000  0  9G05G17G28G15G12G18G27G09G26
   5729426.20049   4731548.16949  25845671.4214                   25845670.6294
       183.0004        117.0004
  -4861421.46249  -3550880.98949  23203678.2104   23203682.2514   23203679.1084
       225.0004        167.0004
 -10076086.27749  -7832487.05949  22492685.4384   22492686.4164   22492685.3244
       232.0004        174.0004
 -22694501.99049 -17668007.80849  20391034.3644   20391036.1594   20391034.4154
       244.0004        214.0004
   -248957.77449   -170972.11849  24915131.4284
       206.0004        135.0004
 -12158333.71149  -9459177.13049  22790357.5274   22790358.3964   22790356.8954
       224.0004        161.0004
 -14486585.48049 -11265890.43649  20966253.4294   20966256.7904   20966253.7064
       241.0004        198.0004
 -18608250.99649 -14454365.65149  21411513.2474   21411515.9834   21411513.6144
       236.0004        185.0004
 -14991085.22549 -10868861.72549  21425337.0334   21425341.3574   21425337.6464
       236.0004        188.0004
 11 10 14  4  6  0.0000000  0  9G05G17G28G15G12G18G27G09G26
   5839236.95149   4817114.91949  25866567.2784
       179.0004        117.0004
  -4927296.95749  -3602212.49849  23191142.5614   23191145.7154   23191142.4154
       223.0004        167.0004
 -10006437.78849  -7778215.50549  22505937.6724   22505940.1774   22505937.7404
       230.0004        173.0004
 -22688975.34149 -17663701.32949  20392084.1334   20392087.9484   20392085.4244
       244.0004        214.0004
   -365870.05849   -262072.63849  24892879.0694   24892883.7024
       203.0004        136.0004
 -12179929.68349  -9476005.16349  22786248.1274   22786249.2614   22786246.9824
       225.0004        163.0004
 -14514971.43149 -11288009.35549  20960852.1714   20960854.8724   20960852.0794
       242.0004        198.0004
 -18689205.17949 -14517446.81449  21396108.9744   21396110.9694   21396107.9964
       235.0004        186.0004
 -14903757.76049 -10800814.38749  21441956.3484   21441959.5154   21441956.6294
       237.0004        188.0004
 11 10 14  4  6 30.0000000  0  9G05G17G28G15G12G18G27G09G26
   5948934.16659   4902593.19659  25887442.5874
       171.0004        115.0004
  -4992777.02449  -3653235.86649  23178681.8474   23178684.7544   23178682.9984
       223.0004        166.0004
  -9936470.24949  -7723695.34849  22519253.3154   22519254.9274   22519253.3134
       230.0004        173.0004
 -22682928.26249 -17658989.33049  20393236.6324   20393238.6654   20393236.7204
       244.0004        214.0004
   -482710.92849   -353117.41949  24870644.9294   24870650.7214   24870647.2124
       204.0004        138.0004
 -12200971.61849  -9492401.48449  22782243.2554   22782244.9394   22782243.3464
       222.0004        162.0004
 -14543082.24549 -11309913.87649  20955502.8254   20955505.9964   20955503.0824
       242.0004        199.0004
 -18769870.13749 -14580302.61149  21380758.3734   21380761.1524   21380758.5234
       235.0004        186.0004
 -14816056.69049 -10732475.91249  21458645.3214   21458648.6894   21458645.2604
       237.0004        187.0004
 11 10 14  4  7  0.0000000  0  9G05G17G28G15G12G18G27G09G26
   6058515.33659     14964.26559  25908297.5604
       165.0004         74.0004
  -5057860.27849  -3703950.02549  23166296.5784   23166299.7254   23166296.6454
       223.0004        165.0004
  -9866186.92349  -7668929.12049  22532628.7864   22532628.5114   22532627.8974
       232.0004        175.0004
 -22676361.27649 -17653872.19449  20394485.6014   20394488.2774   20394486.5024
       245.0004        214.0004
   -599479.13549   -444105.64949  24848430.0844   24848430.5614   24848429.7164
       206.0004        137.0004
 -12221459.49549  -9508366.05149  22778345.2934   22778346.7004   22778344.6194
       226.0004        163.0004
 -14570918.82949 -11331604.70849  20950205.6934   20950208.4474   20950205.6134
       241.0004        199.0004
 -18850245.93549 -14642933.07249  21365463.2784   21365466.6564   21365463.2164
       236.0004        187.0004
 -14727984.68649 -10663848.39649  21475403.5604   21475407.8854   21475404.6144
       234.0004        186.0004
 11 10 14  4  7 30.0000000  0  8G17G28G15G12G18G27G09G26
  -5122543.05749  -3754352.14649  23153987.9514   23153991.1044   23153988.6334
       224.0004        166.0004
  -9795588.90249  -7613917.66749  22546062.3244   22546062.8884   22546061.8054
       232.0004        174.0004
 -22669273.10549 -17648348.96049  20395836.3314   20395837.1164   20395836.1384
       245.0004        214.0004
   -716171.63349   -535034.86649  24826223.8484   24826225.1424   24826221.4954
       208.0004        139.0004
 -12241392.10349  -9523897.96249  22774552.7704   22774554.9264   22774551.8924
       225.0004        163.0004
 -14598480.09849 -11353081.01949  20944960.7734   20944964.0144   20944960.6094
       242.0004        198.0004
 -18930330.55649 -14705336.66049  21350224.1974   21350227.1264   21350224.0784
       237.0004        188.0004
 -14639542.44849 -10594932.39349  21492233.5514   21492238.1354   21492234.4404
       235.0004        186.0004
 11 10 14  4  8  0.0000000  0  8G17G28G15G12G18G27G09G26
  -5186823.70649  -3804440.90949  23141756.6364   23141758.4854   23141756.5834
       224.0004        165.0004
  -9724679.07249  -7558663.24549  22559556.3164   22559557.2394   22559555.7644
       231.0004        173.0004
 -22661664.29349 -17642420.01049  20397281.7874   20397284.6244   20397282.6354
       244.0004        213.0004
   -832787.44149   -625904.26949  24804033.5024   24804032.2004   24804030.7744
       210.0004        140.0004
 -12260769.56949  -9538997.28849  22770864.6624   22770865.7924   22770864.0754
       224.0004        163.0004
 -14625766.74649 -11374343.33349  20939768.2104   20939771.5804   20939768.5334
       241.0004        199.0004
 -19010123.21449 -14767512.73149  21335039.6304   21335042.7164   21335039.1954
       235.0004        188.0004
 -14550732.78049 -10525730.09049  21509135.2834   21509137.5944   21509134.5604
       235.0004        185.0004
 11 10 14  4  8 30.0000000  0  8G17G28G15G12G18G27G09G26
  -5250699.53449  -3854214.23949  23129600.3574   23129604.8464   23129600.7794
       224.0004        167.0004
  -9653459.19049  -7503167.22849  22573108.2274   22573110.1784   22573107.9334
       230.0004        173.0004
 -22653534.09449 -17636084.80349  20398830.2774   20398831.9664   20398830.0794
       244.0004        213.0004
   -949324.33549   -716712.21149  24781853.5834   24781856.0994   24781852.5154
       205.0004        138.0004
 -12279591.05249  -9553663.39149  22767282.1094   22767284.4884   22767283.8294
       223.0004        164.0004
 -14652778.71649 -11395391.62449  20934628.3814   20934631.4354   20934628.4414
       242.0004        199.0004
 -19089622.50049 -14829460.21549  21319910.6074   21319914.1594   21319911.9884
       235.0004        188.0004
 -14461557.04049 -10456242.53749  21526103.1764   21526107.8214   21526103.5304
       234.0004        185.0004
 11 10 14  4  9  0.0000000  0  8G17G28G15G12G18G27G09G26
  -5314167.44749  -3903669.71649  23117522.7074   23117525.1644   23117523.3484
       222.0004        165.0004
  -9581931.20349  -7447431.15049  22586720.6484   22586721.3834   22586720.3474
       232.0004        174.0004
 -22644881.80349 -17629342.75649  20400475.3034   20400478.4804   20400476.0764
       244.0004        212.0004
  -1065780.02249   -807456.93149  24759690.5394   24759697.8964   24759693.5364
       204.0004        140.0004
 -12297855.58349  -9567895.49349  22763806.4014   22763808.8804   22763806.0114
       223.0004        161.0004
 -14679515.33449 -11416225.34849  20929540.3364   20929543.6654   20929540.3294
       242.0004        199.0004
 -19168826.48049 -14891177.59349  21304839.7374   21304841.9904   21304839.8814
       235.0004        189.0004
 -14372016.56749 -10386470.77949  21543141.6694   21543146.4064   21543142.7884
       234.0004        185.0004
 11 10 14  4  9 30.0000000  0  8G17G28G15G12G18G27G09G26
  -5377225.39949  -3952805.72949  23105523.6384   23105525.8424   23105524.1044
       224.0004        166.0004
  -9510096.96349  -7391456.40349  22600389.5184   22600390.8164   22600389.3414
       231.0004        172.0004
 -22635707.29349 -17622193.79449  20402222.7144   20402224.4744   20402222.6084
       244.0004        213.0004
  -1182152.44649   -898136.73549  24737546.3784   24737551.6024   24737548.3434
       202.0004        139.0004
 -12315562.66849  -9581693.22149  22760438.8184   22760439.2224   22760437.8914
       226.0004        162.0004
 -14705976.65549 -11436844.55749  20924504.7774   20924508.1174   20924505.0514
       241.0004        199.0004
 -19247734.14949 -14952664.06049  21289823.9964   21289826.6734   21289823.9474
       237.0004        189.0004
 -14282113.16649 -10316416.22249  21560251.8794   21560254.6314   21560252.3084
       236.0004        186.0004
 11 10 14  4 10  0.0000000  0  8G17G28G15G12G18G27G09G26
  -5439871.06949  -4001620.48349  23093603.1604   23093605.3224   23093603.5104
       225.0004        168.0004
  -9437958.75749  -7335244.81549  22614116.2574   22614117.9584   22614117.0314
       230.0004        173.0004
 -22626010.51049 -17614637.85949  20404067.9214   20404069.5314   20404068.4204
       246.0004        214.0004
  -1298440.22949   -988750.55449  24715418.5984   24715423.5464   24715417.7334
       205.0004        138.0004
 -12332712.20349  -9595056.49449  22757174.1324   22757175.9704   22757174.5254
       224.0004        163.0004
 -14732163.04749 -11457249.52649  20919522.0204   20919524.8594   20919522.0664
       242.0004        199.0004
 -19326344.62849 -15013918.95249  21274864.1964   21274867.8884   21274864.6974
       236.0004        189.0004
 -14191849.11549 -10246080.64449  21577428.4084   21577431.2974   21577428.7264
       236.0004        185.0004
 11 10 14  4 10 30.0000000  0  8G17G28G15G12G18G27G09G26
  -5502102.10849  -4050112.16149  23081759.3244   23081763.6294   23081761.1014
       224.0004        169.0004
  -9365518.99049  -7278798.25049  22627901.8844   22627903.4014   22627901.5854
       230.0004        171.0004
 -22615791.35549 -17606674.89349  20406013.3474   20406014.5054   20406012.9954
       245.0004        214.0004
  -1414641.25849  -1079296.77249  24693311.9114   24693311.6614   24693308.5384
       210.0004        139.0004
 -12349304.17349  -9607985.31049  22754016.4624   22754017.4734   22754016.4584
       224.0004        162.0004
 -14758074.68049 -11477440.39749  20914590.7624   20914593.9834   20914590.6024
       241.0004        199.0004
 -19404656.50649 -15074941.18649  21259962.1464   21259965.4464   21259962.4394
       235.0004        189.0004
 -14101226.31149 -10175465.50649  21594672.0954   21594676.2034   21594672.7714
       236.0004        184.0004
 11 10 14  4 11  0.0000000  0  8G17G28G15G12G18G27G09G26
  -5563915.38249  -4098278.31149  23069998.9104   23070000.5844   23069998.3544
       225.0004        170.0004
  -9292778.89549  -7222117.65649  22641743.8674   22641744.9764   22641744.7944
       230.0004        171.0004
 -22605049.11449 -17598304.31549  20408056.2024   20408058.7964   20408057.2414
       245.0004        214.0004
  -1530752.93249  -1169773.39849  24671213.3904   24671215.6184   24671209.4884
       207.0004        136.0004
 -12365337.22849  -9620478.59449  22750964.0994   22750966.4504   22750964.3414
       223.0004        162.0004
 -14783710.77749 -11497416.56749  20909712.7124   20909715.7614   20909712.8394
       241.0004        199.0004
 -19482668.16949 -15135729.46949  21245116.6514   21245120.7834   21245117.1304
       236.0004        190.0004
 -14010245.53249 -10104571.41749  21611986.7204   21611989.4544   21611986.3684
       236.0004        184.0004
 11 10 14  4 11 30.0000000  0  8G17G28G15G12G18G27G09G26
  -5625308.61049  -4146117.14549  23058314.9924   23058317.6534   23058315.3844
       225.0004        169.0004
  -9219740.61549  -7165204.70649  22655642.1664   22655642.7824   22655641.8094
       229.0004        170.0004
 -22593783.50949 -17589525.92349  20410199.3574   20410201.9734   20410200.0484
       243.0004        213.0004
  -1646773.59049  -1260179.12549  24649130.4134   24649135.6654   24649132.4964
       201.0004        137.0004
 -12380810.90649  -9632536.00849  22748021.2734   22748022.2694   22748020.5834
       225.0004        161.0004
 -14809071.55449 -11517178.19749  20904887.2564   20904889.3694   20904886.7124
       241.0004        198.0004
 -19560378.47249 -15196282.94349  21230329.1174   21230332.6934   21230329.8914
       237.0004        189.0004
 -13918909.04149 -10033400.14049  21629366.0824   21629369.5034   21629366.6204
       234.0004        185.0004
 11 10 14  4 12  0.0000000  0  8G17G28G15G12G18G27G09G26
  -5686279.69449  -4193627.01149  23046712.1704   23046714.3854   23046712.1324
       225.0004        169.0004
  -9146406.47849  -7108061.21249  22669597.9594   22669598.1254   22669597.0714
       229.0004        170.0004
 -22581994.59849 -17580339.76149  20412442.8894   20412445.4884   20412443.4274
       243.0004        212.0004
  -1762701.14549  -1350512.24049  24627070.0014   24627077.6284   24627073.7884
       198.0004        140.0004
 -12395725.44049  -9644157.73349  22745182.6224   22745184.3044   22745182.1274
       222.0004        162.0004
 -14834157.12649 -11536725.39349  20900112.6084   20900115.8324   20900113.0084
       241.0004        199.0004
 -19637786.19349 -15256600.62449  21215600.6364   21215602.7924   21215599.2144
       239.0004        190.0004
 -13827218.80949  -9961953.23849  21646814.4104   21646817.7334   21646814.9104
       234.0004        184.0004
 11 10 14  4 12 30.0000000  0  9G22G17G28G15G12G18G27G09G26
   -217484.03949   -156960.28249  24661769.7424   24661772.6934
       208.0004        141.0004
  -5746825.84749  -4240805.78049  23035190.3794   23035194.0674   23035191.4764
       227.0004        171.0004
  -9072778.71549  -7050688.94049  22683607.3254   22683609.6484   22683607.1924
       227.0004        168.0004
 -22569682.04549 -17570745.56849  20414785.8674   20414788.7034   20414786.6154
       244.0004        212.0004
  -1878533.87949  -1440771.50749  24605030.8034   24605034.3094   24605033.2694
       205.0004        138.0004
 -12410079.83849  -9655342.98949  22742451.6544   22742452.5394   22742451.0714
       224.0004        160.0004
 -14858967.19249 -11556057.90249  20895391.7374   20895394.8354   20895391.8584
       241.0004        199.0004
 -19714889.75549 -15316681.31049  21200927.1504   21200930.4804   21200927.1864
       237.0004        190.0004
 -13735176.49149  -9890231.97649  21664329.2584   21664333.8084   21664330.2434
       235.0004        184.0004
 11 10 14  4 13  0.0000000  0  9G22G17G28G15G12G18G27G09G26
   -286765.50049   -210945.85049  24648587.2634   24648587.7504   24648587.6934
       210.0004        142.0004
  -5806945.39349  -4287652.13849  23023751.2814   23023753.8654   23023751.5744
       226.0004        171.0004
  -8998859.43649  -6993089.50649  22697673.4074   22697676.0684   22697674.1834
       227.0004        168.0004
 -22556846.15449 -17560743.58649  20417230.4654   20417231.0254   20417229.8154
       246.0004        213.0004
  -1994270.24949  -1530955.75449  24583012.6474   24583008.2184   24583010.4724
       208.0004        135.0004
 -12423874.75949  -9666092.28249  22739826.4354   22739827.5694   22739826.0984
       225.0004        162.0004
 -14883502.09349 -11575176.00049  20890722.7064   20890726.2394   20890723.0484
       241.0004        199.0004
 -19791688.56449 -15376524.52349  21186313.2624   21186315.6214   21186312.5704
       238.0004        190.0004
 -13642784.50149  -9818238.24149  21681912.6854   21681914.5524   21681911.7284
       236.0004        184.0004
 11 10 14  4 13 30.0000000  0  9G22G17G28G15G12G18G27G09G26
   -355646.13449   -264619.08849  24635479.8034   24635478.7674   24635478.9214
       210.0004        142.0004
  -5866635.12549  -4334163.57649  23012391.2504   23012394.9554   23012392.0054
       224.0004        170.0004
  -8924649.96749  -6935263.96449  22711796.1294   22711798.7124   22711795.6884
       229.0004        169.0004
 -22543486.20049 -17550333.23749  20419771.1394   20419773.3834   20419771.6594
       244.0004        213.0004
  -2109907.44749  -1621062.58549  24561007.2074   24561005.2564   24561003.1684
       209.0004        137.0004
 -12437108.31849  -9676404.14149  22737308.3494   22737309.6994   22737306.2094
       225.0004        162.0004
 -14907761.23149 -11594079.20949  20886106.4364   20886109.9234   20886106.3734
       241.0004        199.0004
 -19868180.75049 -15436128.80949  21171757.3064   21171759.7444   21171756.7874
       239.0004        190.0004
 -13550043.70549  -9745972.69649  21699557.9994   21699562.8844   21699559.1844
       233.0004        184.0004
 11 10 14  4 14  0.0000000  0  9G22G17G28G15G12G18G27G09G26
   -424123.79549   -317978.31949  24622448.8284   24622448.4924   24622447.1774
       209.0004        144.0004
  -5925892.81249  -4380338.34049  23001115.0974   23001117.9804   23001116.2774
       226.0004        171.0004
  -8850152.76749  -6877214.18649  22725972.8574   22725974.5224   22725971.5494
       228.0004        168.0004
 -22529601.88849 -17539514.30049  20422413.5894   20422415.5024   20422414.2234
       245.0004        213.0004
  -2225443.77249  -1711090.84949  24539017.0724   24539020.4964   24539016.5414
       210.0004        145.0004
 -12449781.09449  -9686279.03749  22734897.4834   22734898.1784   22734896.1304
       224.0004        162.0004
 -14931744.69249 -11612767.61949  20881542.6354   20881545.7184   20881542.4054
       241.0004        198.0004
 -19944365.14149 -15495493.24949  21157260.0994   21157262.3224   21157259.1114
       239.0004        191.0004
 -13456956.34449  -9673437.11149  21717274.0944   21717276.6954   21717274.2624
       237.0004        184.0004
 11 10 14  4 14 30.0000000  0  9G22G17G28G15G12G18G27G09G26
   -492196.65749   -371022.10849  24609495.6954   24609496.0374   24609494.4434
       213.0004        144.0004
  -5984716.22749  -4426174.70749  22989921.7764   22989925.3814   22989922.1194
       225.0004        171.0004
  -8775369.87249  -6818941.81349  22740203.8364   22740204.4594   22740202.6064
       228.0004        169.0004
 -22515193.35449 -17528286.87649  20425155.2414   20425157.8024   20425155.6944
       244.0004        213.0004
  -2340877.29449  -1801039.03949  24517046.4574   24517051.8984   24517048.9674
       199.0004        136.0004
 -12461892.80849  -9695716.73649  22732590.7134   22732593.3254   22732590.7054
       223.0004        163.0004
 -14955452.57149 -11631241.29149  20877030.8854   20877034.3214   20877031.5004
       241.0004        199.0004
 -20020240.21249 -15554616.67149  21142820.1094   21142823.6044   21142820.8844
       238.0004        192.0004
 -13363524.24949  -9600632.91449  21735053.7484   21735056.5894   21735054.1374
       235.0004        183.0004
 11 10 14  4 15  0.0000000  0  9G22G17G28G15G12G18G27G09G26
   -559862.34949   -423748.63449  24596617.6814   24596620.0564   24596617.3834
       214.0004        145.0004
  -6043103.06449  -4471670.89249  22978810.5164   22978813.4084   22978811.3364
       224.0004        170.0004
  -8700303.33449  -6760448.40049  22754487.8624   22754489.0344   22754488.0404
       229.0004        170.0004
 -22500260.50049 -17516650.89549  20427997.8114   20427999.2894   20427997.9014
       244.0004        213.0004
  -2456205.99949  -1890905.57249  24495102.3824   24495106.4724   24495103.9644
       203.0004        137.0004
 -12473442.82649  -9704716.75549  22730394.8724   22730395.8834   22730394.0524
       225.0004        161.0004
 -14978884.89049 -11649500.24049  20872572.3594   20872575.1864   20872572.3954
       242.0004        199.0004
 -20095804.93849 -15613498.26749  21128441.5314   21128444.5414   21128441.3564
       239.0004        191.0004
 -13269749.22649  -9527561.47749  21752897.1594   21752901.8364   21752897.9824
       233.0004        182.0004
 11 10 14  4 15 30.0000000  0  9G22G17G28G15G12G18G27G09G26
   -627118.38649   -476155.93849  24583819.8234   24583819.9044   24583818.5394
       209.0004        147.0004
  -6101050.61749  -4516824.78149  22967784.8054   22967785.9774   22967783.7254
       227.0004        171.0004
  -8624954.91549  -6701735.34549  22768825.5594   22768827.7274   22768826.0714
       228.0004        170.0004
 -22484802.84749 -17504605.96949  20430937.2874   20430940.7654   20430938.0734
       243.0004        212.0004
  -2571427.62249  -1980688.65749  24473178.2284   24473181.6414   24473178.7444
       212.0004        145.0004
 -12484430.53549  -9713278.60549  22728303.7364   22728305.0414   22728303.5274
       225.0004        162.0004
 -15002040.92449 -11667543.90249  20868165.7284   20868168.6624   20868166.0134
       242.0004        200.0004
 -20171057.46849 -15672136.58749  21114122.1164   21114123.8244   21114121.3624
       240.0004        191.0004
 -13175632.54149  -9454223.83049  21770806.6174   21770811.8124   21770807.9804
       232.0004        182.0004
 11 10 14  4 16  0.0000000  0  9G22G17G28G15G12G18G27G09G26
   -693963.35649   -528242.94849  24571101.6004   24571100.0034   24571099.5494
       212.0004        148.0004
  -6158556.91349  -4561634.84149  22956840.7104   22956844.2704   22956841.0844
       227.0004        173.0004
  -8549327.11249  -6642804.60449  22783217.9744   22783219.4914   22783217.5454
       229.0004        169.0004
 -22468820.70249 -17492152.36649  20433980.0204   20433982.0194   20433980.3174
       244.0004        212.0004
  -2686540.77949  -2070387.20349  24451272.2284   24451275.2464   24451271.6114
       204.0004        142.0004
 -12494856.52349  -9721402.77749  22726318.5984   22726319.3324   22726318.4864
       224.0004        161.0004
 -15024921.16549 -11685372.66049  20863811.7514   20863814.6384   20863811.6114
       242.0004        199.0004
 -20245997.19549 -15730531.17149  21099860.1144   21099863.7704   21099860.4714
       238.0004        192.0004
 -13081176.76049  -9380621.96849  21788782.4694   21788785.4304   21788782.2574
       233.0004        181.0004
 11 10 14  4 16 30.0000000  0  9G22G17G28G15G12G18G27G09G26
   -760395.71249   -580008.43949  24558458.3404   24558458.5074   24558458.4234
       211.0004        146.0004
  -6215620.37349  -4606099.83249  22945981.7254   22945984.4624   22945982.4224
       228.0004        173.0004
  -8473422.20449  -6583657.90849  22797662.3724   22797663.2364   22797662.0884
       229.0004        169.0004
 -22452314.77749 -17479290.60449  20437119.4724   20437122.9334   20437120.2474
       243.0004        212.0004
  -2801543.59249  -2159999.67049  24429390.0494   24429391.2134   24429388.2574
       210.0004        142.0004
 -12504720.74149  -9729089.18149  22724442.0754   22724444.8804   22724441.4974
       225.0004        162.0004
 -15047525.93649 -11702986.76049  20859510.0444   20859513.0394   20859510.3434
       241.0004        200.0004
 -20320623.30349 -15788681.37349  21085659.9564   21085662.7994   21085659.7934
       239.0004        192.0004
 -12986383.95249  -9306757.47649  21806820.6334   21806823.7734   21806820.4834
       232.0004        180.0004
 11 10 14  4 17  0.0000000  0  9G22G17G28G15G12G18G27G09G26
   -826412.24449   -631449.89649  24545895.1604   24545896.0344   24545894.7404
       211.0004        146.0004
  -6272237.29749  -4650216.87949  22935208.1364   22935210.5764   22935207.6674
       226.0004        174.0004
  -8397240.77849  -6524295.74549  22812160.2284   22812159.7184   22812159.2004
       230.0004        169.0004
 -22435283.31349 -17466019.35049  20440362.2184   20440364.0424   20440362.3054
       244.0004        212.0004
  -2916433.00349  -2249523.96149  24407525.0014   24407527.5504   24407526.6664
       211.0004        141.0004
 -12514021.95049  -9736336.87949  22722672.3534   22722673.2264   22722671.6454
       226.0004        162.0004
 -15069854.08949 -11720385.30149  20855262.6844   20855264.4094   20855261.6544
       244.0004        200.0004
 -20394933.30549 -15846585.25049  21071519.1854   21071522.5654   21071518.6354
       239.0004        192.0004
 -12891255.17949  -9232631.18749  21824922.5194   21824926.8564   21824922.6104
       232.0004        180.0004
 11 10 14  4 17 30.0000000  0  9G22G17G28G15G12G18G27G09G26
   -892011.14349   -682565.93549  24533412.8894   24533412.9564   24533412.6324
       210.0004        147.0004
  -6328406.00349  -4693984.69549  22924519.0084   22924522.5394   22924519.2734
       225.0004        171.0004
  -8320786.21449  -6464720.76049  22826708.0734   22826709.5334   22826706.7374
       227.0004        167.0004
 -22417727.23949 -17452339.29549  20443702.0084   20443704.9094   20443702.7914
       244.0004        212.0004
  -3031208.32749  -2338959.31949  24385684.5264   24385687.5454   24385684.4104
       203.0004        143.0004
 -12522760.53049  -9743146.18549  22721009.3984   22721011.3064   22721008.9744
       224.0004        163.0004
 -15091906.37149 -11737568.89249  20851064.6254   20851067.9204   20851064.8884
       242.0004        200.0004
 -20468926.55549 -15904242.31749  21057438.1834   21057441.4834   21057438.2674
       238.0004        193.0004
 -12795792.62649  -9158244.81249  21843089.7064   21843092.0234   21843089.3314
       233.0004        180.0004
 11 10 14  4 18  0.0000000  0  9G22G17G28G15G12G18G27G09G26
   -957190.59149   -733355.14049  24521010.4324   24521009.6424   24521008.2284
       210.0004        146.0004
  -6384123.89349  -4737401.21149  22913916.6374   22913919.5474   22913916.7094
       225.0004        171.0004
  -8244060.19849  -6404934.26649  22841307.4324   22841309.1414   22841308.1114
       227.0004        168.0004
 -22399645.95649 -17438250.00049  20447144.7744   20447145.3894   20447144.6894
       245.0004        212.0004
  -3145866.73549  -2428303.38049  24363866.1984   24363869.9044   24363866.1554
       215.0004        148.0004
 -12530936.12249  -9749516.78149  22719453.2944   22719455.2234   22719452.8254
       224.0004        162.0004
 -15113682.16549 -11754537.03049  20846920.6254   20846924.2284   20846920.8614
       241.0004        200.0004
 -20542601.18749 -15961651.11649  21043418.1474   21043421.7724   21043418.4944
       237.0004        193.0004
 -12699997.98849  -9083599.68249  21861318.5204   21861321.5954   21861319.3784
       233.0004        179.0004
 11 10 14  4 18 30.0000000  0  9G22G17G28G15G12G18G27G09G26
  -1021948.92449   -783816.16249  24508687.1674   24508686.5204   24508684.8264
       210.0004        144.0004
  -6439389.24749  -4780465.10349  22903399.8054   22903403.4464   22903400.4964
       228.0004        172.0004
  -8167064.91749  -6344937.93349  22855959.3974   22855961.0374   22855958.5484
       228.0004        169.0004
 -22381040.09149 -17423751.91749  20450683.2184   20450685.9904   20450684.0584
       243.0004        212.0004
  -3260406.46649  -2517555.12249  24342072.1304   24342073.3044   24342070.0774
       214.0004        145.0004
 -12538548.99249  -9755448.88749  22718003.3684   22718005.8494   22718005.6924
       224.0004        164.0004
 -15135181.85949 -11771290.02649  20842829.3694   20842832.7094   20842829.7754
       241.0004        200.0004
 -20615956.26949 -16018810.90449  21029460.4304   21029462.4854   21029460.0064
       240.0004        193.0004
 -12603873.45949  -9008697.47549  21879609.3744   21879613.1774   21879609.8084
       231.0004        179.0004
 11 10 14  4 19  0.0000000  0  9G22G17G28G15G12G18G27G09G26
  -1086284.16649   -833947.50049  24496444.0234   24496443.6864   24496443.5484
       210.0004        143.0004
  -6494199.83349  -4823174.63849  22892969.9484   22892971.9954   22892970.6024
       227.0004        172.0004
  -8089802.47849  -6284733.43949  22870662.5344   22870663.4424   22870661.8524
       227.0004        167.0004
 -22361909.97349 -17408845.33749  20454323.8534   20454326.3074   20454324.0864
       243.0004        211.0004
  -3374826.00549  -2606713.26449  24320295.2144   24320299.3094   24320294.6404
       208.0004        142.0004
 -12545599.39849  -9760942.72949  22716663.1844   22716664.1184   22716663.6134
       224.0004        164.0004
 -15156405.59249 -11787827.98349  20838790.8604   20838793.9924   20838790.7534
       242.0004        200.0004
 -20688991.28449 -16075721.28649  21015562.1974   21015564.3154   21015561.4374
       239.0004        193.0004
 -12507421.04149  -8933539.76149  21897963.0024   21897967.2964   21897963.7314
       231.0004        180.0004
 11 10 14  4 19 30.0000000  0  9G22G17G28G15G12G18G27G09G26
  -1150193.75749   -883747.20049  24484284.9824   24484281.8864   24484282.9264
       209.0004        143.0004
  -6548553.14649  -4865527.83749  22882626.5864   22882630.3124   22882626.7374
       226.0004        171.0004
  -8012274.45949  -6224322.00849  22885415.9754   22885416.9864   22885415.9974
       226.0004        168.0004
 -22342255.00549 -17393529.78949  20458064.0564   20458066.9304   20458064.6344
       244.0004        211.0004
  -3489122.69549  -2695775.54749  24298545.6644   24298550.6404   24298547.6374
       212.0004        149.0004
 -12552086.31749  -9765997.47949  22715429.3214   22715430.1384   22715427.5604
       225.0004        163.0004
 -15177352.73749 -11804150.42849  20834804.8574   20834807.7954   20834805.4544
       243.0004        201.0004
 -20761704.32349 -16132380.79049  21001724.8104   21001727.6074   21001725.0744
       239.0004        194.0004
 -12410642.16549  -8858127.68349  21916381.1434   21916383.5434   21916381.2104
       232.0004        178.0004
 11 10 14  4 20  0.0000000  0  9G22G17G28G15G12G18G27G09G26
  -1213676.05249   -933213.92349  24472202.5814   24472201.6604   24472201.7584
       208.0004        142.0004
  -6602447.06149  -4907523.07049  22872370.5134   22872374.0244   22872371.8954
       226.0004        173.0004
  -7934483.35649  -6163705.56049  22900219.0884   22900219.7354   22900218.7264
       228.0004        167.0004
 -22322075.25649 -17377805.32049  20461904.6004   20461906.7854   20461904.8894
       242.0004        211.0004
  -3603295.03249  -2784740.99649  24276820.2964   24276824.4494   24276821.9434
       211.0004        150.0004
 -12558010.27049  -9770613.55249  22714301.3574   22714302.1984   22714299.4864
       225.0004        162.0004
 -15198023.47149 -11820257.48449  20830872.2324   20830874.4324   20830871.6184
       243.0004        201.0004
 -20834093.86749 -16188788.21249  20987950.4464   20987952.3914   20987949.4164
       240.0004        194.0004
 -12313538.76649  -8782462.71949  21934857.9584   21934862.0044   21934858.7964
       230.0004        178.0004
 11 10 14  4 20 30.0000000  0  9G22G17G28G15G12G18G27G09G26
  -1276728.52349   -982345.70549  24460202.0844   24460203.7654   24460201.9784
       206.0004        142.0004
  -6655879.04549  -4949158.36449  22862203.5594   22862205.4584   22862203.0174
       226.0004        171.0004
  -7856430.53949  -6102885.17449  22915072.3064   22915072.3584   22915071.4354
       228.0004        167.0004
 -22301370.37949 -17361671.65249  20465843.1974   20465846.8604   20465844.2834
       243.0004        211.0004
  -3717340.83849  -2873607.84449  24255116.5504   24255118.8944   24255116.9934
       205.0004        142.0004
 -12563370.71649  -9774790.52549  22713281.7164   22713282.6744   22713280.6554
       225.0004        163.0004
 -15218417.40349 -11836148.85749  20826990.2774   20826993.3664   20826990.4944
       242.0004        201.0004
 -20906158.47549 -16244942.44249  20974236.2544   20974238.7424   20974235.5154
       240.0004        194.0004
 -12216112.54549  -8706546.21349  21953397.8284   21953401.6464   21953398.1084
       231.0004        178.0004
 11 10 14  4 21  0.0000000  0  9G22G17G28G15G12G18G27G09G26
  -1339349.64549  -1031141.38249  24448286.8914   24448288.5074   24448286.0674
       204.0004        141.0004
  -6708847.38549  -4990432.36649  22852123.3754   22852126.6294   22852123.2604
       226.0004        171.0004
  -7778118.97949  -6041863.17849  22929973.4344   22929975.5714   22929972.7074
       227.0004        167.0004
 -22280141.25249 -17345129.49449  20469885.3334   20469886.5294   20469885.0744
       244.0004        211.0004
  -3831258.39449  -2962374.74349  24233441.2764   24233442.7034   24233439.7124
       212.0004        142.0004
 -12568167.97149  -9778528.65349  22712367.8844   22712369.0974   22712367.9544
       223.0004        161.0004
 -15238534.90449 -11851824.82649  20823161.9864   20823165.1654   20823162.0334
       242.0004        201.0004
 -20977897.20249 -16300842.74049  20960584.6064   20960587.5314   20960584.2034
       240.0004        194.0004
 -12118365.68249  -8630379.86449  21971998.9424   21972002.2524   21971999.3704
       231.0004        178.0004
 11 10 14  4 21 30.0000000  0  9G22G17G28G15G12G18G27G09G26
  -1401537.48849  -1079599.43949  24436452.2604   24436453.5864   24436452.4264
       205.0004        139.0004
  -6761349.55449  -5031343.10849  22842132.5874   22842135.8314   22842133.7234
       226.0004        173.0004
  -7699549.70749  -5980640.38049  22944925.0684   22944926.8684   22944924.9934
       227.0004        166.0004
 -22258387.67349 -17328178.65349  20474022.6114   20474026.4034   20474023.8064
       243.0004        211.0004
  -3945045.44449  -3051040.01149  24211784.4644   24211790.6474   24211785.3084
       204.0004        149.0004
 -12572401.86049  -9781827.78949  22711562.6294   22711563.8594   22711564.2274
       225.0004        162.0004
 -15258375.55649 -11867285.07249  20819386.9424   20819389.5984   20819386.9344
       243.0004        201.0004
 -21049308.53649 -16356487.92449  20946994.5004   20946998.2434   20946995.0964
       240.0004        194.0004
 -12020299.91049  -8553965.00849  21990660.9604   21990663.9674   21990660.7474
       232.0004        178.0004
 11 10 14  4 22  0.0000000  0  9G22G17G28G15G12G18G27G09G26
  -1463290.17449  -1127718.43449  24424700.6714   24424701.4994   24424701.3884
       206.0004        139.0004
  -6813383.60949  -5071889.08549  22832231.9014   22832233.6074   22832231.2974
       228.0004        172.0004
  -7620725.24449  -5919218.71549  22959924.4284   22959925.2104   22959924.1064
       224.0004        166.0004
 -22236109.48649 -17310819.04049  20478264.3364   20478265.5414   20478264.5114
       245.0004        212.0004
  -4058700.29649  -3139602.12949  24190155.3224   24190161.3234   24190156.0904
       200.0004        142.0004
 -12576072.67849  -9784688.18749  22710864.9804   22710864.4434   22710864.8794
       226.0004        163.0004
 -15277939.62949 -11882529.79649  20815664.0624   20815666.6494   20815663.9034
       243.0004        201.0004
 -21120391.47849 -16411877.21249  20933468.4434   20933471.7454   20933468.2634
       240.0004        194.0004
 -11921917.47649  -8477303.38349  22009381.5584   22009385.1204   22009381.3474
       231.0004        178.0004
 11 10 14  4 22 30.0000000  0  9G22G17G28G15G12G18G27G09G26
  -1524606.12749  -1175497.10949  24413034.9354   24413034.1104   24413032.7784
       207.0004        139.0004
  -6864947.85449  -5112068.99849  22822418.1464   22822421.1454   22822419.7634
       226.0004        173.0004
  -7541648.19849  -5857600.24649  22974972.8204   22974974.1784   22974972.6334
       226.0004        166.0004
 -22213307.58149 -17293051.33149  20482601.9174   20482604.4624   20482602.3674
       243.0004        211.0004
  -4172221.26549  -3228060.00049  24168555.0264   24168558.6584   24168556.5074
       208.0004        140.0004
 -12579181.13249  -9787110.35349  22710272.2274   22710273.7684   22710272.5394
       222.0004        163.0004
 -15297227.39749 -11897559.23349  20811993.4364   20811996.1304   20811993.8484
       242.0004        201.0004
 -21191145.00949 -16467009.83649  20920004.6664   20920007.8744   20920004.9564
       242.0004        195.0004
 -11823220.42349  -8400396.62149  22028162.8114   22028166.7034   22028163.7904
       232.0004        178.0004
 11 10 14  4 23  0.0000000  0  9G22G17G28G15G12G18G27G09G26
  -1585482.22949  -1222933.04349  24401451.0374   24401449.9304   24401449.3394
       209.0004        140.0004
  -6916039.15049  -5151880.39049  22812695.5904   22812699.2364   22812696.6014
       225.0004        172.0004
  -7462319.32349  -5795785.54649  22990068.5904   22990070.0524   22990068.8364
       225.0004        167.0004
 -22189981.00849 -17274874.79349  20487041.7774   20487043.6464   20487042.1624
       244.0004        211.0004
  -4285605.21849  -3316411.22749  24146980.8664   24146984.4774   24146979.1394
       208.0004        146.0004
 -12581725.99849  -9789093.35849  22709786.9034   22709789.6964   22709786.9324
       221.0004        162.0004
 -15316237.59449 -11912372.36949  20808375.6244   20808378.7484   20808375.9504
       242.0004        201.0004
 -21261566.78749 -16521883.93449  20906603.9784   20906606.5704   20906603.8744
       242.0004        195.0004
 -11724209.45649  -8323245.26049  22047005.7874   22047007.6354   22047005.6194
       231.0004        178.0004
 11 10 14  4 23 30.0000000  0  9G22G17G28G15G12G18G27G09G26
  -1645917.60549  -1270025.55349  24389949.2214   24389948.2614   24389948.3884
       211.0004        142.0004
  -6966656.02649  -5191322.07949  22803064.3874   22803066.2734   22803064.7544
       228.0004        172.0004
  -7382741.44749  -5733776.81749  23005212.4524   23005212.0624   23005212.0384
       227.0004        165.0004
 -22166130.70449 -17256290.13849  20491578.8064   20491582.0714   20491579.5064
       243.0004        210.0004
  -4398851.31249  -3404654.78649  24125425.7334   24125432.8994   24125425.2854
       201.0004        141.0004
 -12583707.71049  -9790637.55749  22709411.5404   22709411.5314   22709410.6564
       224.0004        162.0004
 -15334971.02049 -11926969.83149  20804810.8424   20804813.9654   20804810.9534
       242.0004        201.0004
 -21331656.30949 -16576499.13749  20893266.4034   20893269.3594   20893266.2674
       242.0004        196.0004
 -11624887.47849  -8245851.52549  22065903.3334   22065908.6344   22065904.2564
       229.0004        176.0004
 11 10 14  4 24  0.0000000  0  9G22G17G28G15G12G18G27G09G26
  -1705910.93749  -1316773.61149  24378531.5164   24378532.6124   24378531.6664
       205.0004        143.0004
  -7016797.15149  -5230393.06249  22793522.6564   22793525.1594   22793522.3444
       226.0004        172.0004
  -7302917.16249  -5671576.08749  23020401.1674   23020402.7254   23020401.9144
       225.0004        164.0004
 -22141757.35449 -17237297.93749  20496218.8964   20496220.0524   20496218.8264
       244.0004        210.0004
  -4511958.15249  -3492789.93349  24103904.3254   24103911.2554   24103906.1164
       210.0004        145.0004
 -12585127.38849  -9791743.82249  22709140.5784   22709143.2914   22709139.6254
       224.0004        162.0004
 -15353428.27849 -11941352.11049  20801298.2794   20801301.8984   20801299.1614
       242.0004        201.0004
 -21401413.11249 -16630855.08049  20879991.8104   20879995.1214   20879992.1364
       242.0004        196.0004
 -11525257.20649  -8168217.57849  22084864.3954   22084866.8284   22084863.2864
       231.0004        176.0004
 11 10 14  4 24 30.0000000  0  9G22G17G28G15G12G18G27G09G26
  -1765457.92349  -1363173.86649  24367200.9444   24367201.5174   24367199.7604
       208.0004        143.0004
  -7066458.55549  -5269090.22549  22784072.0904   22784074.6984   22784072.3984
       228.0004        174.0004
  -7222847.16549  -5609183.88649  23035638.8144   23035639.7064   23035638.0704
       227.0004        165.0004
 -22116859.59849 -17217897.09349  20500955.1774   20500958.1354   20500955.6164
       242.0004        210.0004
  -4624922.23849  -3580814.02749  24082410.1994   24082412.0114   24082410.6154
       204.0004        140.0004
 -12585983.60849  -9792410.98049  22708978.7884   22708980.9064   22708977.8014
       226.0004        164.0004
 -15371607.51049 -11955517.72949  20797839.1034   20797842.0964   20797839.1824
       242.0004        201.0004
 -21470834.27749 -16684949.48549  20866782.4824   20866784.7704   20866782.2854
       243.0004        196.0004
 -11425318.90649  -8090343.61449  22103881.5554   22103884.8584   22103882.1044
       232.0004        177.0004
 11 10 14  4 25  0.0000000  0  9G22G17G28G15G12G18G27G09G26
  -1824559.16649  -1409226.81349  24355957.4504   24355955.7694   24355955.5564
       211.0004        143.0004
  -7115639.37849  -5307412.89849  22774714.1124   22774716.0604   22774714.9644
       230.0004        174.0004
  -7142534.04949  -5546602.24449  23050922.6484   23050921.4384   23050922.1334
       226.0004        163.0004
 -22091438.69049 -17198088.60549  20505793.3904   20505795.7104   20505793.7934
       244.0004        210.0004
  -4737742.27249  -3668725.59649  24060943.4214   24060944.2784   24060941.4484
       211.0004        146.0004
 -12586277.73049  -9792640.19349  22708923.4164   22708923.8034   22708924.1394
       225.0004        164.0004
 -15389509.55049 -11969467.37249  20794432.8514   20794435.7914   20794433.1684
       242.0004        201.0004
 -21539919.08949 -16738781.79449  20853635.7474   20853638.2134   20853635.4174
       242.0004        196.0004
 -11325075.06249  -8012231.56349  22122957.2474   22122960.5764   22122957.3234
       230.0004        175.0004
 11 10 14  4 25 30.0000000  0  9G22G17G28G15G12G18G27G09G26
  -1883211.91349  -1454930.26949  24344793.7474   24344792.3324   24344793.4454
       208.0004        143.0004
  -7164337.35449  -5345359.31649  22765446.8884   22765449.1874   22765446.2094
       227.0004        174.0004
  -7061979.89949  -5483832.75849  23066251.0434   23066251.1234   23066249.7054
       225.0004        163.0004
 -22065494.50549 -17177872.36549  20510730.1384   20510732.7244   20510730.4144
       243.0004        210.0004
  -4850416.23949  -3756523.45049  24039499.0904   24039504.5474   24039499.8894
       210.0004        150.0004
 -12586009.43249  -9792431.12749  22708973.8784   22708974.9624   22708973.0694
       226.0004        162.0004
 -15407134.15649 -11983200.82149  20791079.0624   20791081.5554   20791079.0294
       243.0004        201.0004
 -21608666.24549 -16792350.99149  20840553.5934   20840555.7944   20840553.2234
       243.0004        196.0004
 -11224527.79749  -7933883.08349  22142090.4204   22142094.9594   22142090.8874
       229.0004        177.0004
 11 10 14  4 26  0.0000000  0  9G22G17G28G15G12G18G27G09G26
  -1941414.41049  -1500282.84849  24333717.5754   24333718.2184   24333715.8814
       210.0004        145.0004
  -7212550.72549  -5382928.14149  22756271.6494   22756274.2894   22756272.4314
       229.0004        175.0004
  -6981186.75549  -5420877.06649  23081624.8974   23081626.9964   23081625.6594
       225.0004        163.0004
 -22039027.78449 -17157248.95249  20515767.3394   20515769.2034   20515767.4614
       244.0004        210.0004
  -4962942.77849  -3844206.47849  24018085.9394   24018089.1524   24018085.8454
       204.0004        139.0004
 -12585179.15349  -9791784.16649  22709131.2854   22709132.5324   22709129.9614
       224.0004        164.0004
 -15424481.54349 -11996718.25949  20787777.4314   20787780.9814   20787777.8874
       242.0004        201.0004
 -21677074.82549 -16845656.35949  20827535.4644   20827537.9484   20827535.3594
       242.0004        195.0004
 -11123679.14949  -7855299.75249  22161281.1994   22161286.0214   22161281.6494
       230.0004        176.0004
 11 10 14  4 26 30.0000000  0  9G22G17G28G15G12G18G27G09G26
  -1999164.92549  -1545283.25549  24322728.9854   24322729.0854   24322727.7994
       209.0004        146.0004
  -7260277.45749  -5420117.76949  22747190.5054   22747192.3694   22747190.5704
       228.0004        173.0004
  -6900156.60949  -5357736.70649  23097042.9844   23097046.7874   23097044.3034
       223.0004        162.0004
 -22012038.24849 -17136218.15649  20520902.4164   20520905.1084   20520902.9884
       243.0004        210.0004
  -5075319.67549  -3931772.91649  23996702.4524   23996704.0214   23996701.6674
       213.0004        147.0004
 -12583787.25949  -9790699.57349  22709397.0504   22709398.5014   22709395.3074
       225.0004        164.0004
 -15441551.65849 -12010019.64749  20784529.6384   20784532.2964   20784529.8204
       243.0004        201.0004
 -21745143.50949 -16898696.88049  20814582.3864   20814585.1724   20814582.6754
       242.0004        196.0004
 -11022530.92549  -7776482.99449  22180530.5094   22180533.4554   22180530.2184
       231.0004        177.0004
 11 10 14  4 27  0.0000000  0  9G22G17G28G15G12G18G27G09G26
  -2056461.29849  -1589929.78649  24311824.0084   24311825.3984   24311823.1694
       207.0004        147.0004
  -7307515.27549  -5456926.42349  22738200.9514   22738202.3264   22738200.9264
       226.0004        172.0004
  -6818891.15449  -5294412.98749  23112509.2684   23112510.0344   23112508.6064
       224.0004        161.0004
 -21984526.32349 -17114780.30749  20526138.2124   20526140.5264   20526138.9634
       244.0004        210.0004
  -5187544.55749  -4019220.80049  23975348.4524   23975349.8584   23975348.3274
       217.0004        154.0004
 -12581833.78549  -9789177.40149  22709767.9884   22709769.6784   22709767.9744
       224.0004        162.0004
 -15458344.24649 -12023104.77149  20781333.9324   20781336.6524   20781333.9944
       242.0004        201.0004
 -21812870.83249 -16951471.39349  20801693.7634   20801696.9604   20801693.9314
       241.0004        195.0004
 -10921085.08749  -7697434.30149  22199832.6144   22199837.9284   22199833.1084
       228.0004        174.0004
 11 10 14  4 27 30.0000000  0  9G22G17G28G15G12G18G27G09G26
  -2113301.96549  -1634221.20349  24301009.3744   24301009.8924   24301009.2164
       209.0004        148.0004
  -7354262.34149  -5493352.66449  22729304.8364   22729307.4844   22729304.8984
       228.0004        173.0004
  -6737392.76149  -5230907.73949  23128017.3464   23128019.5004   23128016.9604
       223.0004        161.0004
 -21956492.46749 -17092935.76249  20531472.4174   20531475.0214   20531472.9044
       241.0004        210.0004
  -5299616.02249  -4106549.18349  23954021.7994   23954023.6004   23954021.5034
       214.0004        145.0004
 -12579318.93249  -9787217.78349  22710246.4824   22710248.4544   22710246.6874
       225.0004        164.0004
 -15474859.27349 -12035973.62549  20778191.2284   20778194.2044   20778191.4084
       242.0004        201.0004
 -21880255.52549 -17003978.94049  20788871.8194   20788873.9824   20788871.5814
       242.0004        196.0004
 -10819343.42449  -7618155.11249  22219193.8554   22219198.7344   22219194.4814
       230.0004        174.0004
 11 10 14  4 28  0.0000000  0  9G22G17G28G15G12G18G27G09G26
  -2169685.22649  -1678156.20649  24290276.7074   24290279.5294   24290277.7534
       209.0004        148.0004
  -7400516.75549  -5529395.05349  22720503.0294   22720505.2534   22720502.7544
       229.0004        174.0004
  -6655663.50749  -5167222.61549  23143570.4234   23143570.2784   23143570.0134
       225.0004        161.0004
