     2.11           OBSERVATION DATA    G (GPS)             RINEX VERSION / TYPE
teqc  2012Jun6                          20151118 02:04:17UTCPGM / RUN BY / DATE
OSX ker:10.8.0|Core 2 Duo|gcc 4.2 -m64|OSX ker:10.8.0+|=+   COMMENT
Linux 2.4.21-27.ELsmp|Opteron|gcc -static|Linux x86_64|=+   COMMENT
HEADER CHANGED BY EPN CB ON 2011-10-15                      COMMENT
TO BE CONFORM WITH THE INFORMATION IN                       COMMENT
ftp://epncb.oma.be/pub/station/log/brus.log                 COMMENT
                                                            COMMENT
teqc  2010Oct21                         20111015 00:01:18UTCCOMMENT
teqc  2010Oct21                         20111015 00:01:03UTCCOMMENT
teqc  2010Oct21                         20111014 01:01:02UTCCOMMENT
BIT 2 OF LLI FLAGS DATA COLLECTED UNDER A/S CONDITION       COMMENT
 SNR is mapped to RINEX snr flag value [0-9]                COMMENT
  L1 & L2: min(max(int(snr_dBHz/6), 0), 9)                  COMMENT
pseudorange smoothing corrections not applied               COMMENT
COORDINATES IN ETRF2000                                     COMMENT
Forced Modulo Decimation to 30 seconds                      COMMENT
BRUS                                                        MARKER NAME
13101M004                                                   MARKER NUMBER
Carine Bruyninx     ROB                                     OBSERVER / AGENCY
RT919994505         ASHTECH Z-XII3T     1L01-1D04           REC # / TYPE / VERS
CR519994604         ASH701945B_M    NONE                    ANT # / TYPE
  4027894.0130   307045.5980  4919474.9120                  APPROX POSITION XYZ
        3.9702        0.0000        0.0000                  ANTENNA: DELTA H/E/N
     1     1                                                WAVELENGTH FACT L1/2
     7    L1    L2    C1    P2    P1    S1    S2            # / TYPES OF OBSERV
    30.0000                                                 INTERVAL
teqc windowed: start @ 2011 Oct 14 08:00:00.000             COMMENT
teqc windowed: delta = 14400.000 sec                        COMMENT
  2011    10    14     8     0    0.0000000     GPS         TIME OF FIRST OBS
                                                            END OF HEADER
 11 10 14  8  0  0.0000000  0 10G31G25G04G12G14G02G30G27G09G29
  -5965959.87549  -4636035.29549  23805614.9434   23805620.1604   23805616.5294
       217.0004        157.0004
 -23623166.25849 -18132509.73349  20338059.4514   20338065.9094   20338059.2074
       252.0004        213.0004
   -978134.64549   -656280.23049  23454117.3744   23454123.9284   23454119.4114
       216.0004        151.0004
 -22719820.79849 -17680735.80149  20639065.5074   20639069.2134   20639066.1014
       244.0004        206.0004
 -12979248.68749 -10091540.68249  21827079.4924   21827084.7254   21827079.6794
       230.0004        177.0004
  -4916243.38849  -3458191.00349  23062558.0494   23062562.5414   23062557.9324
       224.0004        165.0004
  -6894293.90149  -5105704.53249  23206719.1954   23206720.9564   23206718.8574
       217.0004        148.0004
   2957344.77449   2326759.91049  24285740.6444   24285747.9694   24285739.9184
       202.0004        137.0004
 -10582100.33549  -8200237.54749  22938851.4254   22938857.0284   22938851.7294
       223.0004        159.0004
 -12591943.54549  -9799259.39449  22317666.7224   22317672.1894   22317667.3544
       229.0004        178.0004
 11 10 14  8  0 30.0000000  0 10G31G25G04G12G14G02G30G27G09G29
  -6062984.49549  -4711638.90449  23787152.7254   23787156.9344   23787153.3164
       218.0004        157.0004
 -23647033.84649 -18151107.87949  20333517.3454   20333524.1014   20333517.5994
       252.0004        213.0004
   -948562.65449   -633237.17649  23459746.3804   23459753.2524   23459746.5974
       217.0004        151.0004
 -22677910.54849 -17648078.50649  20647041.0584   20647044.4454   20647041.7234
       244.0004        206.0004
 -12946634.60349 -10066127.15549  21833285.9904   21833290.1404   21833285.7784
       230.0004        176.0004
  -4965145.40449  -3496296.44649  23053253.5674   23053257.6874   23053252.8574
       227.0004        167.0004
  -6992903.46149  -5182543.14849  23187954.0764   23187957.9074   23187953.0954
       214.0004        148.0004
   3053150.65449   2401413.61349  24303971.8944   24303980.4544   24303971.5164
       208.0004        137.0004
 -10469618.01249  -8112589.10649  22960256.5004   22960262.4214   22960255.5174
       222.0004        157.0004
 -12688277.26849  -9874324.59949  22299334.7594   22299341.2834   22299335.6384
       229.0004        178.0004
 11 10 14  8  1  0.0000000  0 10G31G25G04G12G14G02G30G27G09G29
  -6159871.71049  -4787135.44349  23768716.1264   23768719.0734   23768716.9264
       219.0004        157.0004
 -23670525.02749 -18169412.70549  20329047.7724   20329053.6794   20329047.1954
       252.0004        213.0004
   -918391.68149   -609727.36349  23465486.0294   23465492.5544   23465485.3344
       217.0004        151.0004
 -22635669.46449 -17615163.41549  20655079.5794   20655082.9664   20655079.8554
       244.0004        206.0004
 -12913435.60249 -10040257.86149  21839604.7054   21839607.5164   21839604.7754
       231.0004        177.0004
  -5013594.04249  -3534048.59749  23044033.5044   23044037.2694   23044032.7984
       224.0004        165.0004
  -7091372.51249  -5259272.23449  23169216.4604   23169223.5634   23169217.6914
       217.0004        155.0004
   3149099.89549   2476179.05949  24322228.7564   24322239.3204   24322229.6574
       208.0004        140.0004
 -10356913.52049  -8024767.55049  22981702.5234   22981708.7254   22981703.8304
       221.0004        157.0004
 -12784306.39949  -9949152.47049  22281061.6244   22281066.3704   22281061.4204
       230.0004        176.0004
 11 10 14  8  1 30.0000000  0 10G31G25G04G12G14G02G30G27G09G29
  -6256620.65749  -4862524.24649  23750306.6734   23750309.4254   23750306.1684
       219.0004        158.0004
 -23693640.21449 -18187424.55349  20324649.2534   20324655.0854   20324648.6924
       252.0004        213.0004
   -887623.17849   -585751.96849  23471342.1084   23471348.4834   23471341.7374
       216.0004        149.0004
 -22593099.26049 -17581991.86749  20663180.4974   20663183.5264   20663180.8574
       244.0004        206.0004
 -12879654.20649 -10013934.74349  21846032.7554   21846037.3054   21846031.9384
       231.0004        176.0004
  -5061587.43149  -3571446.01649  23034899.9714   23034903.1244   23034901.0164
       226.0004        166.0004
  -7189700.45749  -5335891.38349  23150505.6954   23150510.9454   23150506.2964
       219.0004        152.0004
   3245190.47249   2551054.64249  24340515.4724   24340525.6814   24340514.8934
       209.0004        140.0004
 -10243989.27749  -7936774.74649  23003189.8644   23003198.7174   23003190.7154
       219.0004        157.0004
 -12880029.71449 -10023742.04949  22262845.6394   22262850.8854   22262845.6764
       229.0004        176.0004
 11 10 14  8  2  0.0000000  0 10G31G25G04G12G14G02G30G27G09G29
  -6353229.18749  -4937803.61149  23731922.3734   23731924.2454   23731920.8664
       218.0004        158.0004
 -23716379.27149 -18205143.31049  20320321.5674   20320327.8554   20320321.2604
       252.0004        212.0004
   -856258.30549   -561311.87249  23477309.6744   23477316.8764   23477310.3394
       216.0004        150.0004
 -22550200.78549 -17548564.52449  20671344.6354   20671346.9084   20671344.8194
       245.0004        206.0004
 -12845291.75949  -9987158.85949  21852571.3504   21852576.0254   21852571.1104
       230.0004        177.0004
  -5109123.89949  -3608487.37549  23025854.5034   23025857.5534   23025853.7444
       224.0004        166.0004
  -7287886.39349  -5412399.86549  23131820.7424   23131825.9434   23131819.6204
       216.0004        150.0004
   3341420.94749   2626039.17949  24358827.3924   24358836.7924   24358828.2484
       210.0004        140.0004
 -10130847.59749  -7848612.52249  23024723.6294   23024729.6084   23024722.6974
       222.0004        157.0004
 -12975445.33949 -10098091.85649  22244688.2094   22244694.9304   22244688.4494
       230.0004        177.0004
 11 10 14  8  2 30.0000000  0 10G31G25G04G12G14G02G30G27G09G29
  -6449695.42349  -5012972.11649  23713562.4184   23713567.1714   23713563.6244
       215.0004        156.0004
 -23738742.10049 -18222568.91349  20316066.2084   20316072.4464   20316065.9874
       252.0004        213.0004
   -824298.15449   -536407.90549  23483392.1104   23483400.2074   23483392.7574
       217.0004        151.0004
 -22506974.86549 -17514882.02849  20679569.4414   20679572.5004   20679569.7874
       243.0004        205.0004
 -12810349.39349  -9959931.10349  21859218.7634   21859224.1374   21859219.5094
       229.0004        176.0004
  -5156201.62749  -3645171.29749  23016895.9534   23016901.1124   23016895.8624
       227.0004        169.0004
  -7385929.19749  -5488796.87549  23113163.3354   23113168.7264   23113161.4174
       215.0004        150.0004
   3437789.78249   2701131.52649  24377167.4634   24377175.8944   24377166.7014
       207.0004        140.0004
 -10017490.56849  -7760282.51349  23046293.5414   23046300.0204   23046293.5324
       219.0004        156.0004
 -13070551.37849 -10172200.44849  22226590.4564   22226595.4694   22226591.2994
       230.0004        177.0004
 11 10 14  8  3  0.0000000  0 10G31G25G04G12G14G02G30G27G09G29
  -6546016.51149  -5088027.51949  23695233.0184   23695238.1734   23695234.9464
       214.0004        155.0004
 -23760727.69549 -18239700.55649  20311883.0154   20311888.7124   20311882.5384
       252.0004        213.0004
   -791743.10849   -511040.37049  23489587.8984   23489594.5824   23489588.1244
       219.0004        151.0004
 -22463421.98549 -17480944.75349  20687856.9804   20687860.5284   20687857.2874
       245.0004        205.0004
 -12774828.04249  -9932252.17449  21865980.4844   21865985.0114   21865980.1854
       229.0004        176.0004
  -5202817.96449  -3681495.67849  23008024.6944   23008029.6444   23008024.3224
       226.0004        168.0004
  -7483827.02449  -5565080.86449  23094534.5834   23094539.2914   23094533.4304
       215.0004        152.0004
   3534296.38549   2776331.23349  24395531.3734   24395540.7864   24395531.8074
       204.0004        140.0004
  -9903919.66149  -7671785.80449  23067904.2444   23067911.7954   23067904.7194
       220.0004        156.0004
 -13165344.60849 -10246065.29949  22208552.1994   22208556.5244   22208552.0654
       230.0004        176.0004
 11 10 14  8  3 30.0000000  0 10G31G25G04G12G14G02G30G27G09G29
  -6642191.29549  -5162968.93249  23676931.8814   23676936.7664   23676934.9784
       217.0004        158.0004
 -23782336.37049 -18256538.50449  20307770.5384   20307776.7594   20307770.6284
       252.0004        213.0004
   -758594.53549   -485210.36749  23495895.4584   23495901.0694   23495896.0284
       217.0004        149.0004
 -22419543.58949 -17446753.83849  20696206.9664   20696210.0944   20696207.5324
       244.0004        205.0004
 -12738729.63449  -9904123.59949  21872848.7574   21872854.2394   21872849.2934
       230.0004        176.0004
  -5248971.16749  -3717459.19449  22999243.7924   22999246.4104   22999242.3114
       227.0004        168.0004
  -7581579.28349  -5641251.42749  23075932.0154   23075939.9284   23075931.7334
       216.0004        154.0004
   3630938.96449   2851636.85749  24413922.6844   24413930.6214   24413922.0704
       207.0004        141.0004
  -9790137.49149  -7583124.49349  23089557.3444   23089564.0294   23089557.0894
       220.0004        156.0004
 -13259823.79849 -10319685.43949  22190574.1034   22190578.3014   22190573.8624
       231.0004        178.0004
 11 10 14  8  4  0.0000000  0 10G31G25G04G12G14G02G30G27G09G29
  -6738218.02849  -5237794.93849  23658660.7144   23658664.3834   23658660.4574
       217.0004        157.0004
 -23803568.07849 -18273082.70449  20303730.8654   20303736.6954   20303730.3074
       252.0004        213.0004
   -724853.84249   -458918.94949  23502315.3554   23502323.7954   23502316.4784
       216.0004        148.0004
 -22375340.66549 -17412310.04549  20704617.9034   20704621.8504   20704618.8314
       243.0004        205.0004
 -12702055.93949  -9875546.75449  21879829.1174   21879832.1614   21879828.8334
       231.0004        176.0004
  -5294659.75349  -3753060.65849  22990546.9794   22990552.1164   22990547.4044
       224.0004        167.0004
  -7679185.04649  -5717307.86949  23057359.0664   23057363.8074   23057359.9554
       218.0004        151.0004
   3727715.98349   2927047.21949  24432338.2014   24432348.5754   24432338.6074
       208.0004        141.0004
  -9676146.06349  -7494300.12949  23111248.9154   23111256.2054   23111250.6034
       217.0004        155.0004
 -13353987.46149 -10393059.71249  22172654.4274   22172660.0194   22172654.4684
       231.0004        179.0004
 11 10 14  8  4 30.0000000  0 10G31G25G04G12G14G02G30G27G09G29
  -6834094.97449  -5312504.25749  23640414.1114   23640419.2304   23640415.3494
       214.0004        157.0004
 -23824422.24649 -18289332.71849  20299761.7734   20299768.6124   20299762.0324
       252.0004        213.0004
   -690521.65149   -432166.63249  23508851.3274   23508856.0094   23508850.6134
       217.0004        148.0004
 -22330813.65449 -17377613.71149  20713091.4954   20713095.3104   20713092.0364
       244.0004        205.0004
 -12664808.30249  -9846522.67949  21886916.7684   21886921.1764   21886916.4374
       230.0004        176.0004
  -5339881.29149  -3788298.20049  22981942.7254   22981946.9254   22981942.1284
       227.0004        171.0004
  -7776642.71749  -5793248.89449  23038812.4004   23038818.5384   23038812.2024
       216.0004        149.0004
   3824626.53849   3002561.65049  24450780.1444   24450789.0244   24450780.0964
       208.0004        141.0004
  -9561947.22449  -7405314.14949  23132979.5564   23132987.8724   23132982.0154
       217.0004        156.0004
 -13447833.21149 -10466186.27149  22154796.4344   22154801.5434   22154796.4554
       230.0004        180.0004
 11 10 14  8  5  0.0000000  0 10G31G25G04G12G14G02G30G27G09G29
  -6929819.92649  -5387095.12149  23622198.1944   23622204.2704   23622198.9854
       215.0004        157.0004
 -23844898.93049 -18305288.59349  20295865.7124   20295871.7244   20295865.6364
       252.0004        214.0004
   -655599.39949   -404954.49149  23515494.0024   23515501.6214   23515495.4694
       215.0004        147.0004
 -22285964.03949 -17342665.99749  20721626.9524   20721629.4444   20721627.0034
       245.0004        204.0004
 -12626988.31749  -9817052.60349  21894113.5184   21894117.7484   21894113.1074
       230.0004        176.0004
  -5384634.37649  -3823170.71649  22973426.7914   22973430.8794   22973426.4854
       227.0004        171.0004
  -7873951.48449  -5869073.92349  23020295.5754   23020302.3664   23020295.4684
       217.0004        154.0004
   3921668.95149   3078178.81849  24469246.5674   24469256.6244   24469246.8384
       208.0004        142.0004
  -9447542.94749  -7316168.10249  23154750.7414   23154757.3994   23154751.7624
       219.0004        156.0004
 -13541359.39549 -10539063.81149  22136998.1124   22137004.1464   22136998.6514
       230.0004        179.0004
 11 10 14  8  5 30.0000000  0 10G31G25G04G12G14G02G30G27G09G29
  -7025389.99349  -5461565.31749  23604012.5724   23604016.9064   23604012.5184
       217.0004        159.0004
 -23864997.28849 -18320949.66449  20292041.0564   20292047.4104   20292040.9744
       252.0004        214.0004
   -620087.80549   -377283.15249  23522251.9404   23522259.6284   23522253.3714
       214.0004        147.0004
 -22240792.13149 -17307467.14649  20730222.3884   20730225.6414   20730222.9014
       244.0004        204.0004
 -12588596.92649  -9787137.29349  21901418.8334   21901422.7294   21901419.3004
       229.0004        175.0004
  -5428916.17549  -3857676.00149  22965000.9884   22965003.4814   22965000.9194
       228.0004        171.0004
  -7971109.56249  -5944781.48549  23001806.3154   23001812.4434   23001805.7634
       216.0004        153.0004
   4018842.22649   3153897.94649  24487739.4704   24487747.6434   24487739.0644
       208.0004        141.0004
  -9332934.89549  -7226863.27049  23176561.3064   23176566.4134   23176561.2924
       221.0004        157.0004
 -13634563.08549 -10611690.06049  22119261.9874   22119268.2774   22119262.5884
       231.0004        179.0004
 11 10 14  8  6  0.0000000  0 10G31G25G04G12G14G02G30G27G09G29
  -7120803.83849  -5535913.77049  23585856.3794   23585859.7424   23585856.3974
       219.0004        160.0004
 -23884717.33749 -18336315.94949  20288288.1974   20288294.6584   20288287.8154
       252.0004        214.0004
   -583988.04849   -349153.48849  23529122.5114   23529127.8334   23529123.3684
       216.0004        145.0004
 -22195299.09749 -17272018.06849  20738879.4564   20738882.6704   20738879.5264
       244.0004        204.0004
 -12549635.74049  -9756777.98049  21908832.3524   21908837.8444   21908832.5944
       229.0004        176.0004
  -5472725.38349  -3891813.03549  22956661.9524   22956668.2544   22956662.2994
       225.0004        169.0004
  -8068115.91749  -6020370.85749  22983348.6194   22983352.4494   22983347.5934
       217.0004        152.0004
   4116144.75649   3229717.85449  24506256.0964   24506264.2814   24506254.4144
       208.0004        140.0004
  -9218125.01649  -7137401.15849  23198407.4704   23198415.2464   23198408.3304
       218.0004        155.0004
 -13727442.88549 -10684063.92449  22101588.5404   22101594.1084   22101588.4434
       231.0004        181.0004
 11 10 14  8  6 30.0000000  0 10G31G25G04G12G14G02G30G27G09G29
  -7216060.14749  -5610139.47149  23567729.6864   23567733.4544   23567730.4984
       217.0004        161.0004
 -23904059.44549 -18351387.74149  20284606.5804   20284614.0264   20284607.0234
       251.0004        214.0004
   -547302.01349   -320566.98949  23536102.2854   23536111.1884   23536103.0994
       213.0004        145.0004
 -22149486.11149 -17236319.68349  20747597.4334   20747600.7574   20747597.6184
       244.0004        203.0004
 -12510106.91949  -9725976.35049  21916354.3284   21916359.9924   21916355.0194
       228.0004        176.0004
  -5516060.86649  -3925580.94349  22948418.2194   22948420.1694   22948416.3214
       230.0004        171.0004
  -8164970.14049  -6095841.70249  22964917.7164   22964922.7224   22964916.8044
       219.0004        153.0004
   4213574.75949   3305637.07849  24524795.9174   24524805.6944   24524796.3454
       206.0004        139.0004
  -9103116.18349  -7047784.02049  23220292.2044   23220300.4604   23220293.6004
       219.0004        156.0004
 -13819997.57549 -10756184.44849  22083974.9114   22083981.6374   22083975.2504
       230.0004        181.0004
 11 10 14  8  7  0.0000000  0 10G31G25G04G12G14G02G30G27G09G29
  -7311155.81349  -5684239.98949  23549633.7624   23549637.4254   23549633.4044
       219.0004        161.0004
 -23923022.35949 -18366164.04649  20280999.0284   20281005.5034   20280998.9374
       252.0004        214.0004
   -510029.79049   -291523.74849  23543195.8094   23543203.3024   23543196.4704
       216.0004        146.0004
 -22103353.16549 -17200371.97849  20756376.4144   20756379.5864   20756376.5144
       244.0004        203.0004
 -12470011.12749  -9694732.91749  21923985.1534   21923989.6134   21923984.7984
       230.0004        175.0004
  -5558919.38349  -3958977.18949  22940259.8964   22940265.8804   22940260.3554
       227.0004        170.0004
  -8261669.87449  -6171192.16149  22946516.4604   22946520.7864   22946515.7014
       219.0004        154.0004
   4311131.88449   3381655.38549  24543360.7274   24543368.8964   24543359.2024
       204.0004        137.0004
  -8987909.42449  -6958012.64749  23242217.2124   23242223.3034   23242216.1584
       221.0004        156.0004
 -13912224.08649 -10828049.23349  22066425.4784   22066431.0034   22066426.1154
       232.0004        182.0004
 11 10 14  8  7 30.0000000  0 10G31G25G04G12G14G02G30G27G09G29
  -7406090.16249  -5758214.78049  23531567.4224   23531572.7804   23531567.4834
       216.0004        161.0004
 -23941606.86649 -18380645.49949  20277463.1244   20277468.9674   20277462.8694
       252.0004        214.0004
   -472173.45849   -262025.33849  23550399.0464   23550408.1344   23550399.7194
       216.0004        146.0004
 -22056902.52849 -17164176.71649  20765215.5054   20765219.1664   20765216.0104
       244.0004        203.0004
 -12429350.96649  -9663049.72249  21931723.2794   21931727.5654   21931722.4204
       230.0004        174.0004
  -5601300.26149  -3992001.25249  22932197.3954   22932200.4434   22932196.1444
       228.0004        170.0004
  -8358214.97649  -6246422.09649  22928143.4124   22928149.5694   22928143.9294
       219.0004        154.0004
   4408813.83449   3457770.96349  24561946.1974   24561958.2034   24561946.3364
       195.0004        132.0004
  -8872507.80349  -6868089.43649  23264177.9924   23264184.8974   23264177.1584
       219.0004        155.0004
 -14004121.36849 -10899657.48549  22048938.3334   22048944.1024   22048939.1294
       233.0004        182.0004
 11 10 14  8  8  0.0000000  0 10G31G25G04G12G14G02G30G27G09G29
  -7500859.67249  -5832061.16949  23513533.0604   23513538.9554   23513533.8664
       218.0004        161.0004
 -23959811.71849 -18394831.11049  20273999.0864   20274004.5794   20273998.3764
       253.0004        214.0004
   -433733.51449   -232072.19149  23557716.2604   23557722.1804   23557715.9214
       217.0004        146.0004
 -22010133.37649 -17127733.27149  20774115.5064   20774118.7704   20774115.8964
       244.0004        203.0004
 -12388127.08149  -9630927.26349  21939567.7944   21939572.0744   21939566.1714
       230.0004        175.0004
  -5643200.36049  -4024650.67849  22924221.9954   22924227.5084   22924222.2894
       226.0004        170.0004
  -8454603.21949  -6321529.80949  22909800.6604   22909807.5444   22909801.6054
       218.0004        154.0004
   4506620.43949   3533983.62549  24580557.9614   24580570.7344   24580558.7964
       193.0004        128.0004
  -8756912.13049  -6778015.04649  23286173.9644   23286180.6824   23286174.3024
       219.0004        154.0004
 -14095686.80949 -10971007.16449  22031512.9614   22031518.4814   22031513.5604
       231.0004        182.0004
 11 10 14  8  8 30.0000000  0 10G31G25G04G12G14G02G30G27G09G29
  -7595463.67449  -5905778.58549  23495531.1594   23495535.4654   23495531.7954
       219.0004        163.0004
 -23977637.84949 -18408721.61949  20270605.9594   20270612.4664   20270606.0844
       252.0004        214.0004
   -394712.06849   -201665.92349  23565140.1064   23565146.6374   23565140.6804
       215.0004        144.0004
 -21963048.25749 -17091043.60749  20783075.2774   20783078.8434   20783076.1094
       244.0004        203.0004
 -12346342.26149  -9598367.71449  21947518.5264   21947522.6824   21947517.8154
       231.0004        176.0004
  -5684619.08649  -4056925.00949  22916341.7644   22916345.5964   22916341.1544
       227.0004        171.0004
  -8550834.55549  -6396515.29649  22891488.5434   22891494.0554   22891488.6304
       218.0004        155.0004
   4604549.07249   3610291.37549  24599196.8814   24599203.0424   24599194.9404
       197.0004        127.0004
  -8641125.59549  -6687791.88749  23308206.2254   23308214.3714   23308207.1434
       217.0004        152.0004
 -14186919.04449 -11042097.18949  22014152.0514   22014158.5334   22014153.2724
       232.0004        183.0004
 11 10 14  8  9  0.0000000  0 10G31G25G04G12G14G02G30G27G09G29
  -7689899.76649  -5979365.14249  23477561.3104   23477564.7974   23477561.9174
       221.0004        163.0004
 -23995084.87849 -18422316.71649  20267285.9554   20267292.4654   20267286.0134
       252.0004        214.0004
   -355110.38349   -170807.51649  23572674.4924   23572683.3274   23572676.5094
       213.0004        145.0004
 -21915647.93849 -17054108.33649  20792095.4314   20792099.2334   20792095.7434
       244.0004        202.0004
 -12303997.76949  -9565372.05549  21955576.8034   21955582.0014   21955576.6714
       228.0004        176.0004
  -5725554.72749  -4088822.91449  22908551.5404   22908556.3874   22908552.7714
       227.0004        171.0004
  -8646907.61549  -6471377.43549  22873207.6944   22873214.2264   22873206.3124
       218.0004        154.0004
   4702598.38349   3686693.19849  24617859.1614   24617864.0654   24617858.3854
       199.0004        125.0004
  -8525150.04449  -6597421.47649  23330278.4364   23330285.0654   23330277.6764
       216.0004        154.0004
 -14277816.10149 -11112926.03049  21996854.7704   21996860.6044   21996855.9394
       232.0004        183.0004
 11 10 14  8  9 30.0000000  0 10G31G25G04G12G14G02G30G27G09G29
  -7784164.87549  -6052818.47549  23459623.7334   23459627.1854   23459623.2554
       222.0004        162.0004
 -24012151.35649 -18435615.28149  20264039.1494   20264045.0624   20264038.4694
       253.0004        214.0004
   -314928.66549   -139497.16849  23580323.3644   23580329.9174   23580324.7214
       216.0004        147.0004
 -21867931.97649 -17016927.12449  20801174.9424   20801178.9494   20801175.4264
       243.0004        201.0004
 -12261094.43149  -9531940.94249  21963739.9624   21963745.3994   21963740.8794
       230.0004        175.0004
  -5766004.20049  -4120341.99449  22900853.9764   22900857.4604   22900853.8614
       226.0004        169.0004
  -8742819.98149  -6546114.32749  22854956.4384   22854962.3094   22854955.4514
       220.0004        157.0004
   4800768.30549   3763188.98449  24636537.5904   24636546.1454   24636536.7004
       192.0004        124.0004
  -8408986.43749  -6506904.52749  23352382.3194   23352389.3414   23352382.2414
       216.0004        154.0004
 -14368375.15249 -11183491.50649  21979623.8134   21979628.2164   21979624.1884
       234.0004        184.0004
 11 10 14  8 10  0.0000000  0 10G31G25G04G12G14G02G30G27G09G29
  -7878258.45249  -6126138.14949  23441718.6134   23441722.0834   23441717.6534
       222.0004        163.0004
 -24028838.51849 -18448618.28049  20260863.4264   20260869.7054   20260863.0384
       252.0004        214.0004
   -274169.41049   -107736.78449  23588078.2844   23588086.4604   23588079.0114
       212.0004        147.0004
 -21819902.76649 -16979501.81949  20810314.6704   20810318.7524   20810315.3944
       243.0004        202.0004
 -12217635.16449  -9498076.63049  21972011.5194   21972016.4434   21972010.8104
       229.0004        175.0004
  -5805967.09249  -4151481.90649  22893249.5584   22893253.4574   22893250.1364
       228.0004        169.0004
  -8838571.85949  -6620726.19249  22836734.1994   22836740.9674   22836734.5364
       217.0004        158.0004
   4899056.15449   3839776.66949  24655241.5014                   24655241.2864
       191.0004        121.0004
  -8292638.09349  -6416243.63749  23374522.2944   23374528.9554   23374522.3944
       215.0004        151.0004
 -14458595.54649 -11253793.07449  21962455.3064   21962459.6794   21962454.9134
       233.0004        183.0004
 11 10 14  8 10 30.0000000  0 10G31G25G04G12G14G02G30G27G09G29
  -7972178.25249  -6199322.40649  23423845.3144   23423849.7254   23423846.0714
       220.0004        163.0004
 -24045145.38749 -18461324.94749  20257760.7584   20257766.2944   20257760.1574
       253.0004        214.0004
   -232833.30649    -75526.91649  23595945.1904   23595953.9444   23595944.2084
       214.0004        144.0004
 -21771560.30049 -16941832.41949  20819514.5114   20819518.1044   20819514.8244
       243.0004        203.0004
 -12173620.97949  -9463779.91849  21980387.3224   21980391.3434   21980386.9244
       231.0004        177.0004
  -5845441.01049  -4182240.79949  22885738.8244   22885741.9074   22885737.1264
       228.0004        170.0004
  -8934161.23849  -6695211.43249  22818545.0194   22818551.1724   22818543.1364
       218.0004        155.0004
   4997461.30149   3916455.84549  24673966.3234                   24673964.2204
       188.0004        119.0004
  -8176106.47649  -6325439.93949  23396697.0864   23396704.9144   23396699.0464
       213.0004        150.0004
 -14548474.57449 -11323828.65049  21945350.0804   21945356.7254   21945351.1954
       232.0004        184.0004
 11 10 14  8 11  0.0000000  0 10G31G25G04G12G14G02G30G27G09G29
  -8065921.15049  -6272368.81549  23406005.4034   23406010.6904   23406006.5474
       217.0004        159.0004
 -24061071.60449 -18473734.99849  20254729.6564   20254735.5994   20254729.3594
       253.0004        214.0004
   -190921.57249    -42868.52849  23603920.5504   23603927.5304   23603921.5944
       216.0004        145.0004
 -21722905.35649 -16903919.52449  20828773.2364   20828776.7044   20828773.8204
       244.0004        203.0004
 -12129053.52949  -9429052.09249  21988867.6664   21988872.2384   21988867.2804
       232.0004        176.0004
  -5884423.78749  -4212616.99749  22878319.2204   22878323.9894   22878319.8514
       228.0004        171.0004
  -9029586.78949  -6769569.00049  22800386.4874   22800393.5924   22800385.2744
       219.0004        157.0004
   5095982.30049   3993225.28449  24692713.1654                   24692719.9854
       188.0004        118.0004
  -8059393.41649  -6234494.84849  23418907.2164   23418915.2824   23418906.9034
       213.0004        150.0004
 -14638010.30649 -11393596.73349  21928314.0204   21928318.4424   21928313.3904
       233.0004        185.0004
 11 10 14  8 11 30.0000000  0 10G31G25G04G12G14G02G30G27G09G29
  -8159486.48049  -6345276.86449  23388201.4404   23388206.3004   23388201.6294
       219.0004        161.0004
 -24076617.79549 -18485848.92749  20251771.3524   20251777.3224   20251770.9104
       253.0004        214.0004
   -148436.52549     -9763.39449  23612005.2884   23612011.8774   23612006.4254
       215.0004        144.0004
 -21673939.73349 -16865764.54749  20838091.8654   20838094.3684   20838091.9754
       244.0004        202.0004
 -12083935.35849  -9393895.13949  21997453.3454   21997458.1264   21997452.7374
       229.0004        176.0004
  -5922914.77149  -4242609.98749  22870995.9994   22870998.5934   22870995.3944
       227.0004        172.0004
  -9124848.04849  -6843798.54349  22782258.0314   22782263.7484   22782258.2964
       218.0004        160.0004
   5194617.08049      1832.30049  24711480.4814
       185.0004         74.0004
  -7942501.51849  -6143410.39249  23441151.8374   23441159.4974   23441152.6884
       212.0004        149.0004
 -14727201.59949 -11463096.42049  21911340.1324   21911345.4794   21911340.2004
       232.0004        183.0004
 11 10 14  8 12  0.0000000  0 10G31G25G04G12G14G02G30G27G09G29
  -8252871.08349  -6418044.07649  23370431.6804   23370434.8654   23370431.3034
       220.0004        164.0004
 -24091782.97149 -18497665.95749  20248885.0794   20248891.5044   20248885.0684
       252.0004        214.0004
   -105378.61549     23788.13549  23620199.0154   23620206.2354   23620199.7314
       215.0004        146.0004
 -21624663.54149 -16827367.55249  20847468.4654   20847471.8944   20847468.4724
       244.0004        202.0004
 -12038267.45349  -9358309.81749  22006143.4134   22006148.3564   22006144.0204
       230.0004        176.0004
  -5960911.41349  -4272217.74849  22863764.0774   22863768.1814   22863764.1234
       227.0004        168.0004
  -9219943.02749  -6917898.50549  22764161.5194   22764168.5534   22764160.8964
       218.0004        158.0004
   5293364.83149     78781.78849  24730271.3124
       183.0004         99.0004
  -7825431.93749  -6052187.48549  23463428.9764   23463437.0694   23463430.5664
       213.0004        148.0004
 -14816046.06049 -11532325.83949  21894433.6304   21894439.0604   21894434.3834
       232.0004        184.0004
 11 10 14  8 12 30.0000000  0 10G31G25G04G12G14G02G30G27G09G29
  -8346073.31849  -6490669.18149  23352696.5184   23352698.7424   23352696.3434
       221.0004        163.0004
 -24106567.30649 -18509186.22749  20246072.7014   20246078.1364   20246071.8564
       253.0004        214.0004
    -61749.49749     57784.75649  23628501.5404   23628507.1644   23628501.6384
       213.0004        145.0004
 -21575077.74849 -16788729.32849  20856904.3874   20856907.8324   20856904.7514
       244.0004        203.0004
 -11992051.90349  -9322297.77649  22014939.2674   22014942.5624   22014938.9044
       230.0004        177.0004
  -5998412.58149  -4301439.42049  22856628.7284   22856632.4414   22856627.9624
       227.0004        169.0004
  -9314870.85049  -6991868.21249  22746097.2644   22746104.0584   22746096.5754
       219.0004        157.0004
   5392223.77049    155831.59749  24749087.8504
       187.0004        111.0004
  -7708187.30349  -5960828.17249  23485740.7724   23485748.0244   23485740.2174
       215.0004        150.0004
 -14904541.85749 -11601283.59649  21877594.4684   21877599.4424   21877595.0764
       232.0004        185.0004
 11 10 14  8 13  0.0000000  0  9G31G25G04G12G14G02G30G09G29
  -8439092.03049  -6563151.28549  23334995.0264   23334998.1944   23334995.5184
       220.0004        163.0004
 -24120971.03449 -18520409.93049  20243331.3034   20243337.2664   20243331.0704
       253.0004        214.0004
    -17551.35049     92224.78449  23636910.9154   23636918.4504   23636912.2424
       213.0004        143.0004
 -21525183.99749 -16749851.14049  20866398.8964   20866402.1564   20866399.1394
       244.0004        202.0004
 -11945290.92449  -9285860.70849  22023837.6864   22023840.9644   22023836.3134
       230.0004        176.0004
  -6035416.75949  -4330273.84449  22849586.7184   22849590.2934   22849586.9474
       228.0004        170.0004
  -9409630.70449  -7065707.05549  22728065.5224   22728071.3524   22728065.1944
       220.0004        158.0004
  -7590770.11349  -5869334.40549  23508086.3294   23508090.9654   23508083.8624
       216.0004        150.0004
 -14992687.66749 -11669968.61449  21860820.8854   21860825.4444   21860820.4514
       234.0004        184.0004
 11 10 14  8 13 30.0000000  0 10G31G25G04G12G14G02G30G27G09G29
  -8531923.77949  -6635487.69049  23317329.0604   23317333.1734   23317329.0724
       220.0004        160.0004
 -24134993.17649 -18531336.30149  20240663.0884   20240668.9324   20240662.8624
       253.0004        214.0004
     27215.51149    127107.92249  23645431.6144   23645437.3644   23645431.1684
       215.0004        144.0004
 -21474982.21749 -16710732.92049  20875952.0524   20875955.0864   20875952.3504
       245.0004        202.0004
 -11897985.65949  -9248999.53949  22032838.7974   22032842.8074   22032839.6964
       231.0004        175.0004
  -6071921.40049  -4358719.00749  22842640.2544   22842644.8984   22842639.9904
       227.0004        171.0004
  -9504220.61349  -7139413.43649  22710065.0194   22710072.6114   22710066.5974
       219.0004        160.0004
   5590269.83549     72684.53949  24786771.8904
       174.0004         94.0004
  -7473181.58849  -5777707.11249  23530461.1934   23530468.2834   23530460.0874
       214.0004        146.0004
 -15080480.78949 -11738378.82149  21844114.7704   21844119.3354   21844114.1794
       235.0004        185.0004
 11 10 14  8 14  0.0000000  0 10G31G25G04G12G14G02G30G27G09G29
  -8624566.91649  -6707677.12949  23299700.0344   23299703.0104   23299699.2204
       220.0004        162.0004
 -24148633.96049 -18541965.49749  20238067.2594   20238073.1684   20238066.9574
       253.0004        214.0004
     72548.81849    162432.46749  23654058.4704   23654065.2104   23654056.4584
       215.0004        143.0004
 -21424473.90149 -16671375.84649  20885564.1404   20885566.5604   20885564.5084
       246.0004        203.0004
 -11850138.69549  -9211716.26149  22041943.4494   22041948.9944   22041944.0164
       229.0004        176.0004
  -6107925.52349  -4386774.16749  22835788.8724   22835792.2544   22835787.8804
       227.0004        169.0004
  -9598639.65649  -7212986.70349  22692098.2434   22692103.6614   22692098.2104
       219.0004        159.0004
   5689454.51049    149934.14049  24805654.3894
       179.0004        112.0004
  -7355424.21449  -5685948.28349  23552868.9384   23552876.8564   23552870.2694
       213.0004        147.0004
 -15167919.98349 -11806513.23549  21827473.5214   21827479.2564   21827474.2484
       233.0004        185.0004
 11 10 14  8 14 30.0000000  0 10G31G25G04G12G14G02G30G27G09G29
  -8717019.86549  -6779718.39449  23282105.4574   23282109.7224   23282105.6154
       218.0004        161.0004
 -24161893.57049 -18552297.68149  20235543.9924   20235550.1794   20235544.0414
       253.0004        214.0004
    118446.99249    198197.17149  23662791.7874   23662798.7414   23662791.4394
       215.0004        143.0004
 -21373660.24449 -16631780.84749  20895233.4464   20895236.4344   20895233.7244
       246.0004        203.0004
 -11801751.95149  -9174012.38149  22051153.5184   22051156.3464   22051152.8114
       233.0004        175.0004
  -6143427.70649  -4414438.19949  22829032.6154   22829036.8824   22829032.5224
       226.0004        170.0004
  -9692886.97149  -7286426.14249  22674163.4734   22674168.5514   22674164.1714
       220.0004        157.0004
   5788744.50959    227265.76459  24824546.9234
       181.0004        108.0004
  -7237500.16849  -5594059.55849  23575308.0484   23575317.4144   23575309.7234
       214.0004        148.0004
 -15255003.63049 -11874370.61049  21810902.3304   21810908.0894   21810903.4944
       233.0004        186.0004
 11 10 14  8 15  0.0000000  0 10G31G25G04G12G14G02G30G27G09G29
  -8809280.11749  -6851609.48349  23264549.4814   23264554.4984   23264549.9854
       219.0004        161.0004
 -24174771.13449 -18562332.16049  20233093.9904   20233099.6054   20233093.3304
       253.0004        214.0004
    164908.92849    234401.17249  23671633.5384   23671641.3034   23671633.9824
       212.0004        145.0004
 -21322541.41149 -16591948.04049  20904960.2584   20904964.0444   20904960.8254
       244.0004        202.0004
 -11752826.80649  -9135888.94649  22060461.4844   22060466.5194   22060460.8844
       228.0004        174.0004
  -6178425.92449  -4441709.51449  22822373.3544   22822376.8334   22822373.1294
       227.0004        170.0004
  -9786960.68549  -7359730.33049  22656263.4364   22656266.4944   22656262.3054
       221.0004        159.0004
   5888139.00249     67734.34449  24843461.5974
       176.0004         85.0004
  -7119410.82249  -5502042.01949  23597782.6744   23597789.0514   23597782.3224
       216.0004        148.0004
 -15341729.43549 -11941949.13249  21794400.9654   21794404.5694   21794400.6444
       235.0004        186.0004
 11 10 14  8 15 30.0000000  0 10G31G25G04G12G14G02G30G27G09G29
  -8901346.51449  -6923349.51749  23247028.9654   23247034.9844   23247029.6384
       219.0004        164.0004
 -24187267.36949 -18572069.50649  20230715.0324   20230721.3364   20230715.3324
       252.0004        214.0004
    211932.48649    271042.80849  23680581.8214   23680589.2424   23680581.9054
       215.0004        146.0004
 -21271118.99449 -16551878.67249  20914745.4444   20914749.5704   20914746.3234
       244.0004        202.0004
 -11703365.92149  -9097348.07549  22069874.6674   22069879.2034   22069873.9984
       230.0004        174.0004
  -6212919.32549  -4468587.46149  22815808.4274   22815813.9854   22815808.5354
       226.0004        172.0004
  -9880860.36049  -7432898.84949  22638392.2174   22638400.3794   22638393.2254
       218.0004        161.0004
   5987635.81659    145262.39559  24862398.5814
       171.0004        106.0004
  -7001158.91549  -5409897.87349  23620286.2474   23620292.8934   23620286.4704
       216.0004        148.0004
 -15428096.19749 -12009247.88349  21777964.6804   21777969.2994   21777965.2914
       234.0004        186.0004
 11 10 14  8 16  0.0000000  0 10G31G25G04G12G14G02G30G27G09G29
  -8993215.15249  -6994935.45649  23229547.3234   23229553.4464   23229548.1254
       221.0004        164.0004
 -24199380.83349 -18581508.58249  20228410.4444   20228416.4414   20228410.3764
       253.0004        214.0004
    259517.17049    308121.65449  23689636.8504   23689643.5074   23689637.5194
       216.0004        145.0004
 -21219392.56749 -16511572.41449  20924588.8154   20924592.9764   20924589.4474
       244.0004        203.0004
 -11653369.96949  -9058390.25449  22079388.2294   22079392.1044   22079388.2494
       229.0004        174.0004
  -6246905.09249  -4495069.85649  22809342.1604   22809345.9864   22809342.2384
       228.0004        172.0004
  -9974583.42749  -7505929.78249  22620558.0414   22620564.4394   22620560.2024
       219.0004        160.0004
   6087234.58059    222869.87759  24881345.0914
       166.0004        106.0004
  -6882745.47749  -5317627.79449  23642818.1174   23642825.6954   23642818.7874
       212.0004        147.0004
 -15514100.75949 -12076264.39149  21761598.0674   21761603.0124   21761599.0134
       235.0004        186.0004
 11 10 14  8 16 30.0000000  0  9G31G25G04G12G14G02G30G09G29
  -9084885.65049  -7066367.02249  23212103.9794   23212108.1324   23212103.8984
       222.0004        164.0004
 -24211112.80849 -18590650.40749  20226178.0874   20226184.0134   20226177.5984
       253.0004        214.0004
    307660.01949    345635.44349  23698797.4014   23698806.5864   23698799.0944
       217.0004        144.0004
 -21167364.81349 -16471031.36149  20934489.1504   20934493.5094   20934489.9994
       244.0004        202.0004
 -11602842.58149  -9019018.32949  22089002.2994   22089007.0644   22089001.8954
       229.0004        174.0004
  -6280383.16049  -4521156.65249  22802971.3084   22802975.0364   22802971.2314
       227.0004        172.0004
 -10068130.15749  -7578823.29749  22602758.1194   22602762.2044   22602756.9984
       220.0004        158.0004
  -6764173.94149  -5225234.52949  23665380.1664   23665390.2224   23665380.1314
       213.0004        144.0004
 -15599743.07949 -12142998.63349  21745301.1794   21745306.3804   21745301.5714
       235.0004        187.0004
 11 10 14  8 17  0.0000000  0  9G31G25G04G12G14G02G30G09G29
  -9176354.79349  -7137641.68649  23194697.0824   23194702.8154   23194697.5914
       221.0004        165.0004
 -24222461.95649 -18599493.92149  20224018.4894   20224024.2324   20224018.4194
       253.0004        214.0004
    356360.42749    383583.70749  23708065.3414   23708072.7464   23708065.6014
       214.0004        143.0004
 -21115035.42149 -16430255.26849  20944448.1184   20944451.5334   20944448.5534
       244.0004        202.0004
 -11551784.15249  -8979232.60449  22098719.0914   22098722.4874   22098718.9614
       228.0004        174.0004
  -6313350.83649  -4546845.72749  22796697.4134   22796701.1934   22796697.3834
       228.0004        170.0004
 -10161498.09049  -7651577.50949  22584990.4844   22584993.8234   22584989.9094
       222.0004        158.0004
  -6645445.21849  -5132718.79449  23687975.3814   23687982.9114   23687975.4644
       214.0004        145.0004
 -15685019.95849 -12209448.12249  21729073.3424   21729078.8694   21729073.9744
       235.0004        187.0004
 11 10 14  8 17 30.0000000  0  9G31G25G04G12G14G02G30G09G29
  -9267620.93349  -7208758.15449  23177331.3744   23177335.0674   23177330.6944
       223.0004        166.0004
 -24233428.69549 -18608039.44849  20221931.5534   20221937.3064   20221931.1914
       253.0004        214.0004
    405616.34649    421964.80449  23717437.8424   23717445.7874   23717439.4444
       214.0004        142.0004
 -21062405.70649 -16389245.15549  20954463.0294   20954466.6104   20954463.2944
       244.0004        202.0004
 -11500197.62849  -8939035.35649  22108535.7654   22108539.6704   22108535.1004
       228.0004        173.0004
  -6345807.27849  -4572136.43649  22790519.8734   22790525.8994   22790520.5814
       224.0004        171.0004
 -10254686.50549  -7724191.81549  22567257.4854   22567262.2714   22567257.4734
       222.0004        161.0004
  -6526561.67149  -5040082.39649  23710597.1964   23710604.9024   23710596.2634
       211.0004        145.0004
 -15769930.30449 -12275611.99449  21712914.4854   21712920.3404   21712915.7304
       234.0004        187.0004
 11 10 14  8 18  0.0000000  0  9G31G25G04G12G14G02G30G09G29
  -9358682.07749  -7279714.89449  23160003.7844   23160006.0714   23160002.8474
       224.0004        166.0004
 -24244012.96049 -18616286.94949  20219917.1794   20219923.0444   20219917.0374
       252.0004        214.0004
    455425.96549    460777.38749  23726918.2544   23726925.2864   23726918.2154
       216.0004        145.0004
 -21009476.70949 -16348001.84249  20964534.8554   20964538.4924   20964535.2984
       243.0004        201.0004
 -11448085.03749  -8898428.20949  22118452.9364   22118456.8334   22118452.1524
       228.0004        172.0004
  -6377751.05849  -4597027.67449  22784443.4694   22784446.9964   22784442.9574
       227.0004        172.0004
 -10347694.27849  -7796665.33349  22549558.8174   22549562.3864   22549557.8074
       223.0004        162.0004
  -6407525.66949  -4947327.23849  23733249.9974   23733256.7524   23733250.0094
       213.0004        145.0004
 -15854472.20749 -12341488.76949  21696828.8004   21696832.2874   21696828.9984
       237.0004        187.0004
 11 10 14  8 18 30.0000000  0  9G31G25G04G12G14G02G30G09G29
  -9449536.40049  -7350510.45649  23142713.9864   23142717.3674   23142713.6174
       224.0004        167.0004
 -24254214.68249 -18624236.36449  20217975.8944   20217981.9104   20217975.6864
       252.0004        214.0004
    505787.59849    500020.09349  23736501.1444   23736507.9924   23736501.0504
       216.0004        146.0004
 -20956249.14449 -16306525.87649  20974664.1924   20974667.4664   20974664.3694
       244.0004        202.0004
 -11395448.63349  -8857412.88349  22128468.6574   22128474.0984   22128468.3814
       227.0004        173.0004
  -6409180.89749  -4621518.42949  22778460.8364   22778465.8554   22778461.5554
       227.0004        173.0004
 -10440520.14849  -7868997.16249  22531893.0564   22531897.9864   22531894.4784
       221.0004        158.0004
  -6288339.34049  -4854454.93649  23755930.1904   23755938.7274   23755930.8034
       213.0004        144.0004
 -15938644.26349 -12407077.35449  21680810.6734   21680814.8354   21680810.7724
       236.0004        188.0004
 11 10 14  8 19  0.0000000  0  9G31G25G04G12G14G02G30G09G29
  -9540181.07349  -7421142.67549  23125464.3124   23125467.9864   23125464.2724
       222.0004        166.0004
 -24264033.35649 -18631887.29449  20216107.0754   20216113.6184   20216106.9194
       252.0004        214.0004
    556699.97049    539691.95049  23746188.0244   23746196.9044   23746189.1664
       216.0004        146.0004
 -20902723.98049 -16264818.01049  20984849.0544   20984853.1194   20984849.7214
       243.0004        201.0004
 -11342289.88449  -8815990.55449  22138584.5614   22138590.2764   22138585.6434
       227.0004        172.0004
  -6440094.46049  -4645606.90249  22772579.7324   22772583.2354   22772579.8064
       229.0004        172.0004
 -10533162.48449  -7941185.94849  22514265.4764   22514269.2474   22514264.5884
       223.0004        161.0004
  -6169004.24449  -4761466.71749  23778639.2634   23778646.1744   23778638.1154
       212.0004        145.0004
 -16022444.38849 -12472376.11349  21664863.6124   21664868.7294   21664863.9334
       236.0004        188.0004
 11 10 14  8 19 30.0000000  0  9G31G25G04G12G14G02G30G09G29
  -9630614.03549  -7491609.91649  23108254.7024   23108258.6924   23108256.1674
       222.0004        168.0004
 -24273468.52349 -18639239.39449  20214311.7384   20214318.0494   20214311.6334
       252.0004        214.0004
    608161.63549    579791.82349  23755982.5784   23755991.0554   23755981.2384
       213.0004        146.0004
 -20848901.50749 -16222878.47549  20995091.9884   20995095.2074   20995091.7804
       242.0004        201.0004
 -11288610.77549  -8774162.71049  22148798.7564   22148804.2734   22148798.6554
       226.0004        171.0004
  -6470490.00649  -4669291.70949  22766794.4634   22766798.9094   22766795.0764
       225.0004        170.0004
 -10625619.77449  -8013230.54449  22496672.2054   22496676.1274   22496670.3264
       224.0004        163.0004
  -6049522.06249  -4668363.89249  23801376.9934   23801384.2814   23801374.2564
       214.0004        148.0004
 -16105870.62649 -12537383.54249  21648987.6834   21648993.3964   21648988.6464
       236.0004        188.0004
 11 10 14  8 20  0.0000000  0  9G31G25G04G12G14G02G30G09G29
  -9720833.77949  -7561911.00049  23091086.9694   23091091.3924   23091086.9574
       223.0004        170.0004
 -24282521.12749 -18646293.39549  20212589.8954   20212595.4394   20212589.2694
       253.0004        214.0004
    660169.65449    620317.41949  23765878.4844   23765886.3884   23765880.0754
       214.0004        145.0004
 -20794783.83549 -16180708.91249  21005389.9554   21005393.7394   21005390.4204
       243.0004        201.0004
 -11234414.31149  -8731931.80149  22159113.7024   22159117.1564   22159114.0534
       228.0004        171.0004
  -6500367.80049  -4692573.08849  22761109.6754   22761113.6444   22761109.0764
       227.0004        169.0004
 -10717891.73349  -8085130.74049  22479111.8294   22479117.0604   22479111.3214
       222.0004        161.0004
  -5929896.08249  -4575149.02149  23824139.3834   23824149.1184   23824139.5494
       213.0004        147.0004
 -16188922.06749 -12602098.91749  21633183.4314   21633188.6234   21633184.6664
       235.0004        188.0004
 11 10 14  8 20 30.0000000  0  9G31G25G04G12G14G02G30G09G29
  -9810837.22649  -7632043.54549  23073958.2854   23073964.4104   23073960.2104
       219.0004        169.0004
 -24291189.95949 -18653048.34849  20210939.8554   20210945.7844   20210939.4334
       252.0004        214.0004
    712723.46649    661268.34449  23775880.3614   23775888.4834   23775880.2884
       214.0004        144.0004
 -20740370.63649 -16138309.08049  21015745.0174   21015747.9304   21015744.6904
       242.0004        200.0004
 -11179701.66949  -8689298.63649  22169524.0174   22169529.0744   22169524.0034
       225.0004        171.0004
  -6529725.41949  -4715449.12749  22755522.7014   22755525.4434   22755522.0154
       228.0004        170.0004
 -10809976.03649  -8156884.71349  22461588.3464   22461593.8804   22461588.1004
       222.0004        161.0004
  -5810127.25649  -4481822.84049  23846929.9934   23846940.6044   23846931.5154
       211.0004        145.0004
 -16271596.19249 -12666520.26749  21617452.3204   21617456.8224   21617452.1354
       237.0004        189.0004
 11 10 14  8 21  0.0000000  0  9G31G25G04G12G14G02G30G09G29
  -9900623.35349  -7702006.75849  23056872.3744   23056878.4354   23056873.1694
       219.0004        165.0004
 -24299475.70949 -18659504.79949  20209362.3584   20209369.2694   20209362.7384
       252.0004        214.0004
    765820.49849    702642.47749  23785983.7934   23785991.2244   23785984.8044
       213.0004        144.0004
 -20685663.52849 -16095680.21849  21026155.1024   21026158.4234   21026155.1094
       242.0004        200.0004
 -11124475.76649  -8646265.52949  22180034.2324   22180037.8704   22180032.7984
       226.0004        169.0004
  -6558562.11949  -4737919.26349  22750035.8184   22750038.9184   22750035.3554
       230.0004        171.0004
 -10901872.21949  -8228492.11649  22444102.5164   22444106.8014   22444101.6444
       223.0004        161.0004
  -5690218.25449  -4388387.41749  23869750.3774   23869757.9834   23869748.9974
       215.0004        145.0004
 -16353891.85749 -12730646.72149  21601791.3444   21601795.8034   21601791.6604
       235.0004        189.0004
 11 10 14  8 21 30.0000000  0  9G31G25G04G12G14G02G30G09G29
  -9990189.48749  -7771798.52749  23039829.9234   23039833.8394   23039830.4664
       224.0004        168.0004
 -24307377.92049 -18665662.38049  20207859.3064   20207865.5074   20207858.8944
       252.0004        214.0004
    819459.18449    744438.74349  23796191.8524   23796199.1524   23796192.6194
       217.0004        148.0004
 -20630663.35349 -16052822.99749  21036621.0504   21036625.1834   21036621.3954
       242.0004        200.0004
 -11068738.23849  -8602833.77149  22190640.0504   22190643.8564   22190639.9924
       225.0004        169.0004
  -6586876.03549  -4759982.05049  22744646.8164   22744651.4964   22744647.0424
       227.0004        172.0004
 -10993578.60949  -8299951.62349  22426651.0974   22426654.9804   22426649.6704
       223.0004        162.0004
  -5570170.87249  -4294844.18649  23892594.7724   23892602.3684   23892594.0134
       214.0004        148.0004
 -16435807.06449 -12794476.72049  21586202.0884   21586207.7854   21586203.2014
       234.0004        188.0004
 11 10 14  8 22  0.0000000  0  9G31G25G04G12G14G02G30G09G29
 -10079533.53749  -7841417.27649  23022827.7424   23022832.6594   23022827.6224
       222.0004        168.0004
 -24314896.62049 -18671521.12949  20206428.3124   20206434.3654   20206428.4854
       252.0004        214.0004
    873637.58849    786655.57949  23806501.0744   23806510.5564   23806501.8114
       215.0004        147.0004
 -20575370.97149 -16009738.09049  21047142.5854   21047146.7824   21047142.5834
       241.0004        200.0004
 -11012491.80949  -8559005.46049  22201343.0274   22201347.1764   22201343.2854
       226.0004        170.0004
  -6614666.21549  -4781636.69549  22739359.2674   22739362.0074   22739357.9864
       226.0004        170.0004
 -11085094.11749  -8371262.35849  22409235.0694   22409241.2964   22409234.3304
       223.0004        163.0004
  -5449987.20449  -4201194.77649  23915465.7504   23915473.2704   23915464.4574
       212.0004        146.0004
 -16517340.13049 -12858008.94649  21570687.6834   21570692.6234   21570688.6034
       235.0004        189.0004
 11 10 14  8 22 30.0000000  0  9G31G25G04G12G14G02G30G09G29
 -10168653.94149  -7910861.72849  23005868.9554   23005873.2794   23005869.3254
       222.0004        169.0004
 -24322032.04749 -18677081.21649  20205070.2174   20205076.8714   20205070.3184
       252.0004        214.0004
    928353.70349    829291.37949  23816912.3234   23816920.6484   23816912.8074
       217.0004        146.0004
 -20519787.55549 -15966426.40449  21057719.9334   21057723.8604   21057720.0634
       241.0004        199.0004
 -10955739.20749  -8514782.72249  22212143.2124   22212148.1964   22212143.6994
       227.0004        169.0004
  -6641931.42249  -4802882.27549  22734170.8344   22734174.6184   22734170.0354
       227.0004        171.0004
 -11176417.79049  -8442423.64949  22391856.9714   22391863.7594   22391856.5644
       223.0004        164.0004
  -5329669.87049  -4107441.17549  23938358.6434   23938368.4394   23938359.8364
       212.0004        145.0004
 -16598489.78949 -12921242.41849  21555246.4734   21555250.6804   21555246.1534
       236.0004        189.0004
 11 10 14  8 23  0.0000000  0  9G31G25G04G12G14G02G30G09G29
 -10257547.92049  -7980129.74049  22988952.4414   22988957.9714   22988952.8764
       222.0004        168.0004
 -24328783.34049 -18682341.97749  20203785.4634   20203791.9904   20203785.4274
       251.0004        214.0004
    983606.19549    872345.16949  23827427.6574   23827434.9234   23827426.9104
       217.0004        144.0004
 -20463913.40249 -15922888.16949  21068352.8264   21068356.4874   21068353.0164
       240.0004        199.0004
 -10898481.24749  -8470166.20149  22223037.7404   22223043.4994   22223039.4994
       225.0004        169.0004
  -6668669.98549  -4823717.49449  22729082.8454   22729086.0654   22729082.6674
       225.0004        170.0004
 -11267547.53949  -8513433.82649  22374514.6614   22374521.3544   22374514.6084
       223.0004        162.0004
  -5209220.05549  -4013584.36649  23961280.1344   23961288.8994   23961280.7604
       212.0004        144.0004
 -16679253.62649 -12984175.23649  21539876.5294   21539881.7544   21539877.0474
       235.0004        190.0004
 11 10 14  8 23 30.0000000  0  9G31G25G04G12G14G02G30G09G29
 -10346213.32749  -8049219.66749  22972079.9384   22972085.4374   22972080.7364
       223.0004        168.0004
 -24335150.79849 -18687303.64749  20202573.9764   20202580.3614   20202573.6614
       252.0004        214.0004
   1039392.95949    915815.26849  23838043.6964   23838050.5684   23838042.1764
       216.0004        145.0004
 -20407749.76449 -15879124.35949  21079039.2354   21079044.2164   21079040.3074
       240.0004        199.0004
 -10840720.67949  -8425158.04849  22234031.1914   22234035.1474   22234030.0404
       227.0004        167.0004
  -6694880.84649  -4844141.50949  22724093.8604   22724098.8874   22724094.5724
       224.0004        171.0004
 -11358482.46949  -8584292.19749  22357211.9884   22357216.8474   22357211.7054
       225.0004        164.0004
  -5088640.17349  -3919626.23249  23984226.7064   23984235.2084   23984226.1344
       211.0004        144.0004
 -16759630.61949 -13046806.62349  21524581.6174   21524586.6104   21524581.1124
       236.0004        189.0004
 11 10 14  8 24  0.0000000  0  9G31G25G04G12G14G02G30G09G29
 -10434647.20749  -8118129.18249  22955251.9564   22955256.7684   22955252.1934
       223.0004        169.0004
 -24341133.88849 -18691965.82049  20201435.5854   20201442.0344   20201435.1884
       252.0004        214.0004
   1095712.31449    959700.41649  23848761.8704   23848771.2404   23848762.2914
       216.0004        148.0004
 -20351297.19749 -15835135.40949  21089782.4224   21089786.8864   21089782.6564
       240.0004        198.0004
 -10782459.66449  -8379759.91449  22245116.0564   22245122.2554   22245116.8654
       224.0004        167.0004
  -6720562.44549  -4864153.11649  22719208.3934   22719211.4364   22719206.9714
       228.0004        171.0004
 -11449220.83649  -8654997.41549  22339945.5654   22339949.9854   22339944.0084
       224.0004        165.0004
  -4967931.56349  -3825567.77349  24007196.2434   24007206.2104   24007196.9444
       210.0004        143.0004
 -16839618.68749 -13109134.98249  21509360.2774   21509365.4554   21509360.2134
       236.0004        190.0004
 11 10 14  8 24 30.0000000  0  9G31G25G04G12G14G02G30G09G29
 -10522848.93449  -8186857.79249  22938467.9664   22938472.7364   22938468.7194
       223.0004        169.0004
 -24346733.19649 -18696328.93049  20200369.7024   20200376.6944   20200369.3704
       251.0004        214.0004
   1152562.13749   1003998.88649  23859578.4524   23859587.5284   23859579.4274
       216.0004        145.0004
 -20294557.23549 -15790922.50649  21100580.4404   21100584.2424   21100580.2464
       241.0004        198.0004
 -10723700.84249  -8333973.88449  22256299.1154   22256303.7604   22256298.5894
       227.0004        168.0004
  -6745713.82549  -4883751.57649  22714422.0104   22714424.4504   22714422.2954
       229.0004        172.0004
 -11539762.07249  -8725548.99949  22322714.0904   22322720.1454   22322715.1494
       224.0004        166.0004
  -4847097.29049  -3731411.40249  24030190.2934   24030200.4074   24030189.1404
       206.0004        142.0004
 -16919216.60849 -13171159.30849  21494212.7504   21494218.4464   21494213.1424
       236.0004        190.0004
 11 10 14  8 25  0.0000000  0  9G31G25G04G12G14G02G30G09G29
 -10610816.20249  -8255403.68549  22921728.7884   22921733.0744   22921729.3434
       225.0004        171.0004
 -24351948.70749 -18700392.98149  20199376.6684   20199383.9864   20199376.9144
       251.0004        213.0004
   1209939.99649   1048708.85249  23870498.1824   23870506.5404   23870497.6864
       216.0004        142.0004
 -20237530.74749 -15746486.33949  21111431.8194   21111435.8254   21111432.2584
       241.0004        198.0004
 -10664446.91649  -8287802.05849  22267574.0404   22267578.9174   22267573.9394
       225.0004        168.0004
  -6770334.31649  -4902936.34349  22709735.0864   22709739.3714   22709735.4044
       227.0004        172.0004
 -11630104.96649  -8795946.05249  22305523.3654   22305527.9314   22305522.5734
       223.0004        165.0004
  -4726139.40249  -3637158.70749  24053207.1614   24053218.3694   24053209.5244
       206.0004        142.0004
