     2.11           OBSERVATION DATA    G (GPS)             RINEX VERSION / TYPE
teqc  2012Jun6                          20151118 02:04:18UTCPGM / RUN BY / DATE
OSX ker:10.8.0|Core 2 Duo|gcc 4.2 -m64|OSX ker:10.8.0+|=+   COMMENT
Linux 2.4.21-27.ELsmp|Opteron|gcc -static|Linux x86_64|=+   COMMENT
HEADER CHANGED BY EPN CB ON 2011-10-15                      COMMENT
TO BE CONFORM WITH THE INFORMATION IN                       COMMENT
ftp://epncb.oma.be/pub/station/log/brus.log                 COMMENT
                                                            COMMENT
teqc  2010Oct21                         20111015 00:01:18UTCCOMMENT
teqc  2010Oct21                         20111015 00:01:03UTCCOMMENT
teqc  2010Oct21                         20111014 01:01:02UTCCOMMENT
BIT 2 OF LLI FLAGS DATA COLLECTED UNDER A/S CONDITION       COMMENT
 SNR is mapped to RINEX snr flag value [0-9]                COMMENT
  L1 & L2: min(max(int(snr_dBHz/6), 0), 9)                  COMMENT
pseudorange smoothing corrections not applied               COMMENT
COORDINATES IN ETRF2000                                     COMMENT
Forced Modulo Decimation to 30 seconds                      COMMENT
BRUS                                                        MARKER NAME
13101M004                                                   MARKER NUMBER
Carine Bruyninx     ROB                                     OBSERVER / AGENCY
RT919994505         ASHTECH Z-XII3T     1L01-1D04           REC # / TYPE / VERS
CR519994604         ASH701945B_M    NONE                    ANT # / TYPE
  4027894.0130   307045.5980  4919474.9120                  APPROX POSITION XYZ
        3.9702        0.0000        0.0000                  ANTENNA: DELTA H/E/N
     1     1                                                WAVELENGTH FACT L1/2
     7    L1    L2    C1    P2    P1    S1    S2            # / TYPES OF OBSERV
    30.0000                                                 INTERVAL
teqc windowed: start @ 2011 Oct 14 12:00:00.000             COMMENT
teqc windowed: delta = 14400.000 sec                        COMMENT
  2011    10    14    12     0    0.0000000     GPS         TIME OF FIRST OBS
                                                            END OF HEADER
 11 10 14 12  0  0.0000000  0  9G31G05G16G03G06G18G30G21G29
  -7110950.81749  -5528249.76349  23587742.3854   23587748.6124   23587741.9954
       218.0004        157.0004
   1407520.42349   1104729.65749  24645876.8744   24645889.1384   24645878.8754
       195.0004        131.0004
 -14892821.30449 -11562498.72549  21592859.5254   21592864.3394   21592859.2954
       236.0004        185.0004
  -7181432.85149  -5319731.03349  22672170.1054   22672177.0174   22672169.6784
       215.0004        153.0004
 -12762778.58649  -9922798.27549  21994235.6394   21994241.9124   21994235.2334
       230.0004        176.0004
   -925446.57349   -488679.69349  24243025.4774   24243035.7564   24243023.7704
       202.0004        135.0004
 -15373790.14649 -11713109.16749  21593127.7874   21593134.8934   21593127.4544
       233.0004        183.0004
 -19616181.88149 -15262204.14449  21019803.0584   21019806.6124   21019802.7994
       239.0004        198.0004
 -11008843.16149  -8565680.40949  22618923.9264   22618930.7384   22618924.8574
       224.0004        172.0004
 11 10 14 12  0 30.0000000  0  9G31G05G16G03G06G18G30G21G29
  -7009448.02349  -5449156.78649  23607055.4854   23607062.2124   23607056.5714
       213.0004        153.0004
   1465156.11749   1149640.54549  24656849.3374   24656857.1634   24656850.5054
       202.0004        134.0004
 -14959709.38549 -11614619.26049  21580130.8534   21580135.3344   21580130.6704
       233.0004        184.0004
  -7279676.15249  -5396284.16649  22653474.2964   22653483.6154   22653474.2434
       217.0004        154.0004
 -12834493.39949  -9978679.85849  21980587.6464   21980594.2524   21980588.3734
       229.0004        178.0004
  -1014461.63949   -558041.90249  24226086.4724   24226095.3844   24226086.1814
       207.0004        135.0004
 -15283154.46249 -11642484.02949  21610375.5504   21610382.6084   21610375.2404
       234.0004        182.0004
 -19629852.84049 -15272856.81049  21017202.2294   21017205.2954   21017201.5604
       240.0004        199.0004
 -10924692.84349  -8500108.79749  22634938.2314   22634944.6464   22634938.5824
       224.0004        171.0004
 11 10 14 12  1  0.0000000  0  9G31G05G16G03G06G18G30G21G29
  -6907771.30849  -5369928.32549  23626406.6104   23626414.0834   23626406.2154
       218.0004        160.0004
   1523277.31049   1194929.74949  24667908.9914   24667917.5534   24667910.0874
       202.0004        138.0004
 -15026237.59749 -11666459.35649  21567469.4744   21567475.7664   21567469.2664
       232.0004        183.0004
  -7377745.77049  -5472701.96749  22634813.7534   22634820.1794   22634812.4624
       218.0004        155.0004
 -12905968.94049 -10034374.99849  21966986.2924   21966993.0224   21966986.4974
       230.0004        177.0004
  -1103353.12349   -627307.76849  24209171.0254   24209181.3914   24209170.8414
       207.0004        136.0004
 -15192149.10149 -11571570.83249  21627693.4844   21627699.9694   21627693.7984
       234.0004        182.0004
 -19643057.73049 -15283146.31049  21014688.4224   21014692.4854   21014688.4074
       239.0004        199.0004
 -10840383.85049  -8434413.55549  22650982.8104   22650988.1494   22650982.9094
       226.0004        172.0004
 11 10 14 12  1 30.0000000  0  9G31G05G16G03G06G18G30G21G29
  -6805922.86449  -5290566.03149  23645787.2354   23645793.6104   23645786.8534
       216.0004        155.0004
   1581882.12849   1240595.79849  24679060.1334   24679071.1114   24679059.1744
       200.0004        136.0004
 -15092403.80549 -11718017.39349  21554880.5724   21554884.3104   21554880.2844
       235.0004        186.0004
  -7475639.26149  -5548982.48849  22616183.6664   22616192.4384   22616184.2574
       217.0004        156.0004
 -12977203.88649 -10089882.68049  21953431.6474   21953438.0994   21953431.7994
       231.0004        179.0004
  -1192117.15949   -696474.37049  24192278.1794   24192286.9514   24192277.8274
       207.0004        135.0004
 -15100775.76749 -11500370.88949  21645081.7014   21645088.0234   21645081.1684
       234.0004        182.0004
 -19655796.38949 -15293072.51449  21012264.9494   21012268.7954   21012264.7904
       240.0004        199.0004
 -10755917.02149  -8368595.29649  22667055.7244   22667062.3734   22667056.2954
       226.0004        171.0004
 11 10 14 12  2  0.0000000  0  9G31G05G16G03G06G18G30G21G29
  -6703905.56949  -5211072.17849  23665198.5364   23665205.2194   23665199.5254
       209.0004        152.0004
   1640968.57649   1286637.13849  24690304.6714   24690312.0044   24690305.2604
       201.0004        135.0004
 -15158206.16549 -11769291.91649  21542358.0924   21542362.6764   21542358.1134
       234.0004        186.0004
  -7573356.06449  -5625125.33649  22597589.1214   22597597.8404   22597590.1624
       219.0004        160.0004
 -13048197.29849 -10145202.12149  21939921.3614   21939928.5794   21939921.3514
       229.0004        178.0004
  -1280751.54849   -765539.91149  24175413.4404   24175421.1654   24175410.7784
       200.0004        133.0004
 -15009036.42049 -11428885.75449  21662539.2034   21662545.4334   21662538.7294
       233.0004        182.0004
 -19668069.23149 -15302635.73449  21009928.7114   21009933.2684   21009928.5154
       239.0004        199.0004
 -10671293.29349  -8302654.79049  22683158.6154   22683165.3024   22683158.6514
       223.0004        170.0004
 11 10 14 12  2 30.0000000  0  9G31G05G16G03G06G18G30G21G29
  -6601722.58749  -5131449.17649  23684645.6914   23684652.0744   23684645.4844
       217.0004        156.0004
   1700534.94249   1333052.42949  24701639.7834   24701647.2364   24701639.3814
       201.0004        132.0004
 -15223642.79149 -11820281.42849  21529904.9634   21529910.6354   21529904.9004
       233.0004        185.0004
  -7670894.43049  -5701129.16049  22579027.8904   22579035.6054   22579028.3044
       217.0004        155.0004
 -13118948.59149 -10200332.92449  21926458.0784   21926464.6284   21926458.5864
       231.0004        178.0004
  -1369253.65549   -834502.33249  24158571.2314   24158582.4554   24158568.7644
       202.0004        132.0004
 -14916932.91649 -11357116.85549  21680064.8954   21680071.3854   21680065.5974
       233.0004        181.0004
 -19679876.16849 -15311835.92649  21007682.6374   21007686.0844   21007682.2084
       239.0004        199.0004
 -10586513.41349  -8236592.63949  22699293.4464   22699298.6334   22699292.6724
       224.0004        170.0004
 11 10 14 12  3  0.0000000  0  9G31G05G16G03G06G18G30G21G29
  -6499376.66449  -5051699.26649  23704119.7934   23704129.7374   23704119.2734
       213.0004        156.0004
   1760579.06749   1379840.00149  24713065.7604   24713076.4064   24713066.4904
       200.0004        131.0004
 -15288711.30649 -11870984.11649  21517522.9524   21517528.0334   21517523.3424
       234.0004        185.0004
  -7768253.35349  -5776993.14549  22560501.1914   22560509.0344   22560500.5774
       219.0004        156.0004
 -13189456.97349 -10255274.42649  21913040.2954   21913047.2974   21913040.4724
       231.0004        179.0004
  -1457621.05549   -903359.82149  24141756.6984   24141762.0134   24141754.8064
       203.0004        132.0004
 -14824467.32749 -11285065.80849  21697661.5964   21697667.9154   21697660.7084
       233.0004        180.0004
 -19691217.15549 -15320673.02549  21005523.6654   21005527.9294   21005523.6094
       238.0004        199.0004
 -10501578.83249  -8170409.90749  22715454.2724   22715460.4834   22715454.6564
       223.0004        169.0004
 11 10 14 12  3 30.0000000  0  9G31G05G16G03G06G18G30G21G29
  -6396870.69149  -4971824.64749  23723625.0154   23723634.0924   23723627.0664
       211.0004        151.0004
   1821098.85749   1426998.22749  24724582.0434   24724590.2314   24724581.4724
       196.0004        132.0004
 -15353410.18649 -11921398.79449  21505211.7584   21505216.0464   21505211.8984
       235.0004        186.0004
  -7865431.64049  -5852716.35349  22542008.0654   22542017.7674   22542007.7064
       216.0004        159.0004
 -13259721.89249 -10310026.23649  21899669.1814   21899676.4874   21899669.3064
       230.0004        179.0004
  -1545851.02849   -972110.22249  24124963.1844   24124973.1284   24124964.1904
       204.0004        133.0004
 -14731641.82549 -11212734.30749  21715325.8544   21715331.8444   21715325.4094
       232.0004        181.0004
 -19702092.58249 -15329147.36149  21003455.3904   21003458.3714   21003454.5754
       239.0004        199.0004
 -10416490.58649  -8104107.43749  22731645.7914   22731653.7244   22731647.1264
       224.0004        170.0004
 11 10 14 12  4  0.0000000  0  9G31G05G16G03G06G18G30G21G29
  -6294207.33849  -4891827.34749  23743163.0364   23743170.2954   23743162.9764
       215.0004        152.0004
   1882092.82649   1474525.94149  24736186.8904   24736195.6494   24736185.4334
       193.0004        129.0004
 -15417736.61049 -11971523.22549  21492970.2744   21492975.7634   21492970.1614
       234.0004        187.0004
  -7962427.91549  -5928297.73449  22523549.1064   22523560.1064   22523549.8884
       217.0004        160.0004
 -13329742.00349 -10364587.28849  21886344.8334   21886351.4564   21886345.6944
       231.0004        179.0004
  -1633940.15449  -1040750.84849  24108203.4994   24108211.3444   24108202.9754
       208.0004        138.0004
 -14638457.87849 -11140123.50549  21733057.0954   21733064.8224   21733056.9814
       232.0004        179.0004
 -19712502.23049 -15337258.75749  21001473.4484   21001477.5444   21001473.5534
       238.0004        199.0004
 -10331249.10449  -8037685.59849  22747868.7124   22747875.1564   22747868.5734
       224.0004        171.0004
 11 10 14 12  4 30.0000000  0  9G31G05G16G03G06G18G30G21G29
  -6191389.42049  -4811709.59249  23762728.9044   23762737.5574   23762730.1254
       213.0004        153.0004
   1943558.43349   1522421.13849  24747887.4834   24747894.3124   24747886.2234
       204.0004        134.0004
 -15481689.14249 -12021356.30749  21480800.9694   21480805.8414   21480800.5104
       235.0004        187.0004
  -8059240.35649  -6003735.87149  22505126.9084   22505134.1834   22505127.1924
       217.0004        155.0004
 -13399516.68049 -10418957.07049  21873067.4354   21873072.7734   21873067.2544
       230.0004        179.0004
  -1721886.35849  -1109280.10449  24091466.8304   24091475.3984   24091466.6694
       207.0004        139.0004
 -14544917.56049 -11067235.00149  21750858.3334   21750864.7024   21750857.4784
       231.0004        179.0004
 -19722446.57349 -15345007.56649  20999581.8574   20999585.3864   20999581.4194
       240.0004        199.0004
 -10245855.88949  -7971145.50449  22764116.5294   22764123.9044   22764117.5644
       222.0004        169.0004
 11 10 14 12  5  0.0000000  0  9G31G05G16G03G06G18G30G21G29
  -6088420.21249  -4731474.08749  23782321.5304   23782332.2814   23782322.1514
       210.0004        151.0004
   2005493.46449   1570682.13749  24759671.5404   24759681.1554   24759672.3474
       200.0004        135.0004
 -15545265.94149 -12070896.62549  21468703.3504   21468707.2364   21468702.9484
       237.0004        187.0004
  -8155868.38349  -6079030.31349  22486740.1554   22486748.6964   22486740.9314
       218.0004        160.0004
 -13469045.63349 -10473135.39349  21859835.6814   21859841.8194   21859836.0274
       229.0004        178.0004
  -1809687.06249  -1177696.01749  24074757.3164   24074766.2044   24074758.1204
       208.0004        139.0004
 -14451023.33949 -10994070.73549  21768726.4604   21768731.6754   21768725.5894
       231.0004        179.0004
 -19731925.93749 -15352394.06349  20997777.5284   20997781.1614   20997776.8994
       239.0004        199.0004
 -10160312.32049  -7904488.25649  22780394.7784   22780402.8474   22780395.9174
       222.0004        168.0004
 11 10 14 12  5 30.0000000  0  9G31G05G16G03G06G18G30G21G29
  -5985302.39749  -4651122.60249  23801947.2744   23801954.6484   23801946.9824
       215.0004        152.0004
   2067896.40349   1619307.75449  24771544.4054   24771553.9204   24771548.4084
       201.0004        132.0004
 -15608464.61849 -12120142.30049  21456677.3824   21456681.0614   21456676.5164
       237.0004        188.0004
  -8252310.34549  -6154179.73249  22468388.8634   22468397.3734   22468388.7144
       220.0004        161.0004
 -13538327.33849 -10527121.04649  21846652.0424   21846659.0204   21846652.2754
       230.0004        179.0004
  -1897339.37149  -1245996.28349  24058079.0154   24058086.4234   24058078.0094
       209.0004        141.0004
 -14356776.69549 -10920631.84449  21786659.3424   21786667.2074   21786659.6184
       230.0004        179.0004
 -19740939.99349 -15359417.98349  20996062.8054   20996065.5654   20996062.6254
       240.0004        199.0004
 -10074618.67449  -7837714.06649  22796704.0034   22796709.4304   22796702.8134
       224.0004        167.0004
 11 10 14 12  6  0.0000000  0  9G31G05G16G03G06G18G30G21G29
  -5882039.36049  -4570658.08849  23821593.4394   23821604.2184   23821596.5844
       210.0004        150.0004
   2130764.81749   1668296.08649  24783510.8564   24783515.5904   24783510.6324
       198.0004        131.0004
 -15671283.79349 -12169092.24749  21444721.7594   21444726.8394   21444721.5014
       236.0004        187.0004
  -8348565.39649  -6229183.52749  22450070.6044   22450080.0774   22450071.8644
       220.0004        162.0004
 -13607361.87949 -10580914.11149  21833515.9974   21833522.3974   21833515.7924
       232.0004        180.0004
  -1984841.07849  -1314179.16349  24041427.1074   24041435.0714   24041428.4614
       210.0004        141.0004
 -14262180.33549 -10846920.44649  21804661.1564   21804667.5604   21804660.2624
       230.0004        178.0004
 -19749489.82749 -15366080.16749  20994435.2654   20994438.6514   20994434.8504
       238.0004        199.0004
  -9988776.64949  -7770824.25949  22813037.9314   22813044.7044   22813037.8594
       222.0004        166.0004
 11 10 14 12  6 30.0000000  0  9G31G05G16G03G06G18G30G21G29
  -5778632.47249  -4490081.40349  23841273.3734   23841283.6504   23841273.5914
       213.0004        152.0004
   2194097.50149   1717646.12649  24795561.3794   24795571.3494   24795560.5024
       200.0004        129.0004
 -15733719.73849 -12217743.57949  21432841.2224   21432846.1224   21432841.1214
       237.0004        189.0004
  -8444630.88349  -6304039.62249  22431790.2874   22431798.2214   22431790.6444
       221.0004        161.0004
 -13676147.04549 -10634512.87149  21820425.3724   21820430.9614   21820425.6514
       230.0004        180.0004
  -2072187.64349  -1382241.09349  24024807.0894   24024813.6504   24024804.1784
       212.0004        139.0004
 -14167234.72449 -10772936.91949  21822730.0234   21822734.5414   21822729.0414
       230.0004        177.0004
 -19757574.19849 -15372379.66649  20992896.7434   20992900.1694   20992896.5734
       239.0004        199.0004
  -9902785.50349  -7703818.23049  22829401.3074   22829407.9224   22829402.0634
       223.0004        166.0004
 11 10 14 12  7  0.0000000  0  9G31G05G16G03G06G18G30G21G29
  -5675086.28749  -4409396.22349  23860978.2734   23860985.9244   23860978.1894
       213.0004        154.0004
   2257890.85949   1767355.17749  24807700.3064   24807711.6144   24807703.3224
       200.0004        131.0004
 -15795772.68649 -12266096.47249  21421033.8664   21421037.0844   21421033.0564
       238.0004        190.0004
  -8540507.01749  -6378748.16049  22413543.6304   22413554.2894   22413546.1574
       220.0004        161.0004
 -13744683.45749 -10687917.79149  21807383.5384   21807389.9524   21807384.1324
       232.0004        180.0004
  -2159378.61749  -1450181.82749  24008214.5554   24008223.8724   24008213.9984
       210.0004        138.0004
 -14071943.63449 -10698684.16649  21840860.9644   21840868.8694   21840860.7294
       226.0004        177.0004
 -19765194.64149 -15378317.65549  20991446.4524   20991450.4484   20991446.4854
       239.0004        199.0004
  -9816648.60549  -7636698.64049  22845793.4254   22845799.7284   22845793.8614
       222.0004        167.0004
 11 10 14 12  7 30.0000000  0  9G31G05G16G03G06G18G30G21G29
  -5571403.04549  -4328604.20349  23880708.7714   23880714.6084   23880709.8454
       216.0004        149.0004
   2322143.79049   1817422.35649  24819927.1394   24819934.4754   24819928.7674
       199.0004        132.0004
 -15857439.92049 -12314148.80549  21409297.6074   21409301.5964   21409297.0104
       237.0004        187.0004
  -8636192.10249  -6453307.83949  22395337.9144   22395346.3014   22395337.6474
       223.0004        164.0004
 -13812969.81149 -10741127.85749  21794389.1474   21794395.2564   21794388.9664
       230.0004        180.0004
  -2246410.56649  -1517998.66349  23991650.9074   23991661.0214   23991651.4204
       208.0004        139.0004
 -13976308.45749 -10624163.30049  21859060.4924   21859067.7334   21859060.4454
       229.0004        177.0004
 -19772351.05449 -15383894.05549  20990085.2724   20990088.3354   20990084.6534
       240.0004        199.0004
  -9730365.90349  -7569465.43649  22862211.9024   22862218.3014   22862212.9804
       223.0004        168.0004
 11 10 14 12  8  0.0000000  0  9G31G05G16G03G06G18G30G21G29
  -5467585.51349  -4247707.58149  23900466.8134   23900472.9244   23900466.0544
       216.0004        153.0004
   2386854.29849   1867846.13549  24832242.3504   24832252.0224   24832243.8274
       200.0004        135.0004
 -15918718.90949 -12361898.60749  21397636.1394   21397641.1244   21397636.4934
       236.0004        188.0004
  -8731684.17549  -6527717.10849  22377164.8504   22377173.7534   22377166.3024
       223.0004        163.0004
 -13881005.08049 -10794142.27349  21781442.6784   21781448.3994   21781442.2204
       231.0004        180.0004
  -2333280.53149  -1585689.25849  23975120.7534   23975127.9504   23975120.1084
       209.0004        139.0004
 -13880330.85249 -10549375.62549  21877325.1874   21877331.6714   21877324.5164
       228.0004        176.0004
 -19779043.27349 -15389108.75149  20988811.4694   20988814.7414   20988811.1074
       239.0004        199.0004
  -9643938.16849  -7502119.23349  22878659.5244   22878666.2894   22878660.2164
       223.0004        170.0004
 11 10 14 12  8 30.0000000  0  9G31G05G16G03G06G18G30G21G29
  -5363636.54149  -4166708.50249  23920246.9344   23920254.7454   23920247.2174
       218.0004        159.0004
   2452019.92349   1918624.53549  24844641.8094   24844651.4294   24844642.5074
       198.0004        133.0004
 -15979608.02249 -12409344.62149  21386050.7684   21386054.2594   21386050.1684
       238.0004        190.0004
  -8826982.47349  -6601975.41049  22359030.0334   22359038.0394   22359030.2604
       220.0004        159.0004
 -13948788.65749 -10846960.58349  21768544.1834   21768549.3654   21768543.7724
       232.0004        181.0004
  -2419986.00149  -1653251.66449  23958621.7264   23958628.0844   23958621.4414
       214.0004        139.0004
 -13784013.14849 -10474322.92349  21895654.4034   21895661.2124   21895653.1114
       230.0004        177.0004
 -19785271.76349 -15393962.10449  20987626.0264   20987629.4624   20987625.9724
       239.0004        199.0004
  -9557366.42349  -7434660.81949  22895132.5054   22895140.3964   22895133.5854
       222.0004        167.0004
 11 10 14 12  9  0.0000000  0  9G31G05G16G03G06G18G30G21G29
  -5259558.68949  -4085609.10849  23940048.9544   23940060.4074   23940051.8024
       213.0004        152.0004
   2517638.90049   1969756.14649  24857130.5194   24857139.1664   24857129.3424
       203.0004        133.0004
 -16040105.15049 -12456485.17549  21374537.0954   21374542.1574   21374537.0064
       237.0004        189.0004
  -8922085.17849  -6676081.30649  22340933.0714   22340942.1464   22340933.3724
       222.0004        162.0004
 -14016319.48049 -10899581.92849  21755692.6534   21755698.6964   21755692.6004
       231.0004        181.0004
  -2506524.29049  -1720683.80349  23942152.5574   23942160.2014   23942152.1444
       210.0004        139.0004
 -13687357.20249 -10399006.65849  21914046.8624   21914052.8584   21914046.2054
       229.0004        175.0004
 -19791036.51049 -15398454.09549  20986529.9364   20986532.9584   20986528.9254
       240.0004        199.0004
  -9470651.75549  -7367091.02549  22911632.8124   22911640.7754   22911634.2374
       220.0004        167.0004
 11 10 14 12  9 30.0000000  0  9G31G05G16G03G06G18G30G21G29
  -5155355.27349  -4004411.71449  23959881.8104   23959888.8534   23959881.2414
       216.0004        149.0004
   2583708.43049   2021238.85149  24869702.8354   24869711.9954   24869703.4994
       202.0004        133.0004
 -16100208.07849 -12503318.56749  21363100.2704   21363104.2264   21363099.9404
       237.0004        188.0004
  -9016991.01149  -6750033.77949  22322873.0654   22322881.5784   22322872.9314
       221.0004        164.0004
 -14083596.91549 -10952005.83249  21742890.2044   21742896.3204   21742890.5264
       232.0004        181.0004
  -2592892.74249  -1787983.61549  23925716.9664   23925725.9634   23925716.8264
       211.0004        140.0004
 -13590365.17649 -10323428.51149  21932503.0364   21932510.2234   21932502.6934
       229.0004        175.0004
 -19796338.28249 -15402585.32449  20985519.7574   20985523.7584   20985519.7004
       238.0004        199.0004
  -9383795.28149  -7299410.70749  22928161.6154   22928168.9894   22928162.5804
       220.0004        166.0004
 11 10 14 12 10  0.0000000  0  9G31G05G16G03G06G18G30G21G29
  -5051029.10749  -3923118.76949  23979735.4084   23979742.3724   23979735.7424
       219.0004        155.0004
   2650226.60749   2073071.15749  24882359.9144   24882368.1174   24882361.4474
       198.0004        130.0004
 -16159915.24049 -12549843.58049  21351738.3064   21351742.6914   21351739.0164
       238.0004        189.0004
  -9111699.39549  -6823832.38549  22304850.8174   22304858.5454   22304850.7274
       223.0004        163.0004
 -14150620.40449 -11004231.86049  21730135.9654   21730142.8554   21730136.0764
       232.0004        182.0004
  -2679088.76949  -1855149.11049  23909315.7334   23909323.4154   23909315.0724
       212.0004        142.0004
 -13493039.22349 -10247590.17649  21951024.8674   21951031.1234   21951023.2904
       229.0004        175.0004
 -19801177.40949 -15406356.05549  20984599.3794   20984603.4004   20984599.4164
       239.0004        200.0004
  -9296797.88849  -7231620.60749  22944717.0814   22944724.0074   22944716.8554
       221.0004        167.0004
 11 10 14 12 10 30.0000000  0  9G31G05G16G03G06G18G30G21G29
  -4946582.90649  -3841732.29849  23999610.1524   23999618.5954   23999609.5564
       212.0004        150.0004
   2717191.64949   2125251.65949  24895106.6094   24895110.8574   24895102.8864
       199.0004        129.0004
 -16219224.48949 -12596058.51149  21340452.7834   21340456.5124   21340452.1054
       238.0004        190.0004
  -9206208.19449  -6897475.49949  22286866.3274   22286872.8174   22286866.2724
       222.0004        162.0004
 -14217388.71549 -11056259.04649  21717429.8704   21717436.5234   21717430.5914
       231.0004        182.0004
  -2765109.49549  -1922177.96649  23892944.1604   23892953.1214   23892944.0904
       211.0004        141.0004
 -13395381.10149 -10171493.00349  21969608.1384   21969614.7124   21969607.0434
       228.0004        175.0004
 -19805553.87949 -15409766.27149  20983766.9224   20983770.0164   20983766.2474
       239.0004        199.0004
  -9209660.31449  -7163721.26449  22961299.0104   22961306.0654   22961299.5644
       222.0004        167.0004
 11 10 14 12 11  0.0000000  0  9G31G05G16G03G06G18G30G21G29
  -4842020.06449  -3760254.96649  24019507.9134   24019515.2934   24019507.7094
       215.0004        152.0004
   2784600.58449   2177778.06049  24907932.3634   24907940.5464   24907929.6864
       195.0004        130.0004
 -16278134.32949 -12641962.22449  21329242.1074   21329246.1204   21329241.5404
       237.0004        189.0004
  -9300516.91649  -6970962.72649  22268919.2324   22268926.3804   22268919.6084
       223.0004        162.0004
 -14283901.67149 -11108087.26149  21704773.4814   21704779.8674   21704773.4554
       232.0004        183.0004
  -2850952.84349  -1989068.66649  23876610.7464   23876616.1044   23876609.9624
       212.0004        140.0004
 -13297393.50549 -10095139.09149  21988253.4274   21988260.8454   21988253.2724
       228.0004        174.0004
 -19809468.43049 -15412816.54749  20983022.4014   20983024.9474   20983021.4094
       241.0004        199.0004
  -9122384.10049  -7095713.89649  22977907.6084   22977914.5574   22977907.6864
       223.0004        167.0004
 11 10 14 12 11 30.0000000  0  9G31G05G16G03G06G18G30G21G29
  -4737342.16049  -3678687.86949  24039425.9784   24039431.6914   24039424.7844
       210.0004        142.0004
   2852452.22849   2230649.43949  24920843.9964   24920853.9434   24920842.6624
       204.0004        132.0004
 -16336641.72349 -12687552.33549  21318108.2324   21318112.2924   21318107.9134
       238.0004        190.0004
  -9394622.81749  -7044291.86949  22251012.7264   22251019.3394   22251012.5814
       224.0004        165.0004
 -14350157.30949 -11159714.95349  21692165.6424   21692172.4674   21692165.3404
       232.0004        183.0004
  -2936614.55449  -2055817.81149  23860307.5124   23860316.9934   23860307.2704
       212.0004        142.0004
 -13199077.40349 -10018529.21049  22006964.8824   22006969.2904   22006963.1504
       229.0004        175.0004
 -19812920.55749 -15415506.49549  20982364.0194   20982368.0504   20982363.6764
       238.0004        199.0004
  -9034969.21049  -7027598.45849  22994543.1604   22994549.4454   22994543.1904
       223.0004        167.0004
 11 10 14 12 12  0.0000000  0  9G31G05G16G03G06G18G30G21G29
  -4632552.97549  -3597034.16749  24059367.2154   24059378.1044   24059368.1984
       207.0004        151.0004
   2920744.06749   2283863.73949  24933837.5984   24933847.1414   24933840.0224
       200.0004        132.0004
 -16394745.66949 -12732828.08949  21307051.8414   21307055.8644   21307051.9464
       238.0004        190.0004
  -9488525.27049  -7117462.48749  22233142.7524   22233150.1464   22233142.6174
       223.0004        163.0004
 -14416155.92049 -11211142.37649  21679606.1114   21679612.5314   21679606.3444
       232.0004        183.0004
  -3022093.51249  -2122424.52749  23844041.1914   23844050.4004   23844040.3634
       211.0004        142.0004
 -13100435.78049  -9941665.67649  22025734.3104   22025740.8334   22025733.2854
       228.0004        175.0004
 -19815911.27849 -15417836.91749  20981795.9134   20981798.5674   20981795.7944
       240.0004        199.0004
  -8947417.46249  -6959376.41649  23011201.9584   23011209.0094   23011202.0314
       221.0004        166.0004
 11 10 14 12 12 30.0000000  0  9G31G05G16G03G06G18G30G21G29
  -4527655.31049  -3515296.02749  24079329.8394   24079337.8404   24079330.4444
       213.0004        151.0004
   2989473.33049   2337418.89149  24946915.8234   24946925.1284   24946918.8024
       195.0004        130.0004
 -16452443.94649 -12777787.73349  21296071.2044   21296076.5914   21296071.7034
       237.0004        190.0004
  -9582223.04149  -7190473.63549  22215313.6424   22215319.5194   22215312.7644
       224.0004        163.0004
 -14481896.33749 -11262368.59749  21667097.3594   21667101.9474   21667096.1094
       234.0004        184.0004
  -3107386.48449  -2188886.38549  23827810.9094   23827819.8744   23827811.1464
       211.0004        141.0004
 -13001470.43049  -9864549.87449  22044566.6224   22044573.5644   22044566.1874
       227.0004        174.0004
 -19818441.06649 -15419808.16349  20981313.9414   20981317.6564   20981313.3574
       239.0004        199.0004
  -8859729.45849  -6891048.17649  23027889.6844   23027895.2494   23027890.0864
       224.0004        168.0004
 11 10 14 12 13  0.0000000  0  9G31G05G16G03G06G18G30G21G29
  -4422652.67049  -3433475.91549  24099312.1354   24099316.6504   24099311.3324
       212.0004        143.0004
   3058637.42749   2391312.96549  24960078.7804   24960088.2294   24960077.6364
       198.0004        132.0004
 -16509735.20049 -12822430.20049  21285170.0004   21285174.4984   21285168.9874
       236.0004        192.0004
  -9675715.54249  -7263324.82349  22197520.2134   22197528.6744   22197521.4754
       223.0004        163.0004
 -14547378.34949 -11313393.46649  21654635.1714   21654641.3844   21654635.5964
       232.0004        184.0004
  -3192491.65649  -2255201.88549  23811615.6464   23811624.5414   23811615.1844
       211.0004        143.0004
 -12902183.99349  -9787183.89749  22063460.0784   22063467.7274   22063460.2994
       228.0004        173.0004
 -19820510.52249 -15421420.71449  20980920.3614   20980923.9314   20980919.9154
       239.0004        200.0004
  -8771906.82849  -6822615.02349  23044602.5414   23044608.5594   23044601.7324
       222.0004        166.0004
 11 10 14 12 13 30.0000000  0  9G31G05G16G03G06G18G30G21G29
  -4317546.89749  -3351575.51949  24119307.3674   24119322.4994   24119309.9134
       201.0004        142.0004
   3128235.09349   2445544.88049  24973322.6024   24973333.1564   24973324.3664
       199.0004        131.0004
 -16566616.72949 -12866753.42049  21274345.2984   21274349.5414   21274345.6914
       236.0004        191.0004
  -9769000.31249  -7336014.13949  22179769.9224   22179777.0154   22179769.9704
       221.0004        166.0004
 -14612600.39249 -11364215.75249  21642222.9394   21642230.2714   21642223.9124
       231.0004        184.0004
  -3277405.38749  -2321368.22249  23795457.8844   23795466.4004   23795457.6914
       212.0004        141.0004
 -12802577.91849  -9709568.85349  22082416.0704   22082422.6524   22082415.1864
       228.0004        173.0004
 -19822119.29749 -15422674.29549  20980613.7154   20980617.3864   20980613.6734
       239.0004        199.0004
  -8683949.85849  -6754077.19049  23061338.8884   23061346.2244   23061339.0934
       223.0004        167.0004
 11 10 14 12 14  0.0000000  0  9G31G05G16G03G06G18G30G21G29
  -4212340.62749  -3269596.88149  24139332.1864   24139341.4514   24139332.4014
       210.0004        152.0004
   3198264.21049   2500112.90749  24986650.2704   24986657.4824   24986648.5714
       199.0004        132.0004
 -16623085.96849 -12910755.37649  21263599.6724   21263603.4094   21263599.2104
       237.0004        191.0004
  -9862075.47849  -7408540.12549  22162059.0064   22162065.1354   22162058.3924
       222.0004        165.0004
 -14677561.13049 -11414834.43649  21629863.0744   21629868.7784   21629863.2364
       235.0004        185.0004
  -3362124.46149  -2387382.87049  23779334.1204   23779343.4594   23779335.6214
       207.0004        141.0004
 -12702653.70949  -9631705.91349  22101429.8974   22101436.8824   22101429.5434
       227.0004        173.0004
 -19823267.32649 -15423568.85349  20980396.4384   20980399.0814   20980396.1514
       240.0004        199.0004
  -8595858.92049  -6685434.97549  23078102.3004   23078110.0844   23078102.8244
       222.0004        166.0004
 11 10 14 12 14 30.0000000  0  9G31G05G16G03G06G18G30G21G29
  -4107037.77249  -3187542.93249  24159370.0854   24159379.3824   24159367.9794
       204.0004        144.0004
   3268721.69949   2555014.75049  25000058.3354   25000064.2684   25000056.6204
       204.0004        131.0004
 -16679142.27449 -12954435.56349  21252932.2544   21252936.5184   21252931.9304
       236.0004        192.0004
  -9954941.30449  -7480902.99449  22144386.4394   22144391.8084   22144385.6944
       222.0004        163.0004
 -14742261.13349 -11465249.93349  21617551.8664   21617556.1224   21617550.5984
       235.0004        184.0004
  -3446647.58149  -2453244.80149  23763252.7224   23763260.2884   23763252.2294
       212.0004        142.0004
 -12602414.80849  -9553597.75849  22120505.3324   22120511.4854   22120504.7754
       228.0004        173.0004
 -19823956.51549 -15424105.87849  20980264.6444   20980267.3694   20980264.4944
       239.0004        200.0004
  -8507635.90149  -6616689.84749  23094891.2954   23094898.0964   23094891.1554
       224.0004        166.0004
 11 10 14 12 15  0.0000000  0  9G31G05G16G03G06G18G30G21G29
  -4001640.24949  -3105415.26949  24179424.6464   24179432.4994   24179424.7194
       200.0004        135.0004
   3339605.64849   2610248.87249  25013545.3084   25013551.1624   25013547.0454
       200.0004        130.0004
 -16734783.32249 -12997792.16249  21242343.7784   21242349.0984   21242343.5134
       236.0004        192.0004
 -10047595.37849  -7553100.85249  22126755.2094   22126761.5604   22126754.8674
       223.0004        164.0004
 -14806698.75049 -11515460.98349  21605287.8274   21605294.2884   21605288.5324
       234.0004        185.0004
  -3530971.21649  -2518951.29849  23747204.1704   23747212.3634   23747204.0284
       213.0004        142.0004
 -12501862.60249  -9475245.46449  22139638.5364   22139646.4464   22139639.0904
       226.0004        172.0004
 -19824186.40049 -15424284.98749  20980221.6264   20980224.4624   20980220.6844
       240.0004        200.0004
  -8419281.55049  -6547842.36349  23111704.4344   23111711.9364   23111705.0214
       222.0004        166.0004
 11 10 14 12 15 30.0000000  0  9G31G05G16G03G06G18G30G21G29
  -3896150.74349  -3023215.85049  24199504.1344   24199511.0394   24199503.4114
       213.0004        152.0004
   3410914.80749   2665814.34949  25027114.8384   25027125.0214   25027115.5564
       199.0004        134.0004
 -16790006.24949 -13040822.96749  21231835.9524   21231839.5874   21231835.5754
       237.0004        193.0004
 -10140035.56549  -7625132.06349  22109163.6634   22109171.2064   22109165.2044
       224.0004        165.0004
 -14870872.67949 -11565466.56549  21593076.2494   21593081.9384   21593076.6374
       234.0004        184.0004
  -3615092.07049  -2584499.81649  23731196.0784   23731204.5784   23731195.8244
       211.0004        143.0004
 -12400998.43749  -9396650.08149  22158833.1924   22158840.0114   22158832.8224
       226.0004        171.0004
 -19823956.86949 -15424106.12849  20980263.9044   20980268.0884   20980263.8464
       238.0004        199.0004
  -8330796.26749  -6478892.85849  23128542.2364   23128548.4364   23128542.3054
       221.0004        165.0004
 11 10 14 12 16  0.0000000  0  9G31G05G16G03G06G18G30G21G29
  -3790573.32449  -2940947.99749  24219592.0634   24219603.4514   24219592.6564
       203.0004        149.0004
   3482645.04149   2721707.97549  25040763.8284   25040774.2404   25040763.8174
       194.0004        132.0004
 -16844810.65149 -13083527.64449  21221405.8164   21221410.4144   21221405.8334
       236.0004        191.0004
 -10232261.98249  -7696996.69549  22091614.3114   22091621.8564   22091614.1074
       223.0004        166.0004
 -14934783.69849 -11615267.27649  21580915.3334   21580919.7344   21580914.8004
       234.0004        186.0004
  -3699009.09049  -2649889.50649  23715229.0854   23715235.4484   23715228.0314
       212.0004        142.0004
 -12299826.13249  -9317814.59349  22178085.9404   22178091.7324   22178086.5534
       226.0004        171.0004
 -19823269.97649 -15423570.87449  20980395.7394   20980398.9054   20980395.0224
       240.0004        200.0004
  -8242182.01349  -6409842.88849  23145405.0574   23145412.0104   23145404.4584
       217.0004        162.0004
 11 10 14 12 16 30.0000000  0  9G31G05G16G03G06G18G30G21G29
  -3684909.65549  -2858613.06949  24239697.4624   24239705.6944   24239700.1544
       206.0004        139.0004
   3554794.54349   2777928.29349  25054494.5584   25054504.5404   25054494.7814
       198.0004        131.0004
 -16899193.90749 -13125904.14349  21211057.4324   21211061.6024   21211057.2654
       236.0004        192.0004
 -10324273.11649  -7768693.56049  22074104.8724   22074110.3414   22074105.3634
       222.0004        165.0004
 -14998429.98349 -11664861.70449  21568802.1284   21568808.9474   21568803.0604
       232.0004        186.0004
  -3782718.68249  -2715117.54549  23699297.8924   23699306.3664   23699297.7794
       210.0004        142.0004
 -12198346.85249  -9238739.89449  22197395.3144   22197402.1874   22197395.4174
       225.0004        170.0004
 -19822125.21949 -15422678.84049  20980612.6564   20980616.4054   20980612.2104
       239.0004        200.0004
  -8153438.91749  -6340692.51249  23162291.9854   23162298.7114   23162293.1114
       221.0004        163.0004
 11 10 14 12 17  0.0000000  0  9G31G05G16G03G06G18G30G21G29
  -3579163.20249  -2776213.36049  24259826.3044   24259829.9594   24259824.9094
       215.0004        145.0004
   3627361.41849   2834473.82649  25068303.8194   25068311.7084   25068304.0904
       199.0004        131.0004
 -16953153.81249 -13167950.78149  21200790.1034   21200793.9094   21200789.5714
       238.0004        193.0004
 -10416067.13649  -7840221.26949  22056637.5614   22056642.9354   22056635.6694
       223.0004        165.0004
 -15061810.70749 -11714249.20349  21556742.0544   21556747.5994   21556742.2664
       234.0004        186.0004
  -3866218.11749  -2780181.78749  23683408.8564   23683417.0474   23683408.9944
       212.0004        144.0004
 -12096562.49349  -9159427.49049  22216765.5364   22216772.3714   22216764.8934
       228.0004        170.0004
 -19820522.88649 -15421430.25849  20980918.4244   20980921.3564   20980917.7184
       239.0004        200.0004
  -8064567.73749  -6271442.29049  23179203.4434   23179211.0984   23179203.3264
       218.0004        160.0004
 11 10 14 12 17 30.0000000  0  9G31G05G16G03G06G18G30G21G29
  -3473337.06249  -2693751.68049  24279959.0754   24279972.8814   24279959.3524
       204.0004        147.0004
   3700342.70649   2891342.29249  25082191.7964   25082201.5584   25082192.4224
       200.0004        132.0004
 -17006689.38949 -13209666.75849  21190602.0724   21190606.4484   21190601.8404
       238.0004        193.0004
 -10507643.28349  -7911579.19049  22039210.3634   22039216.5334   22039210.7074
       224.0004        165.0004
 -15124925.86149 -11763429.77349  21544730.7294   21544737.4414   21544731.1684
       232.0004        186.0004
  -3949505.67349  -2845080.99249  23667560.3484   23667567.3114   23667558.8184
       212.0004        143.0004
 -11994476.18649  -9079879.81149  22236193.0554   22236199.8234   22236192.5184
       228.0004        169.0004
 -19818463.97049 -15419825.89649  20981309.4054   20981312.9644   20981309.2974
       239.0004        200.0004
  -7975570.42349  -6202093.82649  23196140.8184   23196146.9384   23196140.8244
       221.0004        164.0004
 11 10 14 12 18  0.0000000  0  9G31G05G16G03G06G18G30G21G29
  -3367432.83049  -2611229.32449  24300114.3914   24300124.7964   24300114.3234
       211.0004        149.0004
   3773737.30249   2948532.80649  25096158.3974   25096167.0254   25096158.8484
       199.0004        134.0004
 -17059797.86449 -13251049.94249  21180494.9994   21180499.6524   21180495.1084
       236.0004        193.0004
 -10598998.95049  -7982765.30849  22021826.2574   22021832.5764   22021825.7734
       225.0004        167.0004
 -15187773.36349 -11812401.76749  21532771.5304   21532777.3484   21532772.0764
       233.0004        186.0004
  -4032577.46749  -2909812.03249  23651753.2474   23651759.2344   23651750.9134
       212.0004        143.0004
 -11892088.87649  -9000097.55449  22255675.6404   22255682.2034   22255676.0094
       225.0004        169.0004
 -19815948.34649 -15417865.64849  20981788.7104   20981792.0794   20981788.0814
       240.0004        200.0004
  -7886446.74449  -6132646.89549  23213098.4124   23213106.4044   23213099.3834
       218.0004        164.0004
 11 10 14 12 18 30.0000000  0  9G31G05G16G03G06G18G30G21G29
  -3261454.64349  -2528649.16549  24320282.6744   24320288.1564   24320282.9034
       215.0004        146.0004
   3847541.54649   3006042.53149  25110203.6654   25110210.8544   25110200.4444
       201.0004        130.0004
 -17112477.29549 -13292098.80849  21170471.5034   21170474.6284   21170471.2114
       238.0004        192.0004
 -10690133.60749  -8053779.21349  22004484.1284   22004489.7434   22004482.9934
       226.0004        167.0004
 -15250353.38849 -11861165.35749  21520862.9394   21520868.9434   21520863.2994
       233.0004        187.0004
  -4115431.66149  -2974373.54349  23635983.8044   23635991.4244   23635982.4464
       212.0004        144.0004
 -11789403.44549  -8920083.01449  22275214.7654   22275223.7314   22275215.0604
       226.0004        169.0004
 -19812977.10549 -15415550.38049  20982353.7354   20982357.5984   20982353.4894
       239.0004        200.0004
  -7797198.00249  -6063102.52549  23230082.8574   23230089.9244   23230084.3494
       217.0004        161.0004
 11 10 14 12 19  0.0000000  0  9G31G05G16G03G06G18G30G21G29
  -3155404.34649  -2446012.75049  24340463.0284   24340474.4324   24340461.6244
       206.0004        142.0004
   3921754.13049   3063870.44549  25124325.4804   25124334.2714   25124327.4134
       203.0004        132.0004
 -17164725.96149 -13332812.01849  21160528.9864   21160533.0674   21160528.6834
       239.0004        194.0004
 -10781045.25849  -8124619.36349  21987182.3854   21987189.2294   21987182.6744
       223.0004        166.0004
 -15312664.48049 -11909719.37049  21509005.2394   21509011.1654   21509005.4284
       233.0004        186.0004
  -4198065.07549  -3038763.03149  23620260.8474   23620267.1184   23620261.5034
       212.0004        143.0004
 -11686421.48649  -8839837.40649  22294813.6314   22294819.6384   22294813.7904
       228.0004        169.0004
 -19809550.30749 -15412880.13149  20983006.3364   20983009.3154   20983005.2964
       240.0004        199.0004
  -7707825.07849  -5993461.36649  23247091.1044   23247096.6624   23247091.6504
       217.0004        159.0004
 11 10 14 12 19 30.0000000  0  9G31G05G16G03G06G18G30G21G29
  -3049285.58949  -2363323.22549  24360655.9524   24360666.4714   24360656.9704
       210.0004        151.0004
   3996372.12949   3122014.29149  25138523.8254   25138533.4014   25138525.8264
       202.0004        132.0004
 -17216542.78749 -13373188.71949  21150667.5324   21150672.8124   21150667.4834
       237.0004        193.0004
 -10871733.60349  -8195285.49249  21969925.0364   21969931.8034   21969925.8954
       223.0004        168.0004
 -15374706.61149 -11958063.81549  21497199.5834   21497205.6824   21497199.4484
       234.0004        187.0004
  -4280475.70749  -3102978.93949  23604578.4824   23604584.8384   23604578.0184
       215.0004        146.0004
 -11583145.92749  -8759363.00749  22314466.5774   22314473.8824   22314465.2734
       228.0004        168.0004
 -19805669.13749 -15409855.83149  20983744.3834   20983748.2384   20983744.5324
       240.0004        200.0004
  -7618329.28849  -5923724.46649  23264119.3984   23264128.3884   23264120.4224
       212.0004        154.0004
 11 10 14 12 20  0.0000000  0  9G31G05G16G03G06G18G30G21G29
  -2943100.76549  -2280582.11649  24380863.2634   24380872.1394   24380865.2044
       213.0004        150.0004
   4071392.95649   3180472.03149  25152797.6384   25152811.4004   25152801.3334
       196.0004        129.0004
 -17267925.03249 -13413226.79849  21140890.9544   21140894.4554   21140890.8384
       239.0004        194.0004
 -10962196.53149  -8265775.95549  21952711.9414   21952718.0174   21952710.4894
       227.0004        168.0004
 -15436478.41649 -12006197.62449  21485444.9344   21485450.4064   21485445.0754
       233.0004        187.0004
  -4362660.43549  -3167018.79949  23588940.7634   23588946.0594   23588938.1604
       215.0004        146.0004
 -11479578.26149  -8678661.00049  22334173.1594   22334182.3394   22334172.5494
       224.0004        168.0004
 -19801333.75949 -15406477.58349  20984569.6494   20984572.7844   20984568.5114
       239.0004        199.0004
  -7528711.29149  -5853892.37449  23281174.4454   23281182.4414   23281175.0124
       215.0004        155.0004
 11 10 14 12 20 30.0000000  0  9G31G05G16G03G06G18G30G21G29
  -2836852.54349  -2197791.53649  24401079.1464   24401088.5544   24401079.3894
       203.0004        137.0004
   4146814.54649   3239242.02049  25167153.0204   25167162.0304   25167154.2324
       197.0004        127.0004
 -17318871.08949 -13452924.99149  21131196.2424   21131199.7494   21131195.3864
       238.0004        193.0004
 -11052432.49949  -8336089.58049  21935540.3994   21935545.2334   21935540.1974
       227.0004        168.0004
 -15497979.17849 -12054120.22749  21473741.6684   21473747.0614   21473741.1894
       235.0004        187.0004
  -4444616.63749  -3230880.61749  23573340.9304   23573350.0164   23573341.2814
       214.0004        145.0004
 -11375720.86949  -8597733.25449  22353937.8774   22353944.0194   22353936.4464
       226.0004        169.0004
 -19796544.73149 -15402745.86649  20985480.6474   20985483.7704   20985480.8514
       240.0004        199.0004
  -7438971.86949  -5783965.66049  23298251.2934   23298259.2124   23298251.9994
       213.0004        154.0004
 11 10 14 12 21  0.0000000  0  9G31G05G16G03G06G18G30G21G29
  -2730544.11549  -2114954.15549  24421310.6954   24421321.5444   24421312.5744
       211.0004        148.0004
   4222634.28449   3298322.28049  25181580.5394   25181588.3544   25181581.3884
       192.0004        127.0004
 -17369379.24349 -13492281.95849  21121583.8894   21121588.2094   21121584.1514
       238.0004        194.0004
 -11142440.42249  -8406225.52149  21918412.5344   21918417.3984   21918411.9354
       228.0004        168.0004
 -15559208.48149 -12101831.31349  21462090.5384   21462095.6524   21462090.3484
       235.0004        188.0004
  -4526342.01849  -3294562.59849  23557790.4494   23557797.2844   23557791.0154
       214.0004        145.0004
 -11271576.17149  -8516581.62949  22373755.8014   22373762.6304   22373756.0384
       225.0004        166.0004
 -19791302.93649 -15398661.32449  20986478.8174   20986481.9184   20986477.8354
       239.0004        199.0004
  -7349112.29949  -5713945.30949  23315350.7454   23315357.8404   23315351.0114
       214.0004        152.0004
 11 10 14 12 21 30.0000000  0  9G31G05G16G03G06G18G30G21G29
  -2624178.43949  -2032072.13549  24441553.3724   24441562.5504   24441554.0544
       210.0004        148.0004
   4298849.74949   3357710.91449  25196083.3314   25196093.6784   25196084.0224
       196.0004        128.0004
 -17419447.73449 -13531296.32749  21112055.9314   21112060.8404   21112056.1524
       238.0004        194.0004
 -11232219.35349  -8476183.00049  21901327.5754   21901332.8244   21901326.8434
       227.0004        170.0004
 -15620165.37649 -12149330.12349  21450491.4264   21450495.9094   21450490.3554
       236.0004        188.0004
  -4607834.01449  -3358062.69949  23542282.6624   23542289.3974   23542281.1204
       215.0004        149.0004
 -11167146.28949  -8435207.77149  22393627.4454   22393636.2074   22393627.9004
       224.0004        167.0004
 -19785608.74749 -15394224.27949  20987561.6444   20987564.7974   20987561.6584
       240.0004        199.0004
  -7259132.85949  -5643831.54049  23332473.7654   23332480.9444   23332474.0804
       214.0004        151.0004
 11 10 14 12 22  0.0000000  0  9G31G05G16G03G06G18G30G21G29
  -2517757.47449  -1949147.03549  24461801.9994   24461812.6394   24461801.7254
       204.0004        137.0004
   4375458.91549   3417406.29149  25210662.0174   25210673.0304   25210664.1854
       199.0004        130.0004
 -17469074.23849 -13569966.29049  21102613.2154   21102616.6114   21102612.4464
       239.0004        194.0004
 -11321767.42349  -8545960.61349  21884286.9304   21884293.4684   21884287.2514
       226.0004        170.0004
 -15680848.76949 -12196615.81149  21438941.8394   21438947.9624   21438942.2684
       233.0004        187.0004
  -4689089.52449  -3421378.55949  23526822.3924   23526827.6904   23526820.5184
       216.0004        148.0004
 -11062433.05849  -8353613.12849  22413555.4374   22413561.9674   22413554.5134
       226.0004        168.0004
 -19779462.61649 -15389435.05449  20988731.5234   20988734.8264   20988730.9974
       239.0004        199.0004
  -7169034.96349  -5573625.46949  23349619.3554   23349627.3244   23349620.0104
       214.0004        150.0004
 11 10 14 12 22 30.0000000  0  9G31G05G16G03G06G18G30G21G29
  -2411284.04349  -1866181.02049  24482063.4384   24482076.1664   24482065.7984
       205.0004        138.0004
   4452459.25549   3477406.50949  25225315.9974   25225324.2424   25225316.4574
       202.0004        133.0004
 -17518256.76749 -13608290.30849  21093254.0594   21093257.4764   21093253.5164
       239.0004        193.0004
 -11411082.69549  -8615556.79749  21867290.7934   21867297.6364   21867289.7424
       225.0004        170.0004
 -15741257.56049 -12243687.53849  21427447.0524   21427452.5004   21427446.7034
       235.0004        188.0004
  -4770105.86549  -3484508.06349  23511403.0484   23511410.8404   23511403.6254
       212.0004        149.0004
 -10957438.41149  -8271799.19049  22433533.8164   22433540.6884   22433532.7854
       224.0004        166.0004
 -19772864.85749 -15384293.91949  20989986.5554   20989989.9374   20989986.4084
       239.0004        199.0004
  -7078818.90349  -5503327.30449  23366786.8364   23366794.4604   23366786.4374
       210.0004        147.0004
 11 10 14 12 23  0.0000000  0  9G31G05G16G03G06G18G30G21G29
  -2304762.01849  -1783177.16349  24502335.9984   24502345.0724   24502335.9954
       204.0004        142.0004
   4529847.73149   3537709.19049  25240042.7444   25240049.6854   25240043.1494
       199.0004        133.0004
 -17566994.39149 -13646267.62949  21083978.7554   21083983.1954   21083978.9084
       238.0004        194.0004
 -11500164.94749  -8684971.43149  21850339.1374   21850344.7164   21850338.6494
       227.0004        170.0004
 -15801391.95949 -12290545.44949  21416003.4104   21416009.3974   21416003.5284
       235.0004        189.0004
  -4850881.06349  -3547449.65549  23496033.3674   23496039.4764   23496031.0814
       216.0004        149.0004
 -10852165.47449  -8189768.41749  22453566.3024   22453574.0454   22453565.6424
       224.0004        165.0004
 -19765816.97649 -15378802.04049  20991327.1894   20991331.2824   20991327.2084
       238.0004        199.0004
  -6988486.54149  -5432938.55949  23383976.0934   23383984.1744   23383977.8464
       209.0004        145.0004
 11 10 14 12 23 30.0000000  0  9G31G05G16G03G06G18G30G21G29
  -2198192.93249  -1700136.71049  24522613.4124   24522626.6364   24522615.4054
       202.0004        139.0004
   4607622.81649   3598313.12349  25254842.0634   25254850.2304   25254840.5374
       196.0004        132.0004
 -17615284.28349 -13683896.07949  21074790.5634   21074794.1754   21074789.9924
       238.0004        195.0004
 -11589011.42149  -8754202.33949  21833431.0494   21833438.4164   21833431.3604
       225.0004        171.0004
 -15861249.89949 -12337187.94049  21404613.5734   21404618.8584   21404613.3634
       236.0004        189.0004
  -4931411.60049  -3610200.62149  23480707.4514   23480714.8494   23480707.4214
       214.0004        148.0004
 -10746615.28049  -8107521.58949  22473653.2924   22473661.0284   22473652.1854
       225.0004        164.0004
 -19758318.59149 -15372959.11749  20992754.3234   20992758.3044   20992754.5394
       238.0004        199.0004
  -6898037.66449  -5362459.02449  23401187.8314   23401194.1074   23401188.8014
       206.0004        141.0004
 11 10 14 12 24  0.0000000  0  9G31G05G16G03G06G18G30G21G29
  -2091580.29349  -1617062.24249  24542905.0684   24542909.9144   24542905.4494
       206.0004        137.0004
   4685781.74449   3659216.15549  25269714.2104   25269725.1874   25269714.0374
       198.0004        131.0004
 -17663125.07449 -13721174.57249  21065686.3934   21065690.1144   21065685.6824
       238.0004        195.0004
 -11677621.03849  -8823248.67449  21816570.6054   21816576.4594   21816570.4304
       227.0004        172.0004
 -15920831.38749 -12383615.01449  21393274.6534   21393280.8674   21393274.7564
       235.0004        189.0004
  -5011695.42249  -3672759.31549  23465428.7954   23465437.4054   23465429.7224
       212.0004        149.0004
 -10640790.63649  -8025060.90849  22493790.8024   22493798.3174   22493791.0164
       225.0004        166.0004
 -19750371.36849 -15366766.45049  20994267.7034   20994270.4534   20994266.7774
       239.0004        199.0004
  -6807473.67549  -5291889.73149  23418421.6264   23418427.5904   23418422.7994
       208.0004        140.0004
 11 10 14 12 24 30.0000000  0  9G31G05G16G03G06G18G30G21G29
  -1984927.38349  -1533956.31149  24563202.7284   24563211.5554   24563201.0404
       199.0004        136.0004
   4764321.35149   3720415.81649  25284661.7894   25284669.8534   25284660.3804
       202.0004        132.0004
 -17710515.77149 -13758102.34249  21056667.6274   21056671.8164   21056667.7624
       238.0004        195.0004
 -11765993.34149  -8892110.08249  21799753.0844   21799760.8994   21799752.4274
       226.0004        172.0004
 -15980136.13749 -12429826.45049  21381989.5684   21381994.6624   21381989.6214
       236.0004        188.0004
  -5091730.42249  -3735124.11949  23450202.1874   23450207.5864   23450199.3894
       216.0004        147.0004
 -10534694.29749  -7942388.50249  22513978.2464   22513986.4984   22513979.0434
       223.0004        164.0004
 -19741975.97849 -15360224.55649  20995863.6764   20995868.1424   20995863.7784
       238.0004        199.0004
  -6716795.65449  -5221231.65449  23435678.2394   23435684.2754   23435678.7724
       204.0004        142.0004
 11 10 14 12 25  0.0000000  0  9G31G05G16G03G06G18G30G21G29
  -1878236.33649  -1450820.84349  24583502.6834   24583513.5134   24583501.8004
       197.0004        139.0004
   4843239.80649   3781910.67649  25299677.1284   25299687.3424   25299678.2064
       198.0004        132.0004
 -17757453.68149 -13794677.30249  21047736.2794   21047740.1594   21047735.7544
       239.0004        195.0004
 -11854126.14149  -8960784.87749  21782981.7494   21782987.4584   21782982.5194
       226.0004        171.0004
 -16039162.67749 -12475821.10649  21370757.7414   21370762.6364   21370756.8534
       237.0004        188.0004
  -5171513.17849  -3797292.36249  23435019.5864   23435024.9524   23435018.3544
       215.0004        148.0004
 -10428327.78549  -7859505.59649  22534222.4174   22534228.6794   22534221.6444
       225.0004        165.0004
 -19733132.05849 -15353333.16949  20997547.8174   20997551.1314   20997547.1594
       239.0004        198.0004
  -6626004.37349  -5150485.28849  23452954.8234   23452961.4154   23452954.0794
       205.0004        139.0004
 11 10 14 12 25 30.0000000  0  9G31G05G16G03G06G18G30G21G29
  -1771510.10349  -1367657.88649  24603812.2934   24603821.7724   24603812.7244
       205.0004        142.0004
   4922534.30349   3843698.55649  25314765.1214   25314777.2074   25314764.6994
       198.0004        132.0004
 -17803937.12349 -13830898.12349  21038889.9114   21038894.4144   21038889.7284
       238.0004        196.0004
 -11942018.32549  -9029272.17949  21766256.0554   21766263.4334   21766256.2834
       226.0004        170.0004
 -16097910.27249 -12521598.39949  21359578.8714   21359583.6074   21359578.5994
       238.0004        189.0004
  -5251041.36849  -3859262.23149  23419881.1904   23419890.2314   23419883.0004
       213.0004        147.0004
 -10321693.41249  -7776413.95049  22554512.8514   22554520.3514   22554510.9664
       224.0004        165.0004
 -19723841.15949 -15346093.47649  20999315.8064   20999318.9164   20999315.2284
       239.0004        199.0004
  -6535100.80949  -5079651.44249  23470253.8104   23470261.9374   23470254.2374
       201.0004        138.0004
 11 10 14 12 26  0.0000000  0  9G31G05G16G03G06G18G30G21G29
  -1664750.79349  -1284469.07349  24624125.1114   24624137.9214   24624126.9984
       195.0004        133.0004
   5002203.21549   3905778.17549  25329927.8614   25329937.9694   25329928.7564
       205.0004        136.0004
 -17849964.11149 -13866763.26849  21030131.2324   21030135.4404   21030131.3364
       239.0004        196.0004
 -12029667.95049  -9097570.46549  21749576.8474   21749583.1614   21749575.9094
       227.0004        172.0004
 -16156377.58749 -12567157.29149  21348452.1284   21348457.0384   21348451.8124
       238.0004        190.0004
  -5330312.03549  -3921031.45449  23404800.7314   23404806.2404   23404799.2294
       216.0004        149.0004
 -10214792.91149  -7693114.95449  22574855.1894   22574862.6064   22574855.6454
       222.0004        164.0004
 -19714103.11249 -15338505.36349  21001168.3324   21001172.0894   21001168.2314
       239.0004        199.0004
  -6444085.03449  -5008730.17249  23487572.9904   23487581.5814   23487571.1974
       198.0004        135.0004
 11 10 14 12 26 30.0000000  0  9G31G05G16G03G06G18G30G21G29
  -1557962.28049  -1201257.50249  24644444.5594   24644460.4114   24644446.6794
       200.0004        138.0004
   5082243.11149   3968146.85649  25345159.6204   25345168.3464   25345161.2094
       201.0004        138.0004
 -17895533.51549 -13902271.86249  21021459.9224   21021463.6814   21021459.2384
       239.0004        195.0004
 -12117074.38249  -9165679.25749  21732944.5474   21732951.1004   21732944.3324
       227.0004        174.0004
 -16214564.74149 -12612497.89149  21337379.3724   21337384.9084   21337379.5864
       238.0004        191.0004
  -5409323.31849  -3982598.50849  23389763.5704   23389771.4274   23389763.4674
       215.0004        147.0004
 -10107629.35349  -7609610.96949  22595248.9584   22595255.4684   22595247.7034
       223.0004        165.0004
 -19703919.17449 -15330569.80249  21003106.6494   21003109.6374   21003105.8034
       239.0004        198.0004
  -6352958.93049  -4937722.90249  23504913.0564   23504920.9844   23504911.5044
       201.0004        135.0004
 11 10 14 12 27  0.0000000  0  9G31G05G16G03G06G18G30G21G29
