     2.11           OBSERVATION DATA    M (MIXED)           RINEX VERSION / TYPE
teqc  2012Jun6                          20151118 02:01:20UTCPGM / RUN BY / DATE
OSX ker:10.8.0|Core 2 Duo|gcc 4.2 -m64|OSX ker:10.8.0+|=+   COMMENT
     2              OBSERVATION DATA    M (MIXED)           COMMENT
CCRINEXO V2.3.3 UX  BKG Frankfurt       11-OCT-11 00:16     COMMENT
Concatenated RINEX hourly files (24/24)                     COMMENT
JPS2RIN 1.40 lnx    SAC                 10-OCT-11 01:01     COMMENT
build Feb  6 2004 (c) Javad Navigation Systems              COMMENT
Stazione Astronomica Cagliari                               COMMENT
/home/srv/htdocs/glonass/hdata/CAGZ.tps                     COMMENT
SE TPS 8b1daea3                                             COMMENT
CAGZ                                                        MARKER NAME
12725M004                                                   MARKER NUMBER
SAC                 SAC-DIST                                OBSERVER / AGENCY
AGNV7TGA2O0         TPS E_GGD           3.3 Jul,10,2008 p4  REC # / TYPE / VERS
RRA052              JPSREGANT_DD_E  NONE                    ANT # / TYPE
  4893378.7999   772650.4734  4004179.0402                  APPROX POSITION XYZ
        0.0945        0.0000        0.0000                  ANTENNA: DELTA H/E/N
     1     1                                                WAVELENGTH FACT L1/2
     7    C1    P1    P2    L1    L2    D1    D2            # / TYPES OF OBSERV
    30.0000                                                 INTERVAL
teqc windowed: start @ 2011 Oct 10 12:00:00.000             COMMENT
teqc windowed: delta = 14400.000 sec                        COMMENT
  2011    10    10    12     0    0.0000000     GPS         TIME OF FIRST OBS
    15                                                      LEAP SECONDS
                                                            END OF HEADER
 11 10 10 12  0  0.0000000  1 18G03G05G06G16G18G21G25G29G30G31R05R06
                                R10R11R12R20R21R22
  23757719.115    23757720.0654   23757731.2294  124847675.845 5  97283920.98441
      3500.724        2727.800
  25183417.659                                   132339795.715 3
     -1465.186
  22868209.096    22868208.0854   22868218.4634  120173304.372 6  93641568.10742
      2751.494        2144.016
  22979503.856    22979504.4604   22979513.2444  120758151.231 6  94097282.39542
      3433.197        2675.205
  23637146.099    23637146.0024   23637157.9044  124214206.794 5  96790251.27341
      3166.166        2467.098
  20816208.973    20816208.2954   20816214.9514  109390054.180 8  85239002.15246
       661.905         515.769
  23828348.321    23828348.4994   23828365.4564  125218681.434 6  97572977.35042
     -2796.662       -2179.221
  22223967.573    22223967.5614   22223976.6674  116787746.575 7  91003456.34444
     -1680.782       -1309.697
  20595834.702    20595834.1014   20595843.1464  108231845.478 8  84336528.14746
     -1405.336       -1095.068
  22302162.786    22302162.6484   22302171.7824  117198632.750 7  91323624.54244
     -1992.768       -1552.807
  22244641.506    22244641.097    22244651.382   118910455.908 6  92485954.871 5
      1806.028        1404.685
  23204317.333    23204317.653    23204330.884   123822778.176 5  96306662.449 5
      4217.396        3280.192
  21908037.602    21908036.167    21908049.614   116782139.996 7  90830547.498 4
     -3759.488       -2924.044
  19986970.749    19986970.516    19986976.922   106804357.063 8  83070091.908 5
      -394.526        -306.853
  22314195.805    22314195.633    22314202.727   119198446.774 6  92709932.057 5
      3759.392        2923.967
  21357167.851    21357167.720    21357174.521   114206394.742 6  88827243.022 6
     -1906.984       -1483.210
  19964071.410    19964071.030    19964075.241   106831868.495 8  83091518.535 6
       723.557         562.763
  22472024.774    22472025.553    22472034.088   119957245.404 6  93300114.612 5
      2984.523        2321.287
 11 10 10 12  0 30.0000000  0 18G03G05G06G16G18G21G25G29G30G31R05R06
                                R10R11R12R20R21R22
  23737742.226    23737740.1554   23737751.4564  124742690.789 5  97202114.60941
      3498.298        2725.931
  25191824.492                                   132383969.882 3
     -1480.030
  22852513.191    22852513.2854   22852524.3234  120090825.786 6  93577299.15642
      2747.032        2140.545
  22959919.662    22959918.9724   22959926.3574  120655229.805 6  94017083.95242
      3428.148        2671.272
  23619084.443    23619083.3394   23619095.2264  124119289.282 5  96716289.88241
      3161.615        2463.560
  20812472.223    20812471.5704   20812478.2224  109370417.243 8  85223700.66446
       647.239         504.343
  23844332.923    23844331.9304   23844350.5194  125302676.161 6  97638427.50042
     -2803.001       -2184.146
  22233573.850    22233573.6504   22233582.9284  116838227.493 7  91042792.08744
     -1684.620       -1312.687
  20603903.374    20603902.4154   20603911.6404  108274244.959 8  84369566.65846
     -1421.297       -1107.503
  22313573.656    22313573.0914   22313582.4824  117258595.250 7  91370348.47444
     -2004.690       -1562.089
  22234569.631    22234569.686    22234580.033   118856621.042 6  92444083.391 5
      1782.945        1386.734
  23180622.613    23180622.027    23180634.257   123696333.861 5  96208317.187 5
      4212.179        3276.133
  21929223.585    21929221.584    21929235.682   116895073.363 7  90918384.297 4
     -3769.376       -2931.725
  19989262.277    19989262.050    19989269.136   106816604.786 8  83079617.894 5
      -421.947        -328.184
  22293131.494    22293130.754    22293140.018   119085929.928 6  92622419.030 5
      3741.629        2910.151
  21367876.106    21367875.567    21367882.295   114263653.133 6  88871777.261 6
     -1910.267       -1485.764
  19960042.508    19960042.162    19960046.365   106810307.349 8  83074748.767 7
       713.852         555.214
  22455271.640    22455270.996    22455278.849   119867809.034 6  93230553.145 5
      2977.916        2316.146
 11 10 10 12  1  0.0000000  0 17G03G06G16G18G21G25G29G30G31R05R06R10
                                R11R12R20R21R22
  23717776.776    23717776.7564   23717789.9464  124637779.663 5  97120365.79741
      3495.575        2723.856
  22836843.732    22836843.4164   22836854.2584  120008481.024 6  93513134.47942
      2742.377        2136.913
  22940363.989    22940363.1074   22940371.3424  120552462.916 6  93937005.90142
      3422.752        2667.075
  23601046.558    23601045.7164   23601057.7654  124024507.473 5  96642434.17041
      3156.894        2459.928
  20808818.837    20808818.1304   20808825.1714  109351219.609 8  85208741.48946
       632.404         492.781
  23860353.392    23860353.0954   23860369.6384  125386861.995 5  97704026.55542
     -2809.638       -2189.335
  22243202.111    22243201.8084   22243210.9244  116888824.801 7  91082218.52844
     -1688.719       -1315.887
  20612062.332    20612061.7764   20612070.9434  108317122.536 8  84402977.71346
     -1437.427       -1120.078
  22325051.246    22325051.5434   22325061.1314  117318914.237 7  91417350.17744
     -2016.772       -1571.503
  22224629.624    22224628.708    22224637.893   118803478.964 6  92402750.780 5
      1759.636        1368.598
  23156955.887    23156955.351    23156967.782   123570047.254 6  96110094.569 4
      4206.618        3271.809
  21950466.022    21950463.438    21950476.792   117008300.096 7  91006449.260 4
     -3779.250       -2939.402
  19991708.286    19991708.048    19991715.095   106829674.392 7  83089783.110 5
      -449.555        -349.654
  22272169.268    22272169.138    22272176.792   118973948.157 6  92535322.166 5
      3723.522        2896.072
  21378601.303    21378600.903    21378608.710   114321009.425 6  88916387.653 6
     -1913.673       -1488.408
  19956066.709    19956066.400    19956071.060   106789035.449 8  83058203.965 6
       704.043         547.586
  22438553.469    22438553.483    22438561.543   119778569.393 6  93161144.711 5
      2971.191        2310.925
 11 10 10 12  1 30.0000000  0 17G03G06G16G18G21G25G29G30G31R05R06R10
                                R11R12R20R21R22
  23697827.435    23697826.8144   23697837.6984  124532945.898 5  97038677.35641
      3493.206        2721.966
  22821200.500    22821200.3994   22821210.1264  119926272.898 6  93449076.28442
      2738.074        2133.562
  22920838.495    22920837.1354   22920844.9824  120449855.132 6  93857051.86142
      3417.701        2663.153
  23583037.853    23583036.8584   23583049.2424  123929866.329 5  96568688.09641
      3152.470        2456.466
  20805249.384    20805248.9534   20805256.0904  109332463.248 8  85194126.16746
       617.948         481.517
  23876409.343    23876409.5814   23876425.8834  125471240.056 5  97769775.37342
     -2815.734       -2194.092
  22252852.693    22252852.5334   22252861.9424  116939540.542 7  91121737.25444
     -1692.389       -1318.737
  20620313.694    20620312.5924   20620321.5144  108360479.965 8  84436762.67446
     -1453.139       -1132.312
  22336597.795    22336597.7014   22336607.2964  117379589.447 7  91464629.46344
     -2028.339       -1580.520
  22214818.177    22214818.277    22214828.023   118751035.064 6  92361961.216 5
      1736.572        1350.658
  23133319.551    23133320.215    23133332.394   123443926.347 6  96012000.787 4
      4201.329        3267.704
  21971760.967    21971759.738    21971773.317   117121818.523 7  91094741.089 4
     -3788.656       -2946.726
  19994308.254    19994307.742    19994314.615   106843567.175 8  83100588.590 5
      -476.690        -370.761
  22251305.639    22251306.216    22251314.185   118862508.016 6  92448646.563 5
      3705.677        2882.194
  21389345.126    21389345.335    21389353.167   114378465.258 6  88961075.458 6
     -1916.730       -1490.787
  19952145.925    19952145.695    19952150.222   106768054.865 8  83041885.742 7
       694.635         540.276
  22421874.312    22421872.448    22421881.909   119689529.235 6  93091891.418 5
      2964.801        2305.955
 11 10 10 12  2  0.0000000  0 17G03G06G16G18G21G25G29G30G31R05R06R10
                                R11R12R20R21R22
  23677892.788    23677891.1244   23677903.3264  124428186.323 5  96957046.70641
      3490.869        2720.180
  22805581.903    22805581.8814   22805592.6214  119844197.942 6  93385121.84442
      2733.704        2130.171
  22901342.174    22901341.8844   22901350.1734  120347404.792 6  93777220.48242
      3412.447        2659.062
  23565053.536    23565052.6194   23565064.7244  123835364.921 5  96495050.90441
      3147.764        2452.812
  20801763.396    20801762.7644   20801770.1154  109314143.789 8  85179851.29046
       603.446         470.220
  23892502.589    23892502.3384   23892519.1974  125555805.356 6  97835670.10042
     -2821.897       -2198.876
  22262525.544    22262525.3564   22262534.7814  116990370.310 6  91161344.82844
     -1696.133       -1321.657
  20628654.527    20628653.6094   20628662.8274  108404312.639 8  84470917.95546
     -1468.912       -1144.602
  22348210.557    22348210.9574   22348220.0134  117440614.593 7  91512181.41944
     -2039.899       -1589.530
  22205137.747    22205137.446    22205147.493   118699288.318 6  92321713.870 5
      1713.295        1332.558
  23109716.727    23109716.093    23109729.391   123317971.770 6  95914036.358 4
      4195.721        3263.334
  21993110.344    21993109.061    21993124.135   117235620.909 7  91183253.780 4
     -3798.011       -2953.987
  19997061.741    19997060.968    19997067.683   106858278.271 8  83112030.521 5
      -503.923        -391.938
  22230546.592    22230546.365    22230555.553   118751609.751 6  92362392.427 5
      3687.660        2868.177
  21400107.891    21400107.658    21400115.343   114436015.315 6  89005836.552 6
     -1919.794       -1493.171
  19948278.602    19948278.253    19948283.078   106747360.703 8  83025790.293 6
       685.146         532.890
  22405230.787    22405230.161    22405236.223   119600684.509 6  93022790.135 5
      2958.326        2300.907
 11 10 10 12  2 30.0000000  0 17G03G06G16G18G21G25G29G30G31R05R06R10
                                R11R12R20R21R22
  23657973.018    23657973.3504   23657983.9844  124323503.105 5  96875475.52841
      3487.997        2717.878
  22789990.182    22789989.2074   22789998.1754  119762258.034 6  93321272.65342
      2728.927        2126.417
  22881877.480    22881876.6634   22881884.0964  120245115.585 6  93697514.65842
      3406.780        2654.633
  23547097.218    23547096.9664   23547110.5434  123741008.020 5  96421526.31941
      3142.650        2448.802
  20798360.944    20798360.2614   20798367.2514  109296262.691 8  85165917.99446
       588.595         458.644
  23908630.792    23908630.7254   23908646.3314  125640558.150 5  97901710.94142
     -2828.335       -2203.896
  22272220.230    22272219.9924   22272229.1604  117041315.605 7  91201042.42544
     -1700.274       -1324.891
  20637086.009    20637085.1564   20637094.5374  108448621.142 8  84505444.01146
     -1485.003       -1157.146
  22359889.704    22359890.1864   22359899.4754  117501988.855 6  91560005.42644
     -2051.737       -1598.752
  22195588.943    22195588.055    22195598.459   118648242.786 6  92282011.913 5
      1689.677        1314.185
  23086145.277    23086144.760    23086157.163   123192189.816 6  95816206.176 4
      4189.673        3258.631
  22014512.700    22014510.744    22014524.806   117349703.971 7  91271984.783 4
     -3807.562       -2961.431
  19999967.754    19999966.900    19999973.851   106873807.727 8  83124108.958 5
      -531.421        -413.329
  22209887.159    22209886.984    22209896.717   118641259.294 6  92276564.386 5
      3669.006        2853.665
  21410888.720    21410887.955    21410895.298   114493660.928 6  89050671.976 6
     -1923.238       -1495.854
  19944465.396    19944465.197    19944469.795   106726953.790 8  83009918.266 7
       675.306         525.235
  22388621.241    22388622.260    22388629.230   119512036.650 6  92953841.960 5
      2951.522        2295.623
 11 10 10 12  3  0.0000000  0 17G03G06G16G18G21G25G29G30G31R05R06R10
                                R11R12R20R21R22
  23638068.712    23638068.0114   23638080.2414  124218905.993 5  96793971.42741
      3485.343        2715.872
  22774424.361    22774423.9614   22774433.0284  119680462.342 6  93257535.82842
      2724.289        2122.801
  22862445.361    22862444.5584   22862452.7664  120142998.955 6  93617943.33542
      3401.124        2650.223
  23529171.605    23529170.9454   23529183.2924  123646807.366 5  96348123.47641
      3137.538        2444.839
  20795043.141    20795042.5854   20795049.4544  109278828.177 8  85152332.68646
       573.863         447.166
  23924796.201    23924794.9594   23924812.0754  125725506.214 6  97967903.94142
     -2834.719       -2208.859
  22281938.234    22281938.2094   22281947.8884  117092384.924 7  91240836.64644
     -1704.224       -1327.963
  20645610.062    20645609.1194   20645618.1014  108493413.685 8  84540347.24546
     -1500.998       -1169.604
  22371636.776    22371636.7254   22371646.0564  117563718.408 7  91608106.27244
     -2063.382       -1607.828
  22186174.285    22186173.118    22186182.788   118597910.241 6  92242864.511 5
      1666.003        1295.774
  23062607.468    23062607.696    23062621.606   123066594.099 6  95718520.825 4
      4183.527        3253.853
  22035967.015    22035965.676    22035979.886   117464072.830 7  91360938.059 4
     -3816.896       -2968.697
  20003028.241    20003027.803    20003034.624   106890163.454 8  83136830.044 5
      -558.794        -434.613
  22189336.604    22189336.275    22189343.351   118531469.940 6  92191172.708 5
      3650.366        2839.174
  21421686.702    21421687.271    21421694.822   114551409.271 6  89095587.312 6
     -1926.535       -1498.413
  19940707.036    19940706.795    19940711.125   106706842.657 8  82994276.294 7
       665.607         517.694
  22372056.427    22372055.348    22372061.339   119423595.267 6  92885054.387 5
      2944.748        2290.357
 11 10 10 12  3 30.0000000  0 17G03G06G16G18G21G25G29G30G31R05R06R10
                                R11R12R20R21R22
  23618178.184    23618177.0594   23618187.6554  124114384.092 5  96712525.92541
      3482.930        2713.993
  22758883.102    22758883.5444   22758894.0054  119598800.224 6  93193903.09342
      2720.000        2119.476
  22843043.962    22843043.4424   22843050.8404  120041045.577 6  93538499.20542
      3395.806        2646.079
  23511274.231    23511273.4694   23511286.1354  123552754.638 5  96274835.92941
      3132.750        2441.108
  20791808.454    20791807.8264   20791814.5624  109261829.010 8  85139086.61146
       559.526         435.993
  23940995.863    23940994.8264   23941012.8684  125810636.902 6  98034239.20441
     -2840.614       -2213.453
  22291678.082    22291677.9464   22291686.9444  117143566.861 7  91280718.63044
     -1707.808       -1330.753
  20654223.373    20654222.5184   20654231.8634  108538678.020 8  84575618.10546
     -1516.540       -1181.715
  22383448.775    22383448.8964   22383457.9934  117625789.559 7  91656473.29744
     -2074.558       -1616.542
  22176889.278    22176889.064    22176897.921   118548281.680 6  92204264.650 5
      1642.657        1277.620
  23039105.477    23039104.767    23039118.230   122941177.998 6  95620975.169 4
      4177.578        3249.221
  22057473.595    22057471.798    22057486.040   117578711.668 6  91450101.300 4
     -3825.631       -2975.488
  20006241.325    20006240.973    20006247.778   106907332.777 8  83150183.935 5
      -585.743        -455.577
  22168885.324    22168885.397    22168894.823   118422234.270 6  92106211.697 5
      3632.007        2824.889
  21432503.638    21432503.511    21432511.201   114609249.647 6  89140574.213 6
     -1929.416       -1500.658
  19937002.005    19937001.542    19937006.271   106687014.996 8  82978854.798 7
       656.323         510.474
  22355524.206    22355523.509    22355530.313   119335348.556 6  92816418.187 5
      2938.408        2285.423
 11 10 10 12  4  0.0000000  0 17G03G06G16G18G21G25G29G30G31R05R06R10
                                R11R12R20R21R22
  23598303.591    23598303.8224   23598314.7314  124009940.845 5  96631141.77741
      3479.887        2711.587
  22743370.096    22743370.0464   22743379.2414  119517274.317 6  93130376.48242
      2715.045        2115.628
  22823675.062    22823674.0274   22823682.2724  119939259.997 6  93459185.82542
      3389.823        2641.411
  23493405.389    23493405.0914   23493418.4764  123458855.165 5  96201667.79741
      3127.211        2436.749
  20788656.685    20788655.9094   20788662.5754  109245266.388 8  85126180.70246
       544.608         424.368
  23957231.202    23957229.9034   23957247.4294  125895951.458 5  98100717.77741
     -2847.115       -2218.509
  22301439.604    22301439.5444   22301448.6504  117194863.393 6  91320689.92144
     -1711.998       -1334.031
  20662927.170    20662926.3544   20662935.3574  108584415.741 8  84611257.84146
     -1532.675       -1194.294
  22395325.902    22395325.9654   22395334.9444  117688201.820 7  91705106.11344
     -2086.278       -1625.668
  22167737.523    22167737.039    22167746.451   118499362.438 6  92166216.458 5
      1618.640        1258.940
  23015637.387    23015636.884    23015649.092   122815948.513 6  95523574.675 4
      4170.964        3244.071
  22079029.705    22079028.238    22079043.046   117693618.773 7  91539473.191 4
     -3834.881       -2982.682
  20009606.600    20009606.314    20009612.933   106925316.677 8  83164171.386 5
      -613.237        -476.968
  22148542.706    22148542.643    22148549.780   118313558.804 6  92021686.408 5
      3612.917        2810.049
  21443337.203    21443337.252    21443344.268   114667182.518 6  89185633.064 5
     -1932.825       -1503.306
  19933349.668    19933349.509    19933353.879   106667472.768 8  82963655.306 6
       646.452         502.795
  22339027.646    22339027.898    22339035.126   119247299.119 6  92747935.461 5
      2931.506        2280.057
 11 10 10 12  4 30.0000000  0 17G03G06G16G18G21G25G29G30G31R05R06R10
                                R11R12R20R21R22
  23578443.896    23578444.6944   23578456.6744  123905577.923 5  96549820.17341
      3477.543        2709.759
  22727882.753    22727882.5764   22727891.6994  119435886.200 6  93066957.27442
      2710.703        2112.228
  22804338.180    22804337.6124   22804345.8834  119837646.010 6  93380006.15642
      3384.321        2637.133
  23475567.086    23475566.9194   23475578.9704  123365112.964 5  96128622.21841
      3122.193        2432.873
  20785588.220    20785587.4234   20785594.3054  109229141.630 8  85113615.98546
       530.281         413.204
  23973500.991    23973500.5864   23973516.5234  125981449.885 5  98167339.60341
     -2852.933       -2223.056
  22311222.861    22311223.1734   22311231.8134  117246275.218 7  91360751.02644
     -1715.557       -1336.797
  20671721.131    20671720.1354   20671729.2394  108630627.130 8  84647266.65946
     -1548.197       -1206.387
  22407266.881    22407267.0714   22407276.2434  117750953.812 7  91754003.65444
     -2097.293       -1634.254
  22158719.601    22158718.612    22158728.423   118451156.132 6  92128722.751 5
      1595.021        1240.566
  22992203.333    22992204.738    22992216.919   122690912.016 5  95426324.294 4
      4164.713        3239.213
  22100635.174    22100634.722    22100649.527   117808791.040 6  91629051.327 4
     -3843.362       -2989.279
  20013124.394    20013124.096    20013130.790   106944115.036 8  83178792.305 5
      -640.086        -497.844
  22128302.992    22128302.925    22128311.905   118205449.155 6  91937601.180 5
      3594.299        2795.557
  21454188.715    21454188.799    21454195.671   114725207.957 6  89230763.918 5
     -1935.703       -1505.544
  19929751.299    19929750.905    19929755.416   106648216.112 8  82948677.931 7
       637.210         495.607
  22322571.451    22322571.007    22322577.110   119159448.133 6  92679607.059 5
      2925.168        2275.125
 11 10 10 12  5  0.0000000  0 17G03G06G16G18G21G25G29G30G31R05R06R10
                                R11R12R20R21R22
  23558599.045    23558597.7944   23558610.3824  123801295.077 5  96468560.95241
      3474.847        2707.680
  22712420.894    22712421.2944   22712429.8594  119354635.144 6  93003644.83942
      2706.209        2108.744
  22785033.535    22785033.6294   22785041.9254  119736204.591 6  93300960.95142
      3378.568        2632.646
  23457758.752    23457757.9794   23457769.6224  123271529.579 5  96055700.39241
      3116.885        2428.726
  20782602.618    20782602.0324   20782608.9024  109213453.176 8  85101391.24346
       515.788         401.912
  23989805.706    23989804.3614   23989821.6734  126067129.720 5  98234102.80041
     -2858.939       -2227.769
  22321028.100    22321028.1224   22321037.1244  117297801.190 7  91400901.08244
     -1719.330       -1339.741
  20680604.385    20680603.6004   20680612.7454  108677310.213 8  84683643.03246
     -1563.870       -1218.599
  22419272.223    22419272.2434   22419282.0904  117814041.761 7  91803162.97944
     -2108.402       -1642.900
  22149834.832    22149834.754    22149844.582   118403664.021 6  92091784.562 5
      1571.195        1222.037
  22968811.200    22968809.619    22968821.208   122566071.878 6  95329226.656 4
      4158.155        3234.108
  22122290.914    22122290.524    22122304.548   117924223.232 6  91718831.627 4
     -3851.890       -2995.908
  20016793.990    20016793.742    20016800.883   106963725.164 8  83194044.589 5
      -667.090        -518.848
  22108171.163    22108170.958    22108179.208   118097907.989 6  91853958.100 5
      3575.291        2780.781
  21465056.777    21465057.167    21465064.268   114783325.286 6  89275966.241 6
     -1938.694       -1507.871
  19926205.879    19926205.526    19926209.709   106629243.417 8  82933921.403 7
       627.772         488.271
  22306150.782    22306149.929    22306156.824   119071794.618 6  92611432.232 5
      2918.627        2270.042
 11 10 10 12  5 30.0000000  0 17G03G06G16G18G21G25G29G30G31R05R06R10
                                R11R12R20R21R22
  23538767.929    23538766.3154   23538779.2894  123697087.200 5  96387360.13341
      3472.296        2705.697
  22696985.111    22696984.4224   22696993.7654  119273515.522 6  92940434.83942
      2701.818        2105.307
  22765762.508    22765762.9534   22765769.9084  119634931.949 6  93222047.25542
      3372.935        2628.256
  23439979.257    23439979.0324   23439990.0004  123178102.294 5  95982900.18341
      3111.580        2424.607
  20779698.939    20779698.2594   20779705.2294  109198194.509 8  85089501.39946
       501.503         390.786
  24006144.215    24006142.4774   24006161.7584  126152983.732 5  98301001.67941
     -2864.654       -2232.193
  22330853.442    22330853.5814   22330862.5624  117349435.173 7  91441135.29944
     -1722.874       -1342.506
  20689576.305    20689575.5244   20689584.6164  108724458.050 8  84720381.55245
     -1579.316       -1230.636
  22431339.601    22431340.1584   22431349.0664  117877457.240 6  91852577.53144
     -2119.278       -1651.377
  22141083.397    22141082.913    22141092.867   118356882.822 6  92055399.311 5
      1547.538        1203.639
  22945450.458    22945450.547    22945462.061   122441426.495 5  95232280.522 4
      4151.534        3228.964
  22143994.510    22143991.944    22144006.457   118039905.007 6  91808806.003 4
     -3860.150       -3002.330
  20020615.094    20020614.322    20020621.337   106984139.466 8  83209922.341 5
      -693.821        -539.637
  22088145.423    22088145.316    22088154.786   117990933.666 6  91770755.908 5
      3556.292        2766.004
  21475941.196    21475941.066    21475948.735   114841526.912 6  89321234.125 6
     -1941.439       -1510.009
  19922711.969    19922711.817    19922715.811   106610547.836 8  82919380.420 6
       618.599         481.130
  22289765.320    22289764.578    22289772.489   118984332.393 6  92543406.187 5
      2912.222        2265.057
 11 10 10 12  6  0.0000000  0 17G03G06G16G18G21G25G29G30G31R05R06R10
                                R11R12R20R21R22
  23518952.546    23518952.2624   23518964.0084  123592954.093 5  96306217.63041
      3469.867        2703.758
  22681573.514    22681572.6694   22681582.3434  119192526.827 6  92877326.86143
      2697.542        2101.974
  22746523.972    22746523.1284   22746530.4704  119533829.545 6  93143266.20842
      3367.325        2623.882
  23422230.150    23422230.0514   23422241.9424  123084832.738 5  95910222.90641
      3106.456        2420.613
  20776876.851    20776876.1954   20776883.1884  109183364.243 8  85077945.37346
       487.337         379.745
  24022513.586    24022513.0744   24022531.5134  126239009.804 5  98368034.64341
     -2870.264       -2236.559
  22340699.468    22340699.2784   22340708.2894  117401175.575 7  91481452.43444
     -1726.354       -1345.205
  20698636.650    20698635.7374   20698644.7674  108772068.891 8  84757480.85145
     -1594.618       -1242.555
  22443469.193    22443469.1654   22443478.7034  117941196.515 7  91902244.38344
     -2129.908       -1659.658
  22132464.501    22132464.270    22132473.863   118310813.987 6  92019568.070 5
      1523.805        1185.185
  22922129.671    22922128.769    22922140.744   122316979.712 6  95135488.879 4
      4144.976        3223.857
  22165739.451    22165739.250    22165753.877   118155831.234 6  91898970.518 4
     -3868.121       -3008.519
  20024584.813    20024584.578    20024591.485   107005355.834 8  83226423.923 5
      -720.449        -560.346
  22068226.605    22068226.069    22068234.883   117884529.309 6  91687997.032 5
      3537.437        2751.345
  21486840.254    21486840.132    21486847.919   114899811.763 6  89366566.740 6
     -1944.036       -1512.025
  19919269.801    19919269.404    19919274.018   106592127.804 8  82905053.752 7
       609.532         474.079
  22273417.523    22273416.664    22273422.940   118897060.850 6  92475528.447 5
      2905.952        2260.181
 11 10 10 12  6 30.0000000  0 17G03G06G16G18G21G25G29G30G31R05R06R10
                                R11R12R20R21R22
  23499150.091    23499149.6534   23499162.6834  123488893.125 5  96225131.25941
      3467.447        2701.912
  22666185.180    22666185.3704   22666195.0074  119111665.885 6  92814318.42243
      2693.200        2098.604
  22727316.360    22727316.8704   22727323.8164  119432896.288 6  93064616.95742
      3361.566        2619.408
  23404511.536    23404510.7224   23404522.9104  122991720.987 5  95837668.58041
      3101.046        2416.388
  20774135.606    20774134.8794   20774141.8914  109168958.455 8  85066720.10246
       473.053         368.613
  24038915.330    24038915.4664   24038934.1654  126325203.238 5  98435198.00241
     -2875.952       -2241.004
  22350564.812    22350564.6604   22350573.8974  117453018.913 7  91521849.76444
     -1729.901       -1347.963
  20707783.987    20707783.1684   20707792.3884  108820138.429 8  84794937.58146
     -1610.009       -1254.552
  22455658.844    22455658.7014   22455668.5394  118005253.807 7  91952159.05043
     -2140.578       -1667.982
  22123979.462    22123979.233    22123988.686   118265456.371 6  91984289.990 5
      1499.940        1166.618
  22898845.872    22898845.490    22898857.458   122192733.382 6  95038853.185 4
      4138.153        3218.549
  22187532.926    22187531.894    22187546.624   118271994.551 7  91989319.446 4
     -3876.070       -3014.713
  20028704.312    20028704.052    20028711.293   107027369.080 8  83243545.296 5
      -747.111        -581.089
  22048413.739    22048413.321    22048422.426   117778695.598 6  91605681.949 5
      3518.194        2736.371
  21497754.763    21497754.794    21497761.980   114958174.650 6  89411960.045 6
     -1946.788       -1514.165
  19915878.342    19915877.926    19915882.298   106573979.204 8  82890938.187 6
       600.383         466.963
  22257103.533    22257103.034    22257109.062   118809976.331 6  92407796.166 5
      2899.655        2255.278
 11 10 10 12  7  0.0000000  0 17G03G06G16G18G21G25G29G30G31R05R06R10
                                R11R12R20R21R22
  23479361.069    23479361.5504   23479375.2264  123384906.645 5  96144102.99541
      3464.730        2699.794
  22650823.457    22650822.4644   22650831.9984  119030934.875 6  92751411.22643
      2688.686        2095.085
  22708142.184    22708141.8294   22708149.6314  119332135.963 6  92986102.48243
      3355.574        2614.727
  23386824.307    23386823.2894   23386835.6564  122898771.278 5  95765240.50441
      3095.450        2412.042
  20771475.252    20771474.5154   20771481.5004  109154978.423 8  85055826.59646
       458.691         357.419
  24055350.945    24055350.9124   24055368.4164  126411564.486 5  98502492.14942
     -2881.736       -2245.490
  22360450.411    22360450.4894   22360459.7034  117504967.054 7  91562328.77544
     -1733.568       -1350.827
  20717018.692    20717017.7964   20717027.0514  108868667.359 8  84832752.28446
     -1625.491       -1266.614
  22467908.861    22467909.0384   22467918.4144  118069628.263 7  92002320.85844
     -2151.284       -1676.325
  22115627.877    22115627.592    22115637.403   118220814.082 6  91949568.284 5
      1475.896        1147.913
  22875599.803    22875600.498    22875612.570   122068693.736 6  94942378.252 5
      4130.980        3212.968
  22209369.099    22209367.788    22209382.912   118388391.850 6  92079850.326 4
     -3883.987       -3020.858
  20032973.532    20032972.810    20032979.850   107050179.389 8  83261286.612 5
      -773.840        -601.874
  22028710.621    22028709.997    22028718.610   117673438.173 6  91523815.107 5
      3498.707        2721.218
  21508683.416    21508683.132    21508691.330   115016617.358 5  89457415.445 6
     -1949.581       -1516.340
  19912537.760    19912537.526    19912541.773   106556102.985 8  82877034.478 7
       591.112         459.751
  22240823.538    22240823.588    22240831.455   118723080.700 6  92340210.778 5
      2893.176        2250.244
 11 10 10 12  7 30.0000000  0 17G03G06G16G18G21G25G29G30G31R05R06R10
                                R11R12R20R21R22
  23459588.422    23459589.1324   23459602.7804  123281001.276 5  96063137.92841
      3462.245        2697.865
  22635485.636    22635484.7154   22635495.5474  118950340.198 6  92688610.26643
      2684.238        2091.600
  22689003.264    22689002.6024   22689010.2034  119231556.766 6  92907729.13242
      3349.642        2610.118
  23369168.657    23369167.8884   23369180.8694  122805992.437 5  95692945.58942
      3089.765        2407.592
  20768897.214    20768896.3484   20768903.2084  109141429.526 8  85045269.03446
       444.471         346.338
  24071817.299    24071816.4394   24071835.6334  126498098.136 5  98569920.61242
     -2887.259       -2249.797
  22370356.603    22370356.9424   22370365.6874  117557025.258 7  91602893.55344
     -1737.068       -1353.547
  20726341.835    20726341.0904   20726350.0604  108917660.583 8  84870928.77346
     -1640.827       -1278.566
  22480219.586    22480220.5024   22480230.0334  118134323.251 6  92052732.41944
     -2161.750       -1684.482
  22107411.830    22107411.919    22107421.191   118176895.487 6  91915409.486 5
      1451.918        1129.266
  22852397.344    22852395.869    22852407.982   121944871.324 6  94846072.317 5
      4123.755        3207.357
  22231249.338    22231248.523    22231263.532   118505025.285 6  92170564.865 4
     -3891.661       -3026.834
  20037392.017    20037391.398    20037398.141   107073790.970 8  83279651.137 5
      -800.344        -622.492
  22009115.395    22009114.701    22009123.123   117568767.412 7  91442404.563 5
      3479.205        2706.042
  21519629.014    21519628.578    21519636.478   115075144.224 5  89502936.286 6
     -1952.202       -1518.380
  19909248.946    19909248.608    19909253.056   106538504.709 8  82863346.951 7
       581.984         452.651
  22224581.032    22224581.336    22224589.376   118636379.967 6  92272776.988 5
      2886.773        2245.262
 11 10 10 12  8  0.0000000  0 17G03G06G16G18G21G25G29G30G31R05R06R10
                                R11R12R20R21R22
  23439831.170    23439830.6904   23439844.0174  123177175.053 5  95982234.53041
      3459.684        2695.871
  22620173.442    22620173.7604   22620184.5714  118869879.400 6  92625913.61743
      2679.933        2088.257
  22669897.258    22669896.3664   22669905.2414  119131158.247 6  92829496.56743
      3343.694        2605.451
  23351545.075    23351545.1754   23351557.4974  122713384.457 5  95620783.79242
      3084.211        2403.251
  20766400.286    20766399.5474   20766406.2144  109128308.437 8  85035044.83246
       430.405         335.376
  24088316.054    24088316.6264   24088334.9944  126584800.293 5  98637480.37641
     -2892.744       -2254.070
  22380283.580    22380282.9234   22380292.0174  117609190.228 6  91643541.52344
     -1740.457       -1356.197
  20735752.642    20735751.7394   20735760.9144  108967114.406 8  84909464.17346
     -1655.958       -1290.359
  22492591.200    22492591.4774   22492601.1744  118199332.479 6  92103388.84344
     -2172.074       -1692.518
  22099331.185    22099331.123    22099340.637   118133700.314 6  91881813.336 5
      1427.880        1110.572
  22829233.715    22829232.378    22829244.729   121821268.246 6  94749936.995 5
      4116.602        3201.784
  22253173.117    22253171.656    22253186.089   118621888.038 6  92261457.746 4
     -3899.093       -3032.619
  20041959.362    20041959.107    20041966.270   107098199.447 8  83298635.463 5
      -826.757        -643.034
  21989630.586    21989630.341    21989639.373   117464684.384 6  91361451.151 5
      3459.798        2690.951
  21530589.601    21530589.204    21530596.146   115133752.926 6  89548520.789 6
     -1954.785       -1520.384
  19906011.837    19906011.351    19906015.522   106521180.588 8  82849872.652 6
       573.053         445.705
  22208376.258    22208375.160    22208382.449   118549871.265 6  92205492.555 5
      2880.564        2240.435
 11 10 10 12  8 30.0000000  0 17G03G06G16G18G21G25G29G30G31R05R06R10
                                R11R12R20R21R22
  23420088.718    23420089.5264   23420099.4714  123073423.888 5  95901389.64341
      3456.939        2693.720
  22604888.153    22604887.4334   22604897.3714  118789547.952 6  92563317.76943
      2675.365        2084.702
  22650826.309    22650825.9854   22650833.4624  119030937.924 6  92751402.85843
      3337.538        2600.678
  23333954.853    23333953.9844   23333966.4294  122620945.551 5  95548753.71742
      3078.368        2398.733
  20763983.742    20763982.9224   20763989.6414  109115609.746 8  85025149.76346
       416.069         324.210
  24104847.254    24104846.2604   24104863.8724  126671664.614 5  98705166.51341
     -2898.311       -2258.427
  22390229.369    22390228.6784   22390238.6234  117661457.247 6  91684269.01044
     -1744.092       -1359.023
  20745250.050    20745248.9644   20745258.2564  109017022.953 8  84948353.90245
     -1671.351       -1302.347
  22505021.009    22505020.9974   22505030.5984  118264649.063 6  92154284.76444
     -2182.477       -1700.635
  22091386.366    22091385.948    22091394.238   118091225.420 6  91848777.392 5
      1403.630        1091.709
  22806110.218    22806109.677    22806121.988   121697884.270 6  94653972.113 5
      4108.896        3195.791
  22275137.788    22275136.222    22275151.460   118738970.669 6  92352521.643 4
     -3906.518       -3038.401
  20046675.149    20046674.661    20046681.934   107123398.118 8  83318234.391 5
      -853.251        -663.637
  21970255.917    21970255.268    21970264.160   117361188.136 6  91280954.114 5
      3439.895        2675.475
  21541562.648    21541562.769    21541570.227   115192436.871 5  89594163.825 6
     -1957.567       -1522.550
  19902824.058    19902823.902    19902828.357   106504124.969 8  82836607.186 7
       563.872         438.564
  22192202.914    22192203.793    22192213.025   118463549.715 6  92138353.664 5
      2874.111        2235.418
 11 10 10 12  9  0.0000000  0 17G03G06G16G18G21G25G29G30G31R05R06R10
                                R11R12R20R21R22
  23400360.704    23400360.6084   23400373.7704  122969754.419 5  95820608.41141
      3454.238        2691.573
  22589628.265    22589627.7884   22589636.2744  118709351.990 6  92500827.50343
      2670.961        2081.261
  22631790.670    22631789.8124   22631797.0214  118930903.804 6  92673454.23743
      3331.381        2595.885
  23316398.678    23316396.5324   23316409.5294  122528684.345 5  95476862.10642
      3072.296        2394.009
  20761648.613    20761647.7604   20761654.5264  109103338.838 8  85015588.02846
       401.888         313.163
  24121407.813    24121407.8484   24121426.3284  126758695.625 5  98772982.51141
     -2903.819       -2262.726
  22400196.087    22400195.9304   22400204.8324  117713831.944 6  91725080.39443
     -1747.629       -1361.783
  20754834.633    20754833.8104   20754842.8064  109067390.892 8  84987601.59246
     -1686.598       -1314.226
  22517508.986    22517509.2114   22517519.3704  118330276.058 7  92205422.55944
     -2192.722       -1708.614
  22083577.580    22083576.523    22083584.652   118049479.202 6  91816308.206 5
      1379.381        1072.849
  22783029.840    22783030.277    22783042.228   121574729.767 6  94558185.727 5
      4101.236        3189.834
  22297142.639    22297142.646    22297157.941   118856275.061 6  92443757.985 4
     -3913.811       -3044.057
  20051539.453    20051539.028    20051546.333   107149391.063 8  83338451.082 5
      -879.660        -684.177
  21950992.258    21950992.571    21951001.366   117258288.503 6  91200921.124 6
      3420.025        2660.020
  21552552.662    21552552.387    21552559.640   115251202.061 5  89639870.040 5
     -1960.221       -1524.613
  19899688.127    19899687.740    19899691.879   106487343.255 8  82823554.754 6
       554.807         431.516
  22176069.550    22176069.271    22176077.486   118377421.361 6  92071365.043 5
      2867.698        2230.432
 11 10 10 12  9 30.0000000  0 17G03G06G16G18G21G25G29G30G31R05R06R10
                                R11R12R20R21R22
  23380649.434    23380649.6924   23380660.4414  122866165.078 5  95739889.62541
      3451.826        2689.721
  22574391.629    22574391.3244   22574400.9974  118629289.703 6  92438441.39243
      2666.690        2077.937
  22612789.884    22612789.2214   22612797.3764  118831055.714 6  92595650.57643
      3325.360        2591.171
  23298875.137    23298874.7134   23298885.8904  122436601.199 5  95405109.21141
      3066.682        2389.646
  20759394.250    20759393.5234   20759400.1994  109091492.637 8  85006357.23946
       388.006         302.340
  24138000.548    24137999.3904   24138018.8574  126845889.539 5  98840925.43141
     -2908.929       -2266.686
  22410183.346    22410183.2664   22410191.8644  117766311.482 6  91765973.46944
     -1750.856       -1364.299
  20764506.135    20764505.2734   20764514.3504  109118214.798 8  85027204.58745
     -1701.506       -1325.847
  22530055.585    22530055.8534   22530065.6964  118396208.195 6  92256798.12543
     -2202.609       -1716.301
  22075903.176    22075902.872    22075911.906   118008461.357 6  91784405.543 5
      1355.308        1054.123
  22759995.542    22759993.895    22760006.196   121451807.375 6  94462579.878 5
      4093.723        3183.996
  22319189.560    22319188.753    22319204.124   118973794.053 6  92535161.264 4
     -3920.598       -3049.343
  20056551.509    20056550.905    20056558.172   107176173.949 8  83359282.180 5
      -905.703        -704.435
  21931841.364    21931841.166    21931850.274   117155987.194 6  91121353.501 5
      3400.194        2644.594
  21563556.868    21563556.415    21563563.475   115310043.805 6  89685635.803 5
     -1962.437       -1526.339
  19896602.901    19896602.583    19896606.928   106470832.333 8  82810712.936 6
       546.075         424.724
  22159969.785    22159970.096    22159978.052   118291483.580 6  92004524.666 5
      2861.634        2225.710
 11 10 10 12 10  0.0000000  0 17G03G06G16G18G21G25G29G30G31R05R06R10
                                R11R12R20R21R22
  23360953.383    23360951.1724   23360962.3824  122762654.928 5  95659232.54241
      3448.872        2687.430
  22559181.618    22559181.6374   22559190.8224  118549359.729 6  92376158.38043
      2662.009        2074.276
  22593825.273    22593824.4324   22593831.6734  118731394.775 6  92517992.77243
      3318.825        2586.081
  23281386.761    23281386.0724   23281395.9694  122344697.878 5  95333496.43941
      3060.222        2384.587
  20757220.473    20757219.6904   20757226.5144  109080069.002 8  84997455.71546
       373.648         291.151
  24154624.701    24154625.6144   24154641.7344  126933243.625 5  98908993.18041
     -2914.566       -2271.071
  22420188.935    22420188.8894   22420197.4854  117818894.069 6  91806946.83843
     -1754.549       -1367.178
  20774263.578    20774263.0434   20774272.3504  109169492.078 8  85067160.86245
     -1716.901       -1337.842
  22542659.286    22542659.6514   22542669.3094  118462441.507 6  92308408.37943
     -2212.889       -1724.331
  22068365.858    22068366.007    22068376.003   117968172.507 6  91753069.880 5
      1330.642        1034.941
  22737003.881    22737002.906    22737013.514   121329120.299 6  94367157.053 5
      4085.484        3177.583
  22341276.231    22341274.614    22341290.183   119091522.076 6  92626727.100 4
     -3927.803       -3054.930
  20061710.536    20061710.508    20061717.375   107203743.363 8  83380725.015 5
      -932.202        -725.046
  21912802.905    21912802.911    21912811.386   117054286.579 6  91042253.071 5
      3379.848        2628.767
  21574574.597    21574574.164    21574581.397   115368960.790 5  89731460.080 5
     -1965.182       -1528.472
  19893567.636    19893567.082    19893571.965   106454589.860 8  82798079.903 7
       536.864         417.559
  22143906.555    22143906.810    22143914.723   118205734.812 6  91937831.324 5
      2854.993        2220.541
 11 10 10 12 10 30.0000000  0 17G03G06G16G18G21G25G29G30G31R05R06R10
                                R11R12R20R21R22
  23341270.727    23341269.6654   23341282.0504  122659231.916 5  95578643.36441
      3445.892        2685.102
  22543997.466    22543997.8454   22544007.0624  118469569.810 6  92313984.50343
      2657.278        2070.597
  22574897.767    22574896.5644   22574904.6424  118631929.987 6  92440487.78743
      3312.103        2580.843
  23263934.061    23263933.2684   23263944.1584  122252984.005 5  95262031.26041
      3053.862        2379.628
  20755128.178    20755127.5044   20755134.1844  109069074.490 8  84988888.57446
       359.277         279.958
  24171280.339    24171279.4854   24171296.7714  127020763.725 5  98977190.25841
     -2920.152       -2275.427
  22430216.021    22430215.6274   22430224.8704  117871586.717 6  91848005.96243
     -1758.316       -1370.109
  20784109.054    20784108.1124   20784117.7844  109221228.985 8  85107475.28645
     -1732.281       -1349.830
  22555321.855    22555321.9074   22555330.8534  118528980.528 6  92360256.86243
     -2223.090       -1732.278
  22060966.646    22060966.711    22060977.785   117928622.151 6  91722308.582 6
      1305.896        1015.693
  22714056.261    22714056.478    22714069.080   121206680.479 6  94271926.530 5
      4077.088        3171.054
  22363400.991    22363400.054    22363416.531   119209462.518 6  92718458.135 4
     -3934.867       -3060.438
  20067018.518    20067017.837    20067025.064   107232104.809 7  83402783.877 5
      -958.624        -745.600
  21893879.449    21893879.297    21893887.641   116953198.121 7  90963628.741 5
      3359.312        2612.798
  21585607.155    21585607.437    21585615.125   115427959.338 5  89777347.812 6
     -1968.051       -1530.703
  19890583.497    19890583.211    19890588.092   106438622.599 8  82785660.922 7
       527.572         410.336
  22127880.207    22127879.466    22127887.452   118120182.496 6  91871290.749 5
      2848.415        2215.428
 11 10 10 12 11  0.0000000  0 17G03G06G16G18G21G25G29G30G31R05R06R10
                                R11R12R20R21R22
  23321604.424    23321604.3314   23321616.0844  122555891.012 5  95498118.13241
      3443.478        2683.247
  22528839.641    22528839.6454   22528849.9574  118389914.373 6  92251915.39443
      2653.025        2067.275
  22556006.933    22556006.8024   22556014.3094  118532658.153 6  92363133.15943
      3305.907        2576.034
  23246516.191    23246514.8674   23246528.0784  122161456.680 5  95190711.43342
      3047.948        2375.022
  20753116.550    20753115.7584   20753122.4374  109058502.909 8  84980650.98946
       345.466         269.200
  24187963.342    24187963.8624   24187982.3994  127108442.622 5  99045511.07741
     -2925.220       -2279.375
  22440263.277    22440263.5374   22440271.7114  117924383.512 7  91889146.23243
     -1761.545       -1372.622
  20794040.109    20794039.5264   20794048.8004  109273418.445 8  85148142.34745
     -1747.105       -1361.380
  22568039.825    22568040.4864   22568049.8654  118595816.500 6  92412336.71643
     -2232.681       -1739.742
  22053706.476    22053705.566    22053715.635   117889806.229 6  91692118.508 5
      1281.652         996.841
  22691157.632    22691157.669    22691169.502   121084486.598 6  94176887.266 5
      4069.080        3164.827
  22385565.555    22385563.712    22385580.515   119327605.183 6  92810346.440 4
     -3941.284       -3065.424
  20072472.756    20072472.086    20072479.415   107261250.222 8  83425452.499 5
      -984.489        -765.713
  21875069.232    21875069.245    21875077.637   116852719.540 6  90885478.797 5
      3339.143        2597.109
  21596653.555    21596653.902    21596662.362   115487033.190 5  89823294.085 6
     -1970.250       -1532.411
  19887649.929    19887649.594    19887654.101   106422923.780 8  82773450.732 7
       518.907         403.599
  22111888.767    22111888.784    22111896.243   118034820.598 6  91804898.288 5
      2842.353        2210.714
 11 10 10 12 11 30.0000000  0 17G03G06G16G18G21G25G29G30G31R05R06R10
                                R11R12R20R21R22
  23301955.645    23301956.1114   23301967.3984  122452632.594 5  95417657.19941
      3440.552        2680.941
  22513707.316    22513706.8694   22513717.0404  118310393.500 6  92189951.15843
      2648.438        2063.712
  22537152.931    22537152.1794   22537159.4154  118433581.085 6  92285930.31643
      3299.319        2570.899
  23229134.302    23229133.7454   23229147.4074  122070118.389 5  95119538.89142
      3041.419        2369.944
  20751185.031    20751184.2354   20751190.9514  109048352.785 8  84972741.81646
       331.327         258.177
  24204678.280    24204677.9814   24204696.4294  127196278.770 5  99113954.44341
     -2930.471       -2283.471
  22450329.761    22450329.7994   22450338.0894  117977283.574 7  91930366.99443
     -1765.047       -1375.354
  20804057.560    20804056.8184   20804066.0034  109326059.075 8  85189160.97145
     -1762.191       -1373.133
  22580814.733    22580814.2924   22580824.0984  118662946.159 6  92464645.42143
     -2242.531       -1747.417
  22046583.280    22046581.880    22046591.458   117851726.538 6  91662501.079 5
      1256.990         977.659
  22668306.436    22668305.614    22668317.134   120962543.372 6  94082042.954 5
      4060.548        3158.196
  22407765.726    22407764.561    22407781.600   119445945.241 6  92902388.262 4
     -3947.863       -3070.545
  20078073.096    20078072.708    20078079.777   107291177.495 8  83448729.226 5
     -1010.597        -786.022
  21856373.494    21856374.096    21856382.628   116752854.507 6  90807806.025 5
      3318.548        2581.092
  21607714.860    21607715.411    21607723.225   115546181.979 5  89869298.658 6
     -1972.802       -1534.395
  19884766.123    19884765.990    19884770.299   106407492.491 8  82761448.626 6
       509.936         396.619
  22095933.330    22095933.516    22095939.889   117949648.809 6  91738653.723 5
      2835.886        2205.683
 11 10 10 12 12  0.0000000  0 17G03G06G16G18G21G25G29G30G31R05R06R10
                                R11R12R20R21R22
  23282322.853    23282322.8734   23282332.9044  122349461.908 5  95337264.61041
      3437.484        2678.583
  22498602.050    22498600.9724   22498610.9174  118231012.128 6  92128095.61343
      2643.642        2059.963
  22518337.389    22518336.9734   22518344.4224  118334705.874 6  92208884.72443
      3292.367        2565.483
  23211790.517    23211789.9314   23211803.5444  121978977.082 5  95048519.83241
      3034.583        2364.603
  20749334.599    20749333.8724   20749340.5314  109038628.796 8  84965164.69746
       316.956         246.975
  24221424.558    24221423.9094   24221443.0014  127284275.242 5  99182522.70942
     -2935.929       -2287.713
  22460416.941    22460416.6564   22460425.5754  118030291.712 7  91971671.95343
     -1768.844       -1378.317
  20814161.474    20814160.4334   20814170.0294  109379154.320 8  85230533.84045
     -1777.496       -1385.062
  22593645.397    22593645.1024   22593654.3674  118730371.894 6  92517184.83943
     -2252.512       -1755.201
  22039598.471    22039598.191    22039606.603   117814389.911 6  91633461.564 5
      1232.051         958.255
  22645501.831    22645501.499    22645513.377   120840860.089 6  93987400.774 5
      4051.600        3151.226
  22430002.482    22430002.807    22430019.132   119564483.355 6  92994584.115 4
     -3954.604       -3075.787
  20083820.344    20083819.855    20083827.173   107321888.996 8  83472615.897 5
     -1036.859        -806.443
  21837795.669    21837795.556    21837803.547   116653611.448 6  90730617.045 5
      3297.557        2564.764
  21618790.833    21618791.092    21618798.633   115605409.112 5  89915364.185 5
     -1975.603       -1536.583
  19881933.050    19881932.768    19881937.161   106392332.848 8  82749657.792 6
       500.704         389.436
  22080014.844    22080014.365    22080020.155   117864671.731 6  91672560.562 5
      2829.194        2200.478
 11 10 10 12 12 30.0000000  0 18G03G06G16G18G21G22G25G29G30G31R05R06
                                R10R11R12R20R21R22
  23262706.010    23262706.2254   23262719.3814  122246382.912 5  95256943.47941
      3434.207        2675.996
  22483523.596    22483523.0114   22483532.4384  118151773.720 6  92066351.45043
      2638.695        2056.132
  22499560.909    22499560.8004   22499568.9794  118236037.685 6  92132000.48643
      3285.211        2559.909
  23194486.065    23194484.1394   23194497.8404  121888038.160 5  94977658.47941
      3027.590        2359.156
  20747565.538    20747564.7474   20747571.7534  109029332.559 8  84957920.88346
       302.531         235.742
  25011214.887                                   131434829.625 4
      3702.760
  24238201.153    24238200.5884   24238220.0774  127372433.702 5  99251217.19242
     -2941.471       -2292.040
  22470525.245    22470525.1344   22470534.1164  118083410.331 7  92013063.00043
     -1772.716       -1381.330
  20824352.138    20824351.1534   20824360.5694  109432705.928 8  85272262.31045
     -1792.867       -1397.034
  22606532.112    22606532.4094   22606541.6274  118798093.427 6  92569954.73243
     -2262.479       -1762.969
  22032753.246    22032753.416    22032761.584   117777801.003 6  91605003.609 5
      1206.924         938.711
  22622747.991    22622748.356    22622759.536   120719444.343 6  93892966.650 5
      4042.487        3144.153
  22452277.208    22452277.101    22452293.805   119683218.276 6  93086933.009 4
     -3961.294       -3080.984
  20089714.556    20089714.258    20089721.220   107353385.716 8  83497113.310 5
     -1063.187        -826.922
  21819334.806    21819334.460    21819342.775   116554997.418 6  90653917.276 5
      3276.435        2548.346
  21629881.071    21629881.516    21629889.102   115664716.632 5  89961492.197 5
     -1978.445       -1538.787
  19879151.394    19879151.134    19879155.287   106377446.983 8  82738079.892 7
       491.420         382.215
  22064132.157    22064131.743    22064137.579   117779892.295 6  91606621.132 5
      2822.433        2195.231
 11 10 10 12 13  0.0000000  0 18G03G06G16G18G21G22G25G29G30G31R05R06
                                R10R11R12R20R21R22
  23243108.277    23243108.5824   23243120.9894  122143397.675 5  95176695.39641
      3430.898        2673.414
  22468471.925    22468471.5634   22468481.6474  118072679.950 6  92004719.99843
      2633.671        2052.192
  22480825.660    22480825.4734   22480831.8944  118137580.179 6  92055280.39343
      3277.969        2554.262
  23177220.617    23177219.4134   23177230.9004  121797306.063 5  94906958.30941
      3020.576        2353.684
  20745878.362    20745877.3544   20745884.2054  109020465.121 8  84951011.20546
       288.052         224.456
  24990064.672                                   131323687.760 4
      3706.200
  24255008.669    24255008.1424   24255026.2854  127460754.287 6  99320037.99442
     -2947.075       -2296.394
  22480654.511    22480654.4094   22480663.3814  118136640.762 6  92054541.17043
     -1776.600       -1384.368
  20834629.701    20834628.7004   20834638.1304  109486714.293 8  85314346.69345
     -1808.230       -1409.007
  22619475.931    22619475.6854   22619485.2994  118866109.588 6  92622954.19843
     -2272.449       -1770.731
  22026048.746    22026048.314    22026058.247   117741963.444 6  91577130.042 5
      1181.687         919.083
  22600044.491    22600045.511    22600056.934   120598302.620 6  93798745.653 5
      4033.004        3136.767
  22474590.351    22474588.680    22474605.049   119802147.459 6  93179433.013 4
     -3967.866       -3086.105
  20095755.494    20095755.280    20095762.217   107385667.349 7  83522221.204 5
     -1089.490        -847.377
  21800993.168    21800993.201    21801001.513   116457017.688 6  90577710.865 5
      3255.004        2531.668
  21640988.642    21640988.081    21640995.462   115724105.384 5  90007683.432 5
     -1981.384       -1541.079
  19876420.792    19876420.742    19876424.961   106362835.811 8  82726715.648 7
       482.099         374.969
  22048288.557    22048287.685    22048293.775   117695312.018 6  91540836.600 5
      2815.660        2189.952
 11 10 10 12 13 30.0000000  0 18G03G06G16G18G21G22G25G29G30G31R05R06
                                R10R11R12R20R21R22
  23223537.102    23223537.2004   23223547.5484  122040542.822 5  95096548.89641
      3426.682        2670.135
  22453455.845    22453455.1844   22453463.7744  117993767.049 6  91943229.47943
      2627.844        2047.658
  22462137.364    22462136.5394   22462144.4474  118039371.394 6  91978754.11643
      3269.902        2547.985
  23160000.832    23160001.6164   23160010.8314  121706819.207 5  94836449.19341
      3012.600        2347.482
  20744278.872    20744278.3204   20744285.0534  109012061.844 8  84944463.21246
       272.798         212.571
  24968898.283                                   131212474.998 4
      3708.542
  24271852.245    24271851.3974   24271871.2434  127549271.266 5  99389011.86142
     -2953.341       -2301.292
  22490812.079    22490812.1494   22490821.3434  118190018.482 6  92096134.10943
     -1781.293       -1388.014
  20845000.205    20844999.6154   20845008.9034  109541213.915 8  85356813.87445
     -1824.378       -1421.588
  22632481.083    22632481.4594   22632490.1434  118934453.508 6  92676209.06543
     -2283.136       -1779.058
  22019490.793    22019490.824    22019500.777   117706914.984 6  91549870.223 5
      1155.605         898.802
  22577402.564    22577402.686    22577413.225   120477475.658 6  93704769.431 5
      4022.703        3128.762
  22496944.387    22496941.892    22496957.949   119921302.508 6  93272108.665 4
     -3975.175       -3091.792
  20101949.739    20101949.481    20101956.470   107418767.880 8  83547966.015 5
     -1116.550        -868.428
  21782777.873    21782777.403    21782785.666   116359712.526 7  90502029.128 5
      3232.664        2514.292
  21652115.563    21652115.625    21652123.586   115783611.544 5  90053965.956 5
     -1985.073       -1543.942
  19873748.616    19873748.185    19873752.860   106348535.088 8  82715592.866 7
       471.972         367.091
  22032486.095    22032485.849    22032494.052   117610967.002 6  91475235.031 5
      2808.006        2184.007
 11 10 10 12 14  0.0000000  0 18G03G06G16G18G21G22G25G29G30G31R05R06
                                R10R11R12R20R21R22
  23203985.015    23203984.0704   23203996.2654  121937794.689 5  95016485.55241
      3423.283        2667.492
  22438469.081    22438468.4694   22438477.1254  117915011.196 6  91881861.35143
      2622.648        2043.621
  22443492.010    22443490.8824   22443498.8704  117941389.641 6  91902404.75443
      3262.313        2542.051
  23142824.674    23142822.8414   23142834.4694  121616556.301 5  94766114.60241
      3005.101        2341.602
  20742763.603    20742762.8564   20742769.5704  109004097.386 8  84938257.15746
       258.281         201.253
  24947717.114                                   131101169.812 4
      3711.906
  24288728.748    24288728.8694   24288748.7084  127637959.124 5  99458118.84941
     -2959.004       -2305.743
  22500993.399    22500993.5454   22501002.6134  118243518.870 6  92137822.63244
     -1785.284       -1391.139
  20855460.022    20855459.1774   20855468.5754  109596179.304 8  85399643.98645
