     2.11           OBSERVATION DATA    M (MIXED)           RINEX VERSION / TYPE
teqc  2012Jun6                          20151118 02:01:21UTCPGM / RUN BY / DATE
OSX ker:10.8.0|Core 2 Duo|gcc 4.2 -m64|OSX ker:10.8.0+|=+   COMMENT
     2              OBSERVATION DATA    M (MIXED)           COMMENT
CCRINEXO V2.3.3 UX  BKG Frankfurt       11-OCT-11 00:16     COMMENT
Concatenated RINEX hourly files (24/24)                     COMMENT
JPS2RIN 1.40 lnx    SAC                 10-OCT-11 01:01     COMMENT
build Feb  6 2004 (c) Javad Navigation Systems              COMMENT
Stazione Astronomica Cagliari                               COMMENT
/home/srv/htdocs/glonass/hdata/CAGZ.tps                     COMMENT
SE TPS 8b1daea3                                             COMMENT
CAGZ                                                        MARKER NAME
12725M004                                                   MARKER NUMBER
SAC                 SAC-DIST                                OBSERVER / AGENCY
AGNV7TGA2O0         TPS E_GGD           3.3 Jul,10,2008 p4  REC # / TYPE / VERS
RRA052              JPSREGANT_DD_E  NONE                    ANT # / TYPE
  4893378.7999   772650.4734  4004179.0402                  APPROX POSITION XYZ
        0.0945        0.0000        0.0000                  ANTENNA: DELTA H/E/N
     1     1                                                WAVELENGTH FACT L1/2
     7    C1    P1    P2    L1    L2    D1    D2            # / TYPES OF OBSERV
    30.0000                                                 INTERVAL
teqc windowed: start @ 2011 Oct 10 16:00:00.000             COMMENT
teqc windowed: delta = 14400.000 sec                        COMMENT
  2011    10    10    16     0    0.0000000     GPS         TIME OF FIRST OBS
    15                                                      LEAP SECONDS
                                                            END OF HEADER
 11 10 10 16  0  0.0000000  1 17G03G06G11G14G16G18G19G22G32R01R03R07
                                R08R14R22R23R24
  20310425.289    20310424.7024   20310433.2844  106732080.663 8  83167888.23146
     -1440.937       -1122.808
  21298714.882    21298714.5344   21298723.3184  111925574.290 8  87214770.03845
     -1595.905       -1243.561
  21902024.824    21902024.4434   21902032.1224  115095991.251 6  89685208.39743
      2903.725        2262.628
  22949631.852    22949630.4834   22949639.6564  120601231.537 6  93974982.34142
      2526.333        1968.579
  23565535.548    23565535.0794   23565546.6584  123837696.386 5  96496911.17041
     -2963.006       -2308.846
  24442454.923    24442453.3874   24442463.5524  128446193.430 5 100087919.37741
     -2626.325       -2046.470
  20328184.838    20328183.7034   20328189.4684  106825399.558 8  83240596.84147
      1126.428         877.735
  21309767.445    21309766.3934   21309772.1984  111984053.119 7  87260265.78045
     -1449.502       -1129.487
  22789926.780    22789925.7154   22789938.9744  119762198.268 6  93321095.63242
      3835.158        2988.423
  22479815.475    22479814.259    22479826.092   120167798.890 5  93463949.228 4
      4671.173        3633.119
  23892215.252    23892213.788    23892227.871   127403774.515 4  99091848.139 4
     -1409.825       -1096.534
  20206612.794    20206612.286    20206613.889   108167976.237 7  84130788.687 6
     -2021.960       -1572.636
  19239323.712    19239323.369    19239328.107   103026302.322 8  80131742.629 7
      1786.149        1389.224
  24051100.620    24051099.603    24051064.573   128205910.430 4  99715731.923 3
     -1297.813       -1009.377
  20303178.830    20303178.612    20303184.556   108379835.580 8  84295473.288 6
     -1340.714       -1042.775
  19739001.096    19739000.744    19739007.957   105590410.035 8  82125921.131 7
      2260.854        1758.439
  23160836.950    23160836.411    23160844.727   123851424.867 5  96328922.455 5
      4168.478        3242.148
 11 10 10 16  0 30.0000000  0 17G03G06G11G14G16G18G19G22G32R01R03R07
                                R08R14R22R23R24
  20318694.594    20318693.9674   20318702.3424  106775535.852 8  83201749.39846
     -1456.215       -1134.713
  21307860.894    21307860.5354   21307869.3434  111973636.405 8  87252221.00645
     -1608.354       -1253.261
  21885465.230    21885464.7174   21885472.7794  115008969.842 7  89617399.59443
      2897.560        2257.831
  22935243.470    22935243.2154   22935252.6094  120525626.122 6  93916069.13342
      2513.871        1958.862
  23582460.672    23582460.1624   23582472.9344  123926637.450 6  96566215.60941
     -2966.527       -2311.561
  24457456.198    24457457.1774   24457466.1434  128525031.832 5 100149351.87341
     -2629.689       -2049.090
  20321793.664    20321792.4984   20321798.1334  106791813.277 8  83214425.72447
      1112.528         866.904
  21318077.861    21318077.1394   21318083.1944  112027726.315 7  87294296.83645
     -1462.130       -1139.315
  22768058.524    22768057.7704   22768070.5744  119647281.004 6  93231549.96842
      3825.882        2981.192
  22453623.476    22453623.068    22453634.766   120027794.276 5  93355057.227 4
      4662.288        3626.211
  23900200.328    23900199.220    23900211.768   127446348.778 5  99124961.405 4
     -1428.593       -1111.118
  20217996.003    20217994.596    20217996.773   108228906.491 7  84178178.866 6
     -2040.093       -1586.733
  19229387.097    19229386.383    19229391.211   102973089.961 8  80090355.282 7
      1761.201        1369.824
  24058458.431    24058456.154    24058422.173   128245123.444 4  99746231.009 3
     -1316.609       -1024.029
  20310756.589    20310756.446    20310762.009   108420285.472 8  84326934.299 6
     -1356.043       -1054.702
  19726358.662    19726358.100    19726365.281   105522780.054 8  82073320.067 7
      2247.637        1748.164
  23137446.776    23137448.191    23137456.884   123726356.893 5  96231647.475 5
      4169.195        3242.709
 11 10 10 16  1  0.0000000  0 17G03G06G11G14G16G18G19G22G32R01R03R07
                                R08R14R22R23R24
  20327050.511    20327049.9074   20327058.5734  106819447.679 8  83235966.38646
     -1471.234       -1146.415
  21317077.884    21317077.3914   21317086.2034  112022071.041 7  87289962.25945
     -1620.591       -1262.793
  21868940.359    21868939.6754   21868947.7554  114922133.049 6  89549734.63443
      2891.567        2253.175
  22920928.057    22920927.3534   22920936.6614  120450393.249 6  93857446.23742
      2501.623        1949.295
  23599405.159    23599405.2874   23599416.7164  124015682.496 6  96635601.02641
     -2969.812       -2314.140
  24472477.273    24472477.9204   24472484.4534  128603969.766 4 100210861.97441
     -2632.851       -2051.556
  20315481.931    20315480.7384   20315486.4104  106758644.172 8  83188579.68147
      1098.755         856.178
  21326460.973    21326459.7594   21326465.8114  112071778.139 7  87328622.92945
     -1474.597       -1149.034
  22746242.368    22746242.3834   22746255.8174  119532642.423 6  93142221.45042
      3816.763        2974.093
  22427480.844    22427482.051    22427493.396   119888057.264 5  93246373.352 4
      4653.500        3619.365
  23908288.101    23908287.467    23908300.849   127489480.142 5  99158507.937 4
     -1446.882       -1125.343
  20229479.193    20229477.976    20229480.011   108290379.506 7  84225991.193 6
     -2057.979       -1600.649
  19219589.345    19219589.270    19219593.990   102920626.417 8  80049550.344 7
      1736.441        1350.567
  24065917.907    24065917.932    24065885.642   128284897.493 4  99777166.473 3
     -1335.037       -1038.397
  20318419.914    20318419.872    20318425.619   108461193.437 8  84358751.589 6
     -1371.158       -1066.457
  19713790.341    19713790.066    19713796.632   105455547.484 8  82021028.095 7
      2234.507        1737.952
  23114055.558    23114055.533    23114063.760   123601266.731 5  96134355.230 5
      4170.155        3243.447
 11 10 10 16  1 30.0000000  0 17G03G06G11G14G16G18G19G22G32R01R03R07
                                R08R14R22R23R24
  20335492.962    20335492.2114   20335500.9004  106863812.140 8  83270536.07146
     -1486.374       -1158.214
  21326365.069    21326364.3134   21326372.8344  112070874.376 8  87327990.80545
     -1632.922       -1272.407
  21852451.073    21852450.8614   21852458.2494  114835479.031 7  89482212.08843
      2885.378        2248.348
  22906681.562    22906680.7074   22906690.7794  120375533.184 5  93799113.82542
      2489.053        1939.518
  23616369.916    23616369.0704   23616381.7114  124104825.852 5  96705063.06941
     -2973.110       -2316.675
  24487516.352    24487516.6174   24487525.5214  128683002.841 5 100272446.12541
     -2636.033       -2054.060
  20309249.033    20309247.9024   20309253.6994  106725890.928 8  83163057.68547
      1084.784         845.288
  21334915.140    21334913.7084   21334919.6754  112116203.977 7  87363240.46445
     -1487.120       -1158.796
  22724481.000    22724480.1514   22724493.1324  119418281.860 5  93053109.57642
      3807.344        2966.748
  22401389.991    22401391.049    22401402.755   119748588.389 6  93137898.006 4
      4644.425        3612.323
  23916480.834    23916479.450    23916492.233   127533163.065 4  99192483.496 4
     -1465.238       -1139.629
  20241063.188    20241061.764    20241063.495   108352388.530 7  84274220.417 6
     -2075.878       -1614.573
  19209931.898    19209931.312    19209935.975   102868909.549 8  80009326.155 7
      1711.478        1331.150
  24073486.899    24073484.299    24073456.573   128325226.993 4  99808533.807 3
     -1353.639       -1052.829
  20326168.488    20326168.144    20326174.503   108502556.825 8  84390923.095 6
     -1386.406       -1078.319
  19701296.139    19701295.841    19701302.520   105388712.294 8  81969045.201 7
      2221.144        1727.556
  23090659.694    23090659.060    23090667.094   123476153.638 5  96037045.151 5
      4170.792        3243.948
 11 10 10 16  2  0.0000000  0 17G03G06G11G14G16G18G19G22G32R01R03R07
                                R08R14R22R23R24
  20344021.862    20344021.5884   20344030.5884  106908633.914 8  83305462.11346
     -1501.835       -1170.262
  21335723.146    21335722.4004   21335731.3414  112120051.585 7  87366310.67545
     -1645.627       -1282.301
  21835997.536    21835996.7054   21836004.3454  114749014.387 7  89414837.12243
      2878.806        2243.225
  22892508.741    22892507.7614   22892517.0634  120301054.251 6  93741078.42142
      2476.112        1929.442
  23633352.258    23633351.6304   23633363.2504  124194070.413 5  96774603.97741
     -2976.619       -2319.453
  24502574.963    24502573.4764   24502585.2864  128762134.357 4 100334107.05941
     -2639.515       -2056.789
  20303096.916    20303095.6184   20303101.2894  106693560.536 8  83137865.18447
      1070.464         834.126
  21343440.635    21343439.6014   21343445.4824  112161007.552 7  87398152.33345
     -1499.885       -1168.737
  22702772.610    22702771.6494   22702785.6694  119304207.062 5  92964220.37942
      3797.595        2959.159
  22375352.970    22375352.744    22375363.450   119609396.676 6  93029638.219 4
      4634.911        3604.908
  23924773.087    23924775.484    23924788.131   127577399.491 4  99226889.544 4
     -1483.849       -1154.099
  20252747.331    20252746.269    20252748.246   108414936.312 7  84322868.682 6
     -2093.858       -1628.555
  19200414.590    19200414.072    19200418.759   102817946.018 8  79969687.892 7
      1686.043        1311.365
  24081153.337    24081152.915    24081129.528   128366113.877 4  99840334.752 3
     -1372.364       -1067.384
  20334003.638    20334003.354    20334009.218   108544381.185 8  84423453.131 6
     -1402.010       -1090.451
  19688877.789    19688877.564    19688884.700   105322282.880 8  81917377.904 7
      2207.367        1716.839
  23067259.439    23067258.926    23067267.415   123351025.175 5  95939723.099 5
      4171.028        3244.123
 11 10 10 16  2 30.0000000  0 17G03G06G11G14G16G18G19G22G32R01R03R07
                                R08R14R22R23R24
  20352639.089    20352638.2844   20352647.0884  106953915.082 8  83340746.11046
     -1517.104       -1182.146
  21345152.657    21345152.2434   21345160.8374  112169605.284 8  87404923.90445
     -1658.142       -1292.047
  21819580.998    21819580.0284   21819587.5034  114662743.462 7  89347613.09243
      2872.364        2238.208
  22878409.451    22878408.8984   22878417.3574  120226962.497 6  93683344.68142
      2463.145        1919.327
  23650355.336    23650353.6224   23650367.2264  124283416.548 5  96844224.00241
     -2979.938       -2322.016
  24517653.182    24517653.7504   24517659.1044  128841366.204 5 100395846.12541
     -2642.885       -2059.398
  20297025.667    20297024.5504   20297030.3974  106661657.435 8  83113005.63547
      1056.214         823.030
  21352038.824    21352037.5044   21352043.6874  112206190.179 7  87433359.56045
     -1512.452       -1178.523
  22681120.148    22681119.6444   22681132.5224  119190423.688 6  92875558.24442
      3787.782        2951.521
  22349368.326    22349366.500    22349377.407   119470488.645 6  92921599.056 4
      4625.426        3597.546
  23933176.963    23933175.552    23933187.288   127622189.631 5  99261726.306 4
     -1502.276       -1168.431
  20264532.188    20264531.430    20264532.975   108478021.898 7  84371935.222 6
     -2111.887       -1642.576
  19191039.180    19191038.551    19191043.515   102767739.939 8  79930638.754 7
      1660.798        1291.734
  24088930.501    24088929.418    24088905.122   128407558.688 4  99872569.612 3
     -1390.978       -1081.898
  20341925.429    20341925.390    20341931.122   108586670.250 8  84456344.595 6
     -1417.470       -1102.475
  19676536.651    19676536.260    19676543.143   105256265.671 8  81866031.207 7
      2193.594        1706.132
  23043857.977    23043857.173    23043865.569   123225886.825 5  95842393.355 5
      4171.361        3244.397
 11 10 10 16  3  0.0000000  0 17G03G06G11G14G16G18G19G22G32R01R03R07
                                R08R14R22R23R24
  20361341.672    20361340.8804   20361349.6204  106999647.040 8  83376381.38845
     -1531.755       -1193.573
  21354652.455    21354652.2814   21354660.8214  112219526.965 7  87443823.89645
     -1670.018       -1301.313
  21803199.267    21803198.4574   21803205.8644  114576659.382 7  89280534.65944
      2866.504        2233.636
  22864383.321    22864383.0444   22864391.9854  120153253.026 6  93625908.85542
      2450.802        1909.719
  23667374.483    23667373.7364   23667386.2414  124372853.824 5  96913915.04241
     -2982.551       -2324.050
  24532747.230    24532745.5414   24532754.8514  128920688.922 5 100457656.07341
     -2645.520       -2061.457
  20291034.959    20291033.8694   20291039.6364  106630175.303 8  83088474.12847
      1042.518         812.355
  21360706.634    21360705.7694   21360711.8704  112251742.198 7  87468854.64645
     -1524.370       -1187.822
  22659521.885    22659521.0764   22659533.7954  119076926.054 6  92787118.77242
      3778.614        2944.375
  22323432.337    22323433.054    22323444.451   119331859.816 6  92813777.062 4
      4616.432        3590.542
  23941676.486    23941675.827    23941689.623   127667522.347 5  99296984.980 4
     -1519.934       -1182.166
  20276416.079    20276414.820    20276416.111   108541634.729 7  84421411.855 6
     -2128.784       -1655.722
  19181803.525    19181803.072    19181807.824   102718284.043 8  79892173.103 7
      1636.126        1272.541
  24096808.874    24096805.634    24096783.808   128449550.304 4  99905229.830 3
     -1408.718       -1095.676
  20349933.621    20349933.483    20349939.067   108629416.014 8  84489591.279 6
     -1432.331       -1114.031
  19664271.522    19664271.094    19664278.062   105190655.772 8  81815001.326 7
      2180.366        1695.839
  23020451.910    23020452.840    23020461.309   123100732.980 5  95745051.600 5
      4172.210        3245.052
 11 10 10 16  3 30.0000000  0 17G03G06G11G14G16G18G19G22G32R01R03R07
                                R08R14R22R23R24
  20370127.863    20370127.1704   20370136.1144  107045820.413 8  83412360.61745
     -1546.569       -1205.118
  21364220.834    21364220.1634   21364229.1544  112269807.572 7  87483003.55245
     -1682.129       -1310.751
  21786852.145    21786851.5754   21786858.7764  114490754.745 7  89213596.04443
      2860.352        2228.835
  22850428.622    22850428.4334   22850437.3764  120079920.349 6  93568766.62042
      2437.924        1899.672
  23684408.740    23684408.1284   23684420.1234  124462371.234 5  96983668.51341
     -2985.284       -2326.216
  24547857.450    24547858.5794   24547862.8764  129000092.556 4 100519529.03741
     -2648.208       -2063.539
  20285123.036    20285121.8464   20285127.6374  106599107.531 8  83064265.49447
      1028.543         801.453
  21369443.785    21369442.4974   21369448.3584  112297653.110 7  87504629.37445
     -1536.433       -1197.223
  22637977.518    22637976.3164   22637989.7654  118963708.147 6  92698897.26042
      3769.148        2936.985
  22297549.794    22297550.354    22297562.006   119193505.078 6  92706168.231 4
      4607.120        3583.298
  23950279.279    23950276.663    23950289.683   127713385.201 4  99332656.027 4
     -1537.676       -1195.967
  20288395.459    20288394.424    20288396.064   108605761.712 7  84471288.386 6
     -2146.327       -1669.365
  19172706.608    19172706.026    19172710.709   102669571.152 8  79854285.344 7
      1611.267        1253.206
  24104785.449    24104784.154    24104760.870   128492076.750 5  99938306.073 3
     -1426.544       -1109.526
  20358025.774    20358025.207    20358030.856   108672609.988 8  84523186.560 6
     -1447.379       -1125.737
  19652081.492    19652081.193    19652087.960   105125447.297 8  81764283.651 7
      2166.757        1685.253
  22997043.930    22997044.591    22997052.815   122975557.115 5  95647692.697 5
      4172.792        3245.504
 11 10 10 16  4  0.0000000  0 17G03G06G11G14G16G18G19G22G32R01R03R07
                                R08R14R22R23R24
  20378999.294    20378998.7704   20379007.4124  107092439.460 8  83448687.12445
     -1561.538       -1216.783
  21373857.727    21373857.1564   21373866.5464  112320451.760 7  87522466.52445
     -1694.310       -1320.241
  21770540.007    21770539.1664   21770547.0214  114405035.803 7  89146802.12944
      2854.056        2223.942
  22836547.342    22836546.5724   22836555.1084  120006972.344 6  93511924.11942
      2425.035        1889.635
  23701460.304    23701459.1194   23701471.2094  124551971.236 5  97053486.33441
     -2988.134       -2328.433
  24562984.054    24562981.8464   24562994.9864  129079580.328 4 100581467.63141
     -2651.129       -2065.845
  20279291.021    20279289.9064   20279295.8104  106568460.513 8  83040384.71447
      1014.397         790.438
  21378249.030    21378247.9634   21378254.1214  112343926.449 7  87540686.51145
     -1548.599       -1206.700
  22616488.114    22616486.7704   22616499.1294  118850777.305 6  92610899.42942
      3759.386        2929.392
  22271720.981    22271720.557    22271732.088   119055432.818 6  92598779.098 4
      4597.580        3575.876
  23958975.709    23958978.282    23958989.630   127759780.976 4  99368741.575 4
     -1555.522       -1209.842
  20300471.689    20300470.636    20300472.111   108670407.173 7  84521568.173 6
     -2163.525       -1682.741
  19163749.721    19163749.292    19163753.696   102621606.889 8  79816979.847 7
      1586.137        1233.660
  24112862.265    24112862.977    24112838.960   128535140.536 4  99971800.020 3
     -1444.409       -1123.423
  20366202.500    20366202.008    20366207.235   108716257.479 8  84557134.583 6
     -1462.635       -1137.602
  19639967.674    19639967.486    19639974.197   105060648.558 8  81713884.667 7
      2152.922        1674.496
  22973633.380    22973633.163    22973641.709   122850366.971 5  95550322.693 5
      4173.071        3245.716
 11 10 10 16  4 30.0000000  0 17G03G06G11G14G16G18G19G22G32R01R03R07
                                R08R14R22R23R24
  20387955.721    20387955.2604   20387963.9824  107139506.322 8  83485362.57545
     -1576.321       -1228.306
  21383564.541    21383563.9444   21383573.1574  112371461.419 7  87562214.27545
     -1706.397       -1329.660
  21754263.925    21754263.6254   21754271.6264  114319506.736 7  89080156.16644
      2847.831        2219.089
  22822739.679    22822739.3514   22822748.2754  119934414.750 6  93455385.85642
      2412.118        1879.583
  23718525.771    23718525.0984   23718538.5644  124641654.321 5  97123368.90041
     -2990.718       -2330.403
  24578125.620    24578125.8854   24578133.8974  129159153.213 4 100643472.42941
     -2653.755       -2067.847
  20273539.816    20273538.7044   20273544.6184  106538238.465 8  83016835.07347
      1000.290         779.445
  21387123.686    21387122.3704   21387128.2014  112390563.069 7  87577026.72445
     -1560.619       -1216.072
  22595052.877    22595051.7714   22595064.1794  118738138.552 6  92523129.19242
      3749.708        2921.861
  22245945.805    22245945.510    22245956.491   118917649.476 6  92491614.659 4
      4587.931        3568.373
  23967777.502    23967777.554    23967790.873   127806708.184 3  99405240.519 4
     -1573.101       -1223.532
  20312644.489    20312643.308    20312645.136   108735568.469 7  84572249.161 6
     -2180.589       -1696.013
  19154933.014    19154932.583    19154937.055   102574394.689 8  79780259.296 7
      1561.228        1214.283
  24121041.255    24121041.899    24121021.368   128578741.146 4 100005711.633 3
     -1462.147       -1137.227
  20374464.432    20374464.206    20374469.734   108760361.450 8  84591437.653 6
     -1477.719       -1149.338
  19627931.874    19627931.718    19627938.810   104996265.345 8  81663808.866 7
      2139.159        1663.789
  22950221.374    22950220.236    22950228.967   122725167.366 5  95452945.321 5
      4173.504        3246.058
 11 10 10 16  5  0.0000000  0 16G03G06G11G14G16G18G19G22G32R01R07R08
                                R14R22R23R24
  20396996.579    20396995.8174   20397004.4484  107187014.478 8  83522381.89545
     -1591.033       -1239.761
  21393339.987    21393339.5374   21393348.3824  112422830.954 7  87602242.45345
     -1718.431       -1339.036
  21738023.482    21738022.9604   21738030.7354  114234163.032 7  89013654.66144
      2841.565        2214.206
  22809006.040    22809005.1744   22809014.8224  119862245.215 6  93399149.97142
      2399.020        1869.357
  23735607.231    23735605.3324   23735618.3444  124731412.240 5  97193309.74741
     -2993.277       -2332.392
  24593282.098    24593282.5194   24593293.2224  129238804.821 4 100705538.66541
     -2656.604       -2070.062
  20267868.933    20267867.7904   20267873.7564  106508437.877 8  82993613.85047
       986.192         768.459
  21396066.124    21396065.0474   21396070.7884  112437555.920 7  87613644.52145
     -1572.545       -1225.359
  22573673.345    22573672.2154   22573684.7184  118625789.007 6  92435584.31043
      3740.019        2914.289
  22220224.672    22220223.969    22220234.612   118780153.216 6  92384673.491 4
      4578.300        3560.884
  20324912.077    20324910.985    20324912.472   108801237.272 7  84623324.882 6
     -2197.508       -1709.171
  19146256.229    19146255.574    19146260.189   102527930.215 8  79744120.305 7
      1536.198        1194.820
  24129318.193    24129319.734    24129299.740   128622870.218 4 100040034.133 3
     -1479.879       -1151.014
  20382811.416    20382810.950    20382816.756   108804916.791 8  84626091.789 6
     -1492.832       -1161.088
  19615973.598    19615973.102    19615980.195   104932295.393 8  81614054.489 7
      2125.274        1652.995
  22926804.937    22926804.880    22926813.417   122599955.572 5  95355558.469 5
      4173.819        3246.304
 11 10 10 16  5 30.0000000  0 16G03G06G11G14G16G18G19G22G32R01R07R08
                                R14R22R23R24
  20406120.231    20406119.6284   20406128.2474  107234960.144 8  83559742.12945
     -1605.569       -1251.089
  21403183.197    21403182.5714   21403191.4074  112474556.633 7  87642548.14245
     -1730.233       -1348.231
  21721818.172    21721817.6924   21721825.2914  114149002.657 7  88947296.01444
      2835.470        2209.456
  22795346.026    22795344.9494   22795355.7514  119790463.586 6  93343216.35142
      2386.105        1859.295
  23752700.324    23752699.5734   23752711.8424  124821239.344 5  97263304.55741
     -2995.532       -2334.202
  24608453.558    24608454.5974   24608461.6864  129318530.452 4 100767662.52241
     -2658.855       -2071.826
  20262278.262    20262276.9274   20262282.6374  106479057.017 8  82970719.68447
       972.214         757.571
  21405075.360    21405074.3244   21405080.1104  112484900.123 7  87650536.10345
     -1584.114       -1234.372
  22552349.008    22552348.2864   22552359.3974  118513727.889 6  92348264.17943
      3730.425        2906.816
  22194556.035    22194555.588    22194566.751   118642944.098 6  92277955.645 4
      4568.678        3553.406
  20337273.135    20337271.959    20337273.591   108867406.712 7  84674789.992 6
     -2214.119       -1722.093
  19137718.449    19137717.813    19137722.382   102482210.954 8  79708560.924 7
      1511.406        1175.539
  24137693.001    24137695.623    24137681.871   128667521.375 4 100074762.824 3
     -1497.213       -1164.463
  20391241.803    20391241.600    20391247.418   108849920.438 8  84661094.603 6
     -1507.726       -1172.671
  19604092.236    19604091.836    19604098.979   104868738.802 8  81564621.614 7
      2111.518        1642.295
  22903386.690    22903387.266    22903394.811   122474730.778 5  95258161.495 5
      4174.210        3246.607
 11 10 10 16  6  0.0000000  0 16G03G06G11G14G16G18G19G22G32R01R07R08
                                R14R22R23R24
  20415327.843    20415327.4854   20415335.9394  107283347.813 8  83597446.77946
     -1620.093       -1262.410
  21413094.801    21413094.3834   21413103.1284  112526643.302 7  87683135.12945
     -1742.068       -1357.451
  21705648.321    21705648.0344   21705655.6254  114064032.571 7  88881085.63344
      2829.334        2204.674
  22781762.065    22781761.4564   22781770.7654  119719078.298 6  93287591.54542
      2373.049        1849.128
  23769807.822    23769805.9194   23769820.9804  124911138.579 5  97333355.52341
     -2997.647       -2335.836
  24623641.559    24623639.6204   24623647.4964  129398334.141 4 100829847.25641
     -2661.170       -2073.662
  20256768.211    20256767.1034   20256772.7454  106450102.791 8  82948157.96547
       958.177         746.630
  21414151.921    21414151.0804   21414157.2054  112532599.351 7  87687704.32645
     -1595.677       -1243.385
  22531079.712    22531079.1674   22531091.0904  118401963.021 6  92261174.89543
      3720.704        2899.250
  22168942.165    22168942.398    22168953.321   118506031.234 6  92171468.217 4
      4558.988        3545.860
  20349728.277    20349727.151    20349728.554   108934080.638 7  84726647.475 6
     -2230.649       -1734.949
  19129320.871    19129320.551    19129324.850   102437242.963 8  79673585.859 7
      1486.564        1156.215
  24146174.281    24146171.970    24146162.869   128712697.329 3 100109899.641 3
     -1514.469       -1177.879
  20399757.175    20399757.025    20399763.309   108895377.892 8  84696450.369 6
     -1522.639       -1184.276
  19592290.064    19592289.626    19592296.706   104805603.925 8  81515516.741 7
      2097.600        1631.468
  22879969.136    22879968.653    22879976.245   122349500.759 6  95160760.480 5
      4174.564        3246.877
 11 10 10 16  6 30.0000000  0 15G03G06G11G14G16G18G19G22G32R01R07R08
                                R22R23R24
  20424618.207    20424617.7784   20424626.3514  107332168.015 8  83635488.47145
     -1634.612       -1273.724
  21423073.731    21423073.1784   21423081.8194  112579081.730 7  87723996.22045
     -1753.891       -1366.672
  21689514.402    21689513.3174   21689521.3654  113979245.463 7  88815017.84544
      2823.092        2199.804
  22768251.964    22768251.8534   22768260.5764  119648083.754 6  93232271.21642
      2359.836        1838.838
  23786926.747    23786925.4634   23786939.9484  125001099.079 5  97403454.24341
     -2999.689       -2337.425
  24638839.806    24638838.4854   24638847.2544  129478205.752 5 100892084.90741
     -2663.650       -2075.591
  20251338.274    20251337.1794   20251342.8994  106421568.518 8  82925923.48047
       944.048         735.619
  21423294.774    21423293.5744   21423299.9884  112580643.131 8  87725141.03245
     -1607.310       -1252.448
  22509866.637    22509866.2064   22509878.0634  118290488.356 6  92174311.74742
      3710.840        2891.554
  22143384.982    22143384.811    22143395.505   118369409.737 6  92065207.395 4
      4549.092        3538.166
  20362274.754    20362273.932    20362275.767   109001244.777 7  84778886.252 6
     -2247.025       -1747.687
  19121062.261    19121061.702    19121066.031   102393018.738 8  79639189.278 7
      1461.681        1136.858
  20408356.723    20408356.324    20408362.505   108941281.015 8  84732152.765 6
     -1537.578       -1195.898
  19580565.230    19580564.949    19580572.049   104742885.411 8  81466735.711 7
      2083.538        1620.527
  22856547.096    22856546.936    22856554.431   122224259.454 5  95063350.707 5
      4174.800        3247.063
 11 10 10 16  7  0.0000000  0 15G03G06G11G14G16G18G19G22G32R01R07R08
                                R22R23R24
  20433990.639    20433989.8524   20433998.4424  107381418.894 8  83673865.74745
     -1648.759       -1284.747
  21433118.639    21433118.1954   21433127.2704  112631870.789 7  87765130.52445
     -1765.360       -1375.606
  21673413.815    21673413.5144   21673421.5984  113894641.464 7  88749092.71044
      2817.180        2195.205
  22754817.632    22754816.6784   22754825.7874  119577481.793 6  93177256.79342
      2346.931        1828.781
  23804056.850    23804057.2744   23804069.0654  125091117.375 5  97473597.97541
     -3001.403       -2338.718
  24654051.574    24654050.3204   24654059.0544  129558142.867 5 100954373.60841
     -2665.577       -2077.089
  20245988.235    20245987.2274   20245993.0884  106393454.500 8  82904016.46247
       930.235         724.858
  21432502.016    21432500.9074   21432507.2574  112629029.167 7  87762844.42645
     -1618.446       -1261.129
  22488709.658    22488708.2504   22488720.4564  118179305.002 6  92087675.58542
      3701.337        2884.166
  22117882.018    22117881.460    22117891.678   118233081.843 6  91959174.950 4
      4539.503        3530.705
  20374912.560    20374911.597    20374913.959   109068896.082 7  84831503.927 6
     -2262.970       -1760.089
  19112942.252    19112941.821    19112946.660   102349537.747 8  79605370.766 7
      1437.083        1117.730
  20417039.064    20417038.625    20417045.092   108987628.642 8  84768200.883 6
     -1552.212       -1207.279
  19568919.137    19568918.611    19568925.451   104680585.149 8  81418279.981 7
      2069.781        1609.825
  22833126.100    22833125.543    22833132.879   122099008.305 6  94965933.262 5
      4175.338        3247.472
 11 10 10 16  7 30.0000000  0 15G03G06G11G14G16G18G19G22G32R01R07R08
                                R22R23R24
  20743237.325    20743236.9094   20743245.3614  109006521.605 8  84940179.51945
     -1663.295       -1296.071
  21743023.697    21743023.0934   21743032.4214  114260431.318 7  89034138.69645
     -1777.240       -1384.859
  21957143.378    21957142.9094   21957150.9104  115385648.081 7  89910916.13944
      2810.780        2190.220
  23041250.976    23041249.6634   23041259.4944  121082701.335 6  94350155.24742
      2333.474        1818.289
  24120990.134    24120989.1134   24121003.0524  126756611.293 5  98771385.04041
     -3003.401       -2340.335
  24969067.738    24969064.6404   24969074.5904  131213564.951 5 102244312.93141
     -2667.823       -2078.823
  20540512.026    20540510.9364   20540516.7044  107941186.840 8  84110041.67447
       915.930         713.711
  21741567.405    21741566.4804   21741572.6584  114253177.743 7  89028414.73445
     -1629.964       -1270.102
  22767401.970    22767401.3714   22767412.7354  119643842.735 6  93228874.03043
      3691.280        2876.311
  22392228.643    22392228.079    22392237.901   119699621.830 6  93099817.506 4
      4529.255        3522.742
  20687433.608    20687432.670    20687434.375   110741844.683 7  86132686.163 6
     -2279.333       -1772.811
  19404754.959    19404754.378    19404759.112   103912180.726 8  80820759.787 7
      1412.097        1098.296
  20725597.912    20725597.412    20725603.761   110634735.501 8  86049283.966 6
     -1567.267       -1218.985
  19857144.637    19857144.402    19857151.487   106222399.509 8  82617468.957 7
      2055.448        1598.681
  23109495.967    23109494.697    23109502.718   123576882.697 5  96115391.205 5
      4175.241        3247.408
 11 10 10 16  8  0.0000000  0 15G03G06G11G14G16G18G19G22G32R01R07R08
                                R22R23R24
  20752775.445    20752774.8494   20752783.7454  109056645.436 8  84979237.02145
     -1678.059       -1307.578
  21753204.798    21753204.3834   21753213.5634  114313933.299 7  89075828.51745
     -1789.297       -1394.260
  21941116.773    21941116.4464   21941124.5214  115301427.989 7  89845290.17144
      2804.102        2185.010
  23027969.718    23027969.4334   23027977.6304  121012907.326 6  94295770.38742
      2319.638        1807.501
  24138143.689    24138143.1324   24138157.0294  126846751.590 5  98841623.80441
     -3005.621       -2342.031
  24984304.869    24984304.7074   24984311.9194  131293642.424 5 102306710.97141
     -2670.401       -2080.800
  20535325.798    20535324.5524   20535330.1124  107913932.031 9  84088804.16947
       901.312         702.323
  21750907.078    21750905.9014   21750911.7434  114302256.633 7  89066658.02545
     -1641.678       -1279.230
  22746359.782    22746357.7894   22746370.3904  119533263.294 6  93142708.44643
      3680.920        2868.255
  22366840.395    22366839.224    22366849.133   119563905.807 6  92994260.942 4
      4518.677        3514.513
  20700254.190    20700253.032    20700255.221   110810473.722 7  86186064.297 6
     -2295.872       -1785.678
  19396916.036    19396915.302    19396919.748   103870202.446 8  80788110.049 7
      1386.757        1078.585
  20734449.306    20734449.080    20734455.390   110681986.646 8  86086034.831 6
     -1582.526       -1230.858
  19845659.188    19845658.866    19845665.885   106160959.569 8  82569682.367 7
      2040.807        1587.292
  23086071.178    23086072.341    23086080.480   123451633.685 5  96017975.420 5
      4174.909        3247.147
 11 10 10 16  8 30.0000000  0 15G03G06G11G14G16G18G19G22G32R01R07R08
                                R22R23R24
  20762396.424    20762395.5894   20762404.3454  109107202.734 8  85018632.29245
     -1692.440       -1318.778
  21763453.604    21763452.9474   21763461.9394  114367789.167 7  89117794.09045
     -1801.067       -1403.428
  21925127.253    21925126.2294   21925133.8254  115217399.853 7  89779813.78044
      2797.762        2180.069
  23014764.803    23014765.1144   23014774.0554  120943519.985 6  94241702.41642
      2306.127        1796.991
  24155307.332    24155307.3584   24155320.4564  126936947.512 5  98911905.90741
     -3007.452       -2343.433
  24999556.714    24999554.7674   24999564.4844  131373786.498 5 102369160.95841
     -2672.480       -2082.458
  20530221.105    20530219.9754   20530225.7714  107887107.589 8  84067902.01447
       886.965         691.138
  21760310.935    21760309.8334   21760316.3934  114351677.348 7  89105167.67645
     -1653.025       -1288.072
  22725374.430    22725373.6564   22725385.2324  119422987.559 6  93056779.53743
      3670.799        2860.355
  22341509.560    22341508.400    22341518.051   119428499.187 6  92888945.021 4
      4508.382        3506.509
  20713164.575    20713163.644    20713165.446   110879586.046 7  86239818.324 6
     -2311.715       -1797.999
  19389216.840    19389216.193    19389220.857   103828974.527 8  80756043.924 7
      1361.768        1059.151
  20743385.857    20743385.567    20743391.293   110729688.099 8  86123135.931 6
     -1597.505       -1242.502
  19834254.492    19834254.252    19834261.368   106099952.712 8  82522232.613 7
      2026.329        1576.036
  23062651.283    23062650.654    23062658.626   123326387.657 5  95920561.962 5
      4174.832        3247.085
 11 10 10 16  9  0.0000000  0 15G03G06G11G14G16G18G19G22G32R01R07R08
                                R22R23R24
  20772100.093    20772099.4264   20772108.1544  109158195.920 8  85058367.21345
     -1707.068       -1330.181
  21773769.562    21773769.2404   21773778.4064  114422001.880 7  89160037.72545
     -1813.059       -1412.767
  21909174.379    21909173.6584   21909181.4474  115133568.419 7  89714490.66944
      2791.083        2174.875
  23001639.889    23001638.9034   23001648.3684  120874545.781 6  94187956.35842
      2292.222        1786.146
  24172482.882    24172480.8394   24172496.2964  127027199.974 5  98982232.05941
     -3009.340       -2344.941
  25014820.582    25014819.1374   25014827.2634  131453998.818 5 102431664.12141
     -2674.855       -2084.314
  20525199.400    20525198.3184   20525204.0634  107860718.410 8  84047339.03247
       872.348         679.753
  21769781.146    21769779.8974   21769785.8214  114401441.695 7  89143945.09145
     -1664.530       -1297.037
  22704447.487    22704447.1204   22704458.9464  119313021.374 6  92971091.82243
      3660.365        2852.217
  22316237.576    22316236.975    22316246.560   119293409.148 6  92783875.362 4
      4497.649        3498.168
  20726165.596    20726164.806    20726166.499   110949179.803 7  86293946.803 6
     -2327.842       -1810.543
  19381658.578    19381658.106    19381662.584   103788501.251 8  80724564.742 7
      1336.494        1039.496
  20752406.891    20752406.565    20752412.554   110777843.257 8  86160589.927 6
     -1612.777       -1254.380
  19822932.349    19822932.023    19822938.652   106039385.481 8  82475124.795 7
      2011.508        1564.506
  23039231.817    23039231.706    23039239.411   123201150.889 6  95823155.690 5
      4174.340        3246.705
 11 10 10 16  9 30.0000000  0 15G03G06G11G14G16G18G19G22G32R01R07R08
                                R22R23R24
  20781886.668    20781885.9024   20781894.5934  109209624.045 8  85098441.05045
     -1721.485       -1341.417
  21784153.685    21784153.5614   21784162.4704  114476570.641 7  89202558.80845
     -1824.866       -1421.969
  21893259.111    21893258.8524   21893265.9304  115049934.954 7  89649321.82144
      2784.499        2169.742
  22988592.236    22988593.0324   22988602.2124  120805987.258 6  94134534.21742
      2278.341        1775.330
  24189668.103    24189666.8504   24189681.3704  127117506.316 5  99052600.21941
     -3011.057       -2346.263
  25030095.544    25030097.2364   25030104.6044  131534278.381 5 102494219.66941
     -2677.035       -2086.008
  20520260.823    20520259.6014   20520265.3614  107834765.812 8  84027116.24047
       857.816         668.427
  21779316.230    21779314.8804   21779320.6444  114451548.056 8  89182989.01145
     -1675.874       -1305.877
  22683581.640    22683580.9884   22683591.7294  119203367.059 6  92885647.12143
      3649.967        2844.115
  22291025.642    22291025.129    22291034.333   119158638.974 6  92679054.491 4
      4486.964        3489.839
  20739256.055    20739254.859    20739256.659   111019253.484 7  86348448.557 6
     -2343.706       -1822.881
  19374241.563    19374241.175    19374245.755   103748782.959 8  80693672.772 7
      1311.396        1019.972
  20761513.042    20761512.853    20761518.572   110826452.462 8  86198397.062 6
     -1627.863       -1266.115
  19811692.542    19811692.222    19811699.010   105979260.879 8  82428361.244 7
      1996.756        1553.031
  23015812.470    23015813.067    23015820.959   123075925.725 6  95725758.466 5
      4174.018        3246.447
 11 10 10 16 10  0.0000000  0 15G03G06G11G14G16G18G19G22G32R01R07R08
                                R22R23R24
  20791755.016    20791754.4524   20791763.0554  109261483.877 8  85138851.28045
     -1735.727       -1352.509
  21794605.232    21794604.7944   21794613.8564  114531492.857 7  89245355.31045
     -1836.493       -1431.029
  21877381.625    21877380.9734   21877388.5664  114966498.741 7  89584306.67044
      2778.016        2164.692
  22975626.321    22975625.2384   22975635.4184  120737845.407 6  94081436.73242
      2264.524        1764.569
  24206863.247    24206861.4454   24206875.0134  127207862.256 5  99123006.99541
     -3012.505       -2347.373
  25045385.851    25045385.4454   25045397.1644  131614621.346 5 102556824.62641
     -2678.961       -2087.503
  20515405.092    20515403.9114   20515409.9204  107809249.440 8  84007233.36747
       843.372         657.174
  21788915.473    21788914.2744   21788920.0904  114501992.801 7  89222296.61645
     -1686.993       -1314.541
  22662774.276    22662773.1894   22662784.4954  119094024.732 6  92800445.50843
      3639.660        2836.095
  22265873.987    22265873.202    22265882.745   119024189.930 6  92574483.375 4
      4476.359        3481.600
  20752435.086    20752433.803    20752435.630   111089800.479 7  86403318.441 6
     -2359.380       -1835.071
  19366965.226    19366964.734    19366969.157   103709818.423 8  80663367.053 7
      1286.359        1000.503
  20770703.815    20770703.446    20770709.448   110875513.284 8  86236555.462 6
     -1642.766       -1277.705
  19800535.830    19800535.559    19800542.457   105919580.178 8  82381942.942 7
      1982.068        1541.610
  22992395.679    22992396.341    22992406.274   122950712.777 5  95628370.735 5
      4173.600        3246.142
 11 10 10 16 10 30.0000000  0 15G03G06G11G14G16G18G19G22G32R01R07R08
                                R22R23R24
  20801705.882    20801705.2814   20801714.0034  109313775.488 8  85179597.95945
     -1750.356       -1363.911
  21805123.957    21805123.4644   21805132.7444  114586768.805 7  89288427.44545
     -1848.552       -1440.425
  21861542.266    21861541.6944   21861549.1974  114883261.721 7  89519446.73044
      2771.083        2159.286
  22962739.480    22962738.5484   22962748.0674  120670123.938 6  94028666.84142
      2250.203        1753.390
  24224066.957    24224064.8014   24224079.7864  127298265.907 5  99193450.93641
     -3014.354       -2348.850
  25060685.318    25060684.6144   25060692.5664  131695027.534 4 102619478.84841
     -2681.423       -2089.410
  20510632.792    20510631.7564   20510637.7374  107784171.579 8  83987692.18947
       828.485         645.572
  21798578.814    21798577.7194   21798583.6994  114552774.558 7  89261866.82745
     -1698.469       -1323.479
  22642026.655    22642026.2464   22642036.4134  118984997.671 6  92715489.56543
      3628.841        2827.667
  22240783.036    22240782.528    22240791.585   118890066.503 6  92470165.514 4
      4465.140        3472.864
  20765701.943    20765700.382    20765702.624   111160819.042 7  86458555.102 6
     -2375.226       -1847.398
  19359829.685    19359829.164    19359833.681   103671608.425 8  80633648.203 7
      1260.879         980.684
  20779979.427    20779979.054    20779984.557   110925026.872 8  86275066.009 6
     -1658.129       -1289.659
  19789462.709    19789462.397    19789469.242   105860346.899 8  82335872.640 7
      1966.796        1529.729
  22968983.324    22968983.773    22968992.948   122825515.554 5  95530995.232 5
      4172.795        3245.510
 11 10 10 16 11  0.0000000  0 15G03G06G11G14G16G18G19G22G32R01R07R08
                                R22R23R24
  20811739.509    20811738.7634   20811747.4654  109366502.470 8  85220683.89345
     -1764.836       -1375.194
  21815710.837    21815710.6044   21815719.3664  114642402.535 7  89331778.37144
     -1860.388       -1449.657
  21845741.620    21845741.2654   21845749.0764  114800230.103 7  89454746.84844
      2764.275        2153.971
  22949933.398    22949933.2414   22949942.5364  120602830.599 6  93976230.55142
      2235.938        1742.273
  24241278.946    24241278.7054   24241293.8194  127388720.153 5  99263934.28741
     -3015.907       -2350.029
  25075999.658    25076000.8544   25076008.4354  131775499.871 5 102682184.56441
     -2683.599       -2091.092
  20505945.472    20505944.3144   20505950.1684  107759538.398 8  83968497.51547
       813.668         634.027
  21808306.857    21808305.9834   21808311.6464  114603896.523 7  89301702.14445
     -1709.730       -1332.265
  22621341.021    22621339.7614   22621350.8224  118876292.891 6  92630784.73943
      3618.048        2819.259
  22215755.134    22215753.994    22215764.180   118756276.891 6  92366107.280 4
      4454.037        3464.236
  20779056.611    20779055.435    20779057.906   111232309.947 7  86514159.137 6
     -2390.835       -1859.536
  19352836.193    19352835.604    19352840.283   103634158.576 8  80604520.576 7
      1235.646         961.055
  20789340.799    20789340.563    20789346.263   110974998.021 8  86313932.427 6
     -1673.331       -1301.478
  19778474.998    19778474.560    19778481.722   105801569.487 8  82290156.899 7
      1951.624        1517.929
  22945575.853    22945575.938    22945584.980   122700341.497 6  95433637.762 5
      4172.058        3244.939
 11 10 10 16 11 30.0000000  0 15G03G06G11G14G16G18G19G22G32R01R07R08
                                R22R23R24
  20821855.893    20821855.4224   20821863.9194  109419664.918 8  85262109.15945
     -1779.213       -1386.399
  21826365.855    21826365.0254   21826374.3574  114698394.232 7  89375408.23045
     -1872.225       -1458.875
  21829981.209    21829980.4694   21829987.9584  114717405.810 7  89390208.51044
      2757.452        2148.658
  22937211.151    22937209.7414   22937219.0554  120535968.888 6  93924130.58742
      2221.589        1731.110
  24258501.184    24258500.2694   24258516.2954  127479222.809 5  99334455.34341
     -3017.446       -2351.281
  25091326.140    25091328.1354   25091335.9444  131856037.981 4 102744941.58941
     -2685.551       -2092.608
  20501343.014    20501341.6984   20501347.5644  107735352.289 8  83949651.21447
       798.836         622.467
  21818099.615    21818098.5714   21818104.3924  114655357.935 7  89341801.96145
     -1720.910       -1340.968
  22600716.710    22600716.2774   22600726.2944  118767913.433 6  92546333.40943
      3607.312        2810.887
  22190789.104    22190788.851    22190798.185   118622825.281 6  92262311.924 4
      4442.827        3455.534
  20792499.866    20792498.583    20792500.553   111304271.194 7  86570128.994 6
     -2406.158       -1871.453
  19345985.010    19345984.296    19345988.762   103597469.709 8  80575984.823 7
      1210.402         941.424
  20798787.527    20798787.384    20798793.290   111025427.476 8  86353155.301 6
     -1688.528       -1313.296
  19767573.380    19767572.873    19767579.861   105743251.491 8  82244798.482 7
      1936.371        1506.068
  22922172.794    22922172.636    22922180.915   122575193.939 5  95336300.896 5
      4171.239        3244.290
 11 10 10 16 12  0.0000000  0 15G03G06G11G14G16G18G19G22G32R01R07R08
                                R22R23R24
  20832054.215    20832053.7554   20832062.5644  109473258.224 7  85303870.15145
     -1793.742       -1397.718
  21837087.767    21837087.1394   21837096.5114  114754739.563 7  89419313.64345
     -1884.214       -1468.221
  21814258.860    21814258.5634   21814266.1764  114634786.465 7  89325829.87444
      2750.394        2143.163
  22924569.089    22924568.8194   22924576.8534  120469537.973 6  93872366.33142
      2207.004        1719.732
  24275730.306    24275733.7324   24275745.2454  127569768.056 5  99405009.56841
     -3019.020       -2352.499
  25106663.872    25106662.7334   25106668.8534  131936637.062 4 102807746.19441
     -2687.748       -2094.404
  20496825.143    20496823.9014   20496829.6974  107711610.954 8  83931151.49047
       783.822         610.768
  21827956.012    21827955.0674   21827960.4504  114707153.150 7  89382161.87745
     -1732.201       -1349.761
  22580154.986    22580153.5394   22580164.0224  118659858.125 6  92462134.64843
      3596.287        2802.287
  22165887.153    22165886.888    22165895.870   118489711.662 6  92158779.444 4
      4431.312        3446.570
  20806028.494    20806027.809    20806029.804   111376695.288 7  86626458.854 5
     -2421.954       -1883.744
  19339274.885    19339274.354    19339279.041   103561538.876 8  80548038.654 7
      1184.917         921.603
  20808319.829    20808319.578    20808325.753   111076311.764 8  86392731.939 6
     -1703.864       -1325.230
  19756756.905    19756756.616    19756763.602   105685392.596 8  82199797.146 7
      1920.813        1493.960
  22898773.791    22898773.549    22898782.808   122450071.872 5  95238983.883 5
      4170.108        3243.411
 11 10 10 16 12 30.0000000  0 15G03G06G11G14G16G18G19G22G32R01R07R08
                                R22R23R24
  20842335.597    20842334.9794   20842343.8334  109527286.400 8  85345970.00145
     -1807.990       -1408.818
  21847878.147    21847877.5254   21847886.9534  114811443.260 7  89463498.30144
     -1895.877       -1477.304
  21798576.968    21798576.5494   21798584.4864  114552378.737 7  89261616.12544
      2743.601        2137.871
  22912011.568    22912010.8734   22912019.1204  120403545.970 6  93820944.05342
      2192.584        1708.509
  24292971.623    24292971.3434   24292985.4304  127660358.539 5  99475599.04541
     -3020.239       -2353.408
  25122012.931    25122013.9384   25122020.8594  132017300.679 4 102870600.95941
     -2689.585       -2095.781
  20492393.218    20492392.0354   20492397.9644  107688321.194 8  83913003.63447
       768.985         599.215
  21837876.270    21837875.2564   21837881.0204  114759285.838 7  89422784.75645
     -1743.158       -1358.297
  22559654.963    22559654.2124   22559664.6774  118552134.298 6  92378194.17343
      3585.404        2793.821
  22141049.374    22141049.421    22141059.075   118356944.395 6  92055516.342 4
      4419.980        3437.750
  20819645.851    20819644.821    20819646.114   111449585.705 7  86683151.393 5
     -2437.192       -1895.589
  19332707.727    19332707.159    19332711.430   103526371.255 8  80520686.092 7
      1159.732         902.014
  20817938.229    20817938.100    20817944.069   111127655.637 8  86432666.019 6
     -1718.904       -1336.919
  19746027.870    19746027.585    19746034.632   105628000.834 8  82155159.138 7
      1905.470        1482.032
  22875382.666    22875382.701    22875389.743   122324983.494 6  95141693.054 5
      4169.211        3242.717
 11 10 10 16 13  0.0000000  0 15G03G06G11G14G16G18G19G22G32R01R07R08
                                R22R23R24
  20852698.335    20852697.6304   20852706.3624  109581741.180 8  85388402.28045
     -1822.164       -1419.869
  21858735.140    21858734.5664   21858743.6994  114868496.887 7  89507955.63544
     -1907.533       -1486.390
  21782934.319    21782934.0194   21782941.9344  114470176.428 7  89197562.45244
      2736.725        2132.509
  22899535.745    22899535.3074   22899543.7904  120337988.144 6  93769860.12342
      2178.078        1697.209
  24310217.536    24310217.3824   24310231.4984  127750984.449 5  99546216.10641
     -3021.316       -2354.253
  25137372.818    25137374.9244   25137381.1274  132098019.908 4 102933499.09541
     -2691.468       -2097.272
  20488045.991    20488044.9054   20488050.8704  107665476.861 8  83895202.87747
       754.126         587.629
  21847859.736    21847858.2814   21847864.4744  114811746.533 7  89463663.22545
     -1754.067       -1366.805
  22539217.884    22539216.5894   22539227.8584  118444736.589 6  92294507.82043
      3574.538        2785.344
  22116276.701    22116276.241    22116286.314   118224519.354 6  91952519.403 4
      4408.489        3428.810
  20833347.322    20833345.970    20833347.521   111522929.580 7  86740196.627 5
     -2452.240       -1907.298
  19326281.355    19326280.789    19326285.461   103491959.564 8  80493921.487 7
      1134.530         882.409
  20827641.625    20827641.464    20827647.517   111179451.994 8  86472952.033 6
     -1733.995       -1348.662
  19735385.722    19735385.324    19735392.362   105571071.806 8  82110881.037 7
      1889.966        1469.972
  22851995.372    22851995.437    22852003.159   122199923.642 6  95044424.413 5
      4168.271        3241.984
 11 10 10 16 13 30.0000000  0 15G03G06G11G14G16G18G19G22G32R01R07R08
                                R22R23R24
  20863140.971    20863140.0524   20863148.9884  109636617.361 7  85431162.91945
     -1836.190       -1430.797
  21869657.600    21869657.1794   21869666.5584  114925895.607 7  89552681.87444
     -1919.021       -1495.333
  21767331.094    21767329.9074   21767337.5224  114388176.354 7  89133666.35144
      2729.951        2127.230
  22887142.425    22887142.5674   22887150.9974  120272862.936 6  93719113.28743
      2163.656        1685.981
  24327469.354    24327467.6344   24327483.2414  127841639.205 5  99616855.62441
     -3022.243       -2354.975
  25152743.717    25152742.6534   25152749.5594  132178789.692 4 102996436.65041
     -2693.077       -2098.485
  20483783.128    20483781.9804   20483787.8884  107643074.985 9  83877746.88447
       739.353         576.120
  21857903.184    21857902.3634   21857908.6614  114864529.126 7  89504792.51645
     -1764.761       -1375.137
  22518842.728    22518841.4614   22518852.5924  118337663.221 6  92211074.20143
      3563.676        2776.887
  22091568.404    22091566.996    22091576.678   118092435.846 6  91849788.097 4
      4397.090        3419.948
  20847131.541    20847130.410    20847132.207   111596719.933 7  86797589.133 5
     -2467.086       -1918.847
  19319995.671    19319994.995    19319999.685   103458299.947 8  80467741.818 7
      1109.500         862.944
  20837428.665    20837428.601    20837434.809   111231696.166 8  86513586.350 6
     -1748.905       -1360.261
  19724829.789    19724829.181    19724836.552   105514604.388 8  82066961.957 7
      1874.516        1457.957
  22828612.858    22828613.075    22828621.428   122074890.788 6  94947176.764 5
      4167.295        3241.223
 11 10 10 16 14  0.0000000  0 15G03G06G11G14G16G18G19G22G32R01R07R08
                                R22R23R24
  20873662.278    20873661.4804   20873670.3124  109691907.858 8  85474246.39845
     -1849.967       -1441.530
  21880644.961    21880644.7394   21880653.6464  114983633.223 7  89597672.18644
     -1930.275       -1504.113
  21751764.098    21751763.8344   21751770.8394  114306374.426 7  89069924.65544
      2723.381        2122.112
  22874831.455    22874831.1844   22874839.2144  120208167.679 6  93668701.51343
      2149.265        1674.739
  24344724.714    24344724.5684   24344739.9524  127932314.468 5  99687511.10341
     -3022.915       -2355.504
  25168120.582    25168118.7964   25168132.8164  132259602.799 4 103059407.98341
     -2694.569       -2099.629
  20479603.434    20479602.3864   20479608.3294  107621111.699 9  83860632.65647
       724.717         564.714
  21868007.448    21868006.7074   21868012.4624  114917626.548 7  89546167.13045
     -1775.228       -1383.289
  22498528.280    22498527.6094   22498537.9534  118230910.896 6  92127890.74143
      3552.979        2768.553
  22066922.558    22066922.399    22066931.137   117960691.511 6  91747320.585 4
      4385.716        3411.102
  20860997.766    20860996.813    20860998.643   111670948.472 7  86855322.441 5
     -2481.634       -1930.161
  19313849.326    19313848.719    19313853.372   103425386.858 8  80442142.784 7
      1084.592         843.570
  20847298.866    20847298.918    20847304.383   111284382.554 8  86554564.620 6
     -1763.649       -1371.722
  19714359.481    19714359.317    19714366.274   105458595.883 8  82023399.816 7
      1859.217        1446.058
  22805237.470    22805236.829    22805242.870   121949881.783 6  94849947.659 5
      4166.478        3240.590
 11 10 10 16 14 30.0000000  0 15G03G06G11G14G16G18G19G22G32R01R07R08
                                R22R23R24
  20884263.854    20884263.1034   20884271.9044  109747619.340 8  85517657.92045
     -1864.001       -1452.468
  21891698.016    21891697.5454   21891706.2954  115041716.239 7  89642931.64144
     -1941.817       -1513.099
  21736236.786    21736236.2634   21736243.8284  114224778.952 7  89006343.82444
      2716.447        2116.710
  22862604.083    22862603.4424   22862612.5034  120143912.097 6  93618632.32643
      2134.497        1663.235
  24361984.908    24361983.6484   24361999.8064  128023015.272 5  99758186.43341
     -3023.723       -2356.116
  25183508.894    25183508.8464   25183517.8924  132340464.794 4 103122417.39941
     -2696.141       -2100.916
  20475509.332    20475508.0494   20475514.0074  107599595.604 9  83843866.88247
       709.776         553.067
  21878172.571    21878171.6324   21878177.3644  114971044.051 7  89587791.15845
     -1785.874       -1391.590
  22478276.589    22478275.6964   22478286.0924  118124488.916 6  92044964.67143
      3541.904        2759.909
  22042343.106    22042341.963    22042351.291   117829297.216 6  91645125.314 4
      4374.002        3401.994
  20874947.357    20874946.298    20874947.964   111745619.393 7  86913399.814 5
     -2496.152       -1941.458
  19307844.008    19307843.343    19307847.661   103393227.375 8  80417129.892 7
      1059.445         824.004
  20857253.180    20857252.816    20857258.703   111337518.078 8  86595892.221 6
     -1778.631       -1383.382
  19703976.835    19703976.562    19703983.710   105403056.648 8  81980202.662 7
      1843.522        1433.848
  22781865.386    22781865.027    22781872.206   121824906.977 6  94752745.153 5
      4165.299        3239.667
 11 10 10 16 15  0.0000000  0 15G03G06G11G14G16G18G19G22G32R01R07R08
                                R22R23R24
  20894944.006    20894943.2364   20894951.9774  109803743.737 7  85561391.19345
     -1877.608       -1463.072
  21902815.033    21902814.4134   21902823.4704  115100137.014 7  89688454.29044
     -1952.917       -1521.756
  21720748.248    21720747.6964   21720754.8864  114143384.353 7  88942919.52244
      2709.849        2111.567
  22850459.831    22850459.0794   22850467.9624  120080091.841 6  93568902.36543
      2120.121        1652.030
  24379247.194    24379248.9334   24379261.7454  128113732.319 5  99828874.42441
     -3024.073       -2356.434
  25198902.870    25198900.6614   25198913.8814  132421367.373 4 103185458.41241
     -2697.309       -2101.815
  20471499.021    20471497.7904   20471503.6204  107578521.287 8  83827445.34447
       695.161         541.684
  21888397.226    21888396.0654   21888401.2694  115024772.864 7  89629657.75945
     -1796.086       -1399.549
  22458086.434    22458086.3484   22458096.8374  118018392.639 6  91962292.39043
      3531.198        2751.582
  22017826.591    22017826.539    22017835.323   117698248.882 6  91543199.105 4
      4362.514        3393.064
  20888976.907    20888975.243    20888977.075   111820719.194 7  86971810.752 5
     -2510.441       -1952.568
  19301977.573    19301977.103    19301981.646   103361814.905 8  80392698.008 7
      1034.691         804.756
  20867290.180    20867289.764    20867295.713   111391095.737 8  86637563.701 6
     -1793.222       -1394.724
  19693681.375    19693681.239    19693687.777   105347982.617 8  81937367.341 7
      1828.079        1421.837
