     2.11           OBSERVATION DATA    M (MIXED)           RINEX VERSION / TYPE
teqc  2012Jun6                          20151118 02:01:20UTCPGM / RUN BY / DATE
OSX ker:10.8.0|Core 2 Duo|gcc 4.2 -m64|OSX ker:10.8.0+|=+   COMMENT
     2              OBSERVATION DATA    M (MIXED)           COMMENT
CCRINEXO V2.3.3 UX  BKG Frankfurt       11-OCT-11 00:16     COMMENT
Concatenated RINEX hourly files (24/24)                     COMMENT
JPS2RIN 1.40 lnx    SAC                 10-OCT-11 01:01     COMMENT
build Feb  6 2004 (c) Javad Navigation Systems              COMMENT
Stazione Astronomica Cagliari                               COMMENT
/home/srv/htdocs/glonass/hdata/CAGZ.tps                     COMMENT
SE TPS 8b1daea3                                             COMMENT
CAGZ                                                        MARKER NAME
12725M004                                                   MARKER NUMBER
SAC                 SAC-DIST                                OBSERVER / AGENCY
AGNV7TGA2O0         TPS E_GGD           3.3 Jul,10,2008 p4  REC # / TYPE / VERS
RRA052              JPSREGANT_DD_E  NONE                    ANT # / TYPE
  4893378.7999   772650.4734  4004179.0402                  APPROX POSITION XYZ
        0.0945        0.0000        0.0000                  ANTENNA: DELTA H/E/N
     1     1                                                WAVELENGTH FACT L1/2
     7    C1    P1    P2    L1    L2    D1    D2            # / TYPES OF OBSERV
    30.0000                                                 INTERVAL
teqc windowed: start @ 2011 Oct 10 00:00:00.000             COMMENT
teqc windowed: delta = 14400.000 sec                        COMMENT
  2011    10    10     0     0    0.0000000     GPS         TIME OF FIRST OBS
    15                                                      LEAP SECONDS
                                                            END OF HEADER
 11 10 10  0  0  0.0000000  1 15G02G04G05G07G10G13G16G23R01R02R03R12
                                R13R14R19
  21873691.838    21873690.9454   21873694.3334  114947031.410 7  89569132.03944
        -2.128          -1.662
  22818374.353    22818374.5724   22818380.7214  119911400.055 6  93437463.27343
     -2519.839       -1963.513
  22993191.492    22993191.7874   22993197.0454  120830046.613 6  94153303.70943
      3460.514        2696.509
  20511855.914    20511855.6614   20511860.4624  107790763.489 8  83992780.73247
        39.025          30.413
  20279299.704    20279298.2914   20279304.8254  106568458.336 8  83040373.68146
       290.387         226.279
  22208015.709    22208015.2674   22208020.7054  116704218.086 7  90938246.35443
     -1790.055       -1394.846
  25014254.177    25014253.2334   25014258.3424  131450812.698 5 102429229.01541
     -1299.727       -1012.796
  24178696.944    24178696.6314   24178700.1344  127060241.046 5  99007954.05841
     -2201.326       -1715.323
  24386597.050    24386595.563    24386601.848   130360597.766 4 101391660.131 4
     -2971.075       -2310.825
  20279333.379    20279332.976    20279336.591   108214443.104 8  84166816.606 7
     -1028.055        -799.596
  22434731.848    22434730.719    22434737.239   119631905.174 6  93047085.885 5
      4602.367        3579.622
  20753683.468    20753683.202    20753688.486   110862609.369 8  86226534.055 6
     -2251.761       -1751.370
  19518804.149    19518803.941    19518807.487   104229408.229 9  81067366.318 7
      1775.384        1380.855
  22691702.806    22691701.762    22691729.093   120959603.002 6  94079723.103 3
      4718.245        3669.764
  24149177.423    24149176.012    24149179.354   129181796.075 5 100474765.895 4
     -1098.080        -854.057
 11 10 10  0  0 30.0000000  0 15G02G04G05G07G10G13G16G23R01R02R03R12
                                R13R14R19
  21873762.188    21873761.3294   21873764.5314  114947399.405 7  89569418.76444
       -22.376         -17.436
  22832783.764    22832783.6204   22832789.9884  119987121.669 6  93496467.10943
     -2528.210       -1970.025
  22973454.854    22973454.6004   22973460.2474  120726326.241 6  94072482.64743
      3454.179        2691.573
  20511684.523    20511684.3094   20511689.2484  107789863.433 8  83992079.39347
        21.023          16.384
  20277688.503    20277687.1344   20277693.6814  106559992.026 8  83033776.54846
       274.045         213.545
  22218248.997    22218248.4374   22218253.5714  116757992.646 7  90980148.58843
     -1794.929       -1398.625
  25021721.314    25021720.8234   25021729.7814  131490058.095 5 102459809.85241
     -1316.595       -1025.950
  24191270.444    24191271.4924   24191275.6464  127126317.232 5  99059441.93541
     -2203.673       -1717.135
  24403288.483    24403287.795    24403294.201   130449831.194 4 101461063.832 4
     -2977.766       -2316.029
  20285160.073    20285159.640    20285163.197   108245534.993 8  84190999.163 7
     -1044.749        -812.579
  22408868.321    22408867.298    22408874.001   119493990.195 6  92939818.703 5
      4591.935        3571.510
  20766381.286    20766381.327    20766386.183   110930440.271 8  86279291.420 6
     -2270.304       -1765.789
  19508902.935    19508902.420    19508906.003   104176535.464 9  81026243.068 7
      1749.425        1360.665
  22665174.836    22665174.721    22665190.144   120818200.757 6  93969743.536 3
      4708.588        3662.257
  24155391.796    24155390.760    24155394.697   129215042.904 5 100500624.519 4
     -1118.277        -869.765
 11 10 10  0  1  0.0000000  0 15G02G04G05G07G10G13G16G23G28R02R03R12
                                R13R14R19
  21873945.785    21873945.0334   21873948.7314  114948366.568 7  89570172.38044
       -42.315         -32.970
  22847239.111    22847239.8964   22847245.9734  120063086.720 6  93555660.64943
     -2536.275       -1976.320
  22953750.844    22953751.0214   22953757.8234  120622788.241 6  93991803.70943
      3448.037        2686.786
  20511614.484    20511614.3014   20511619.0774  107789495.327 8  83991792.55947
         3.281           2.559
  20276169.276    20276167.8874   20276174.4194  106552008.399 8  83027555.53146
       257.930         200.984
  22228507.470    22228507.2494   22228512.1624  116811905.015 7  91022158.21243
     -1799.516       -1402.231
  25029285.979    25029284.2424   25029289.7494  131529804.767 5 102490781.28241
     -1333.416       -1039.057
  24203857.856    24203855.4684   24203860.3104  127192455.303 5  99110978.03041
     -2205.760       -1718.768
  25096132.147                                   131881064.575 3
      3567.760
  20291078.684    20291078.512    20291082.228   108277119.412 8  84215564.805 7
     -1061.143        -825.334
  22383061.010    22383060.504    22383068.026   119356381.648 6  92832789.871 5
      4581.651        3563.506
  20779181.975    20779181.781    20779187.159   110998818.484 8  86332474.470 6
     -2288.477       -1779.929
  19499146.092    19499145.556    19499148.980   104124434.138 9  80985719.820 7
      1723.683        1340.646
  22638702.076    22638701.603    22638718.526   120677081.248 6  93859983.964 3
      4699.017        3654.772
  24161717.781    24161717.095    24161720.711   129248886.657 5 100526947.392 4
     -1138.232        -885.294
 11 10 10  0  1 30.0000000  0 15G02G04G05G07G10G13G16G23G28R02R03R12
                                R13R14R19
  21874243.699    21874243.0524   21874246.9284  114949933.246 7  89571393.16044
       -62.173         -48.449
  22861741.208    22861741.2314   22861747.7004  120139293.145 6  93615042.27543
     -2544.243       -1982.533
  22934083.688    22934084.4464   22934089.7754  120519435.611 6  93911269.21043
      3442.024        2682.094
  20511645.664    20511645.3824   20511650.3214  107789658.652 8  83991919.82947
       -14.293         -11.137
  20274742.099    20274740.8434   20274747.3264  106544509.196 8  83021711.98246
       241.899         188.490
  22238793.320    22238793.1944   22238797.4464  116865954.978 7  91064275.04743
     -1803.968       -1405.688
  25036944.524    25036942.8194   25036948.6094  131570052.056 5 102522142.83141
     -1349.845       -1051.844
  24216455.167    24216453.8574   24216457.7524  127258656.028 5  99162562.97941
     -2207.716       -1720.320
  25075754.562                                   131773985.740 3
      3570.568
  20297090.316    20297089.783    20297093.641   108309197.337 8  84240514.301 7
     -1077.486        -838.047
  22357313.326    22357312.747    22357319.834   119219083.041 6  92726002.098 5
      4571.432        3555.561
  20792084.551    20792084.376    20792089.304   111067741.050 8  86386080.903 6
     -2306.406       -1793.871
  19489533.780    19489533.430    19489537.120   104073106.215 9  80945798.109 7
      1698.061        1320.713
  22612281.030    22612281.056    22612307.265   120536248.768 6  93750447.690 3
      4689.612        3647.475
  24168158.294    24168155.302    24168157.803   129283324.948 5 100553732.675 4
     -1157.870        -900.565
 11 10 10  0  2  0.0000000  0 15G02G04G05G07G10G13G16G23G28R02R03R12
                                R13R14R19
  21874656.135    21874655.4094   21874659.2054  114952099.392 7  89573081.06244
       -82.044         -63.943
  22876288.627    22876288.3924   22876295.1834  120215739.483 6  93674610.82343
     -2552.056       -1988.607
  22914452.674    22914452.7954   22914458.0304  120416271.481 6  93830881.58143
      3435.809        2677.250
  20511777.823    20511777.5024   20511782.5444  107790353.624 8  83992461.37747
       -31.881         -24.846
  20273407.495    20273406.2624   20273412.8514  106537496.236 8  83016247.32446
       225.797         175.945
  22249105.192    22249104.2894   22249109.1064  116920143.684 7  91106499.99343
     -1808.434       -1409.170
  25044699.105    25044698.2244   25044704.3414  131610799.549 5 102553894.10041
     -1366.434       -1064.722
  24229064.995    24229063.0334   24229069.1164  127324920.400 5  99214197.49041
     -2209.740       -1721.903
  25055364.032                                   131666829.755 3
      3573.371
  20303194.903    20303194.276    20303198.053   108341770.562 8  84265849.030 7
     -1093.867        -850.788
  22331622.884    22331624.108    22331631.310   119082099.184 6  92619459.123 5
      4560.973        3547.419
  20805088.543    20805088.419    20805093.492   111137205.518 8  86440108.832 6
     -2324.335       -1807.813
  19480067.017    19480066.713    19480070.171   104022553.314 9  80906479.200 7
      1672.336        1300.705
  22585915.868    22585916.585    22585944.001   120395707.925 6  93641137.977 3
      4679.970        3639.957
  24174703.794    24174703.946    24174706.392   129318356.301 5 100580979.257 4
     -1177.366        -915.727
 11 10 10  0  2 30.0000000  0 14G02G04G05G07G10G13G16G23R02R03R12R13
                                R14R19
  21875180.579    21875179.6824   21875183.0054  114954852.543 6  89575226.37344
      -101.475         -79.077
  22890878.992    22890879.0324   22890884.6874  120292411.360 6  93734355.13243
     -2559.415       -1994.341
  22894855.695    22894855.2744   22894861.2924  120313286.825 6  93750633.79543
      3429.807        2672.579
  20512008.662    20512008.6674   20512013.6744  107791567.897 8  83993407.56647
       -49.062         -38.230
  20272163.832    20272162.4414   20272168.7414  106530958.756 8  83011153.17646
       210.016         163.650
  22259441.093    22259440.9524   22259445.5604  116974459.359 7  91148823.88443
     -1812.557       -1412.385
  25052545.787    25052544.5984   25052549.3574  131652034.008 5 102586024.85841
     -1382.541       -1077.317
  24241683.343    24241682.9214   24241685.3244  127391236.726 5  99265872.52541
     -2211.372       -1723.120
  20309390.088    20309389.325    20309392.808   108374827.583 8  84291560.031 6
     -1109.944        -863.284
  22305993.639    22305993.387    22305999.462   118945422.358 6  92513154.948 5
      4550.773        3539.493
  20818191.275    20818190.934    20818196.237   111207196.766 8  86494546.463 6
     -2341.744       -1821.355
  19470743.258    19470742.742    19470746.157   103972765.010 9  80867754.973 7
      1646.883        1280.910
  22559605.511    22559604.258    22559628.386   120255450.501 6  93532048.873 3
      4670.544        3632.647
  24181361.052    24181360.623    24181363.571   129353966.095 5 100608675.749 4
     -1196.522        -930.635
 11 10 10  0  3  0.0000000  0 15G02G04G05G07G10G13G16G23G28R02R03R12
                                R13R14R19
  21875813.821    21875813.7964   21875817.2504  114958185.008 7  89577823.08844
      -120.881         -94.202
  22905510.478    22905509.5764   22905515.4684  120369298.958 6  93794267.53743
     -2566.699       -2000.014
  22875292.013    22875291.5404   22875297.3654  120210477.138 6  93670522.36444
      3423.836        2667.931
  20512337.197    20512336.9624   20512342.0864  107793293.219 8  83994751.97747
       -66.211         -51.597
  20271008.886    20271007.6264   20271014.0644  106524890.655 8  83006424.77246
       194.252         151.365
  22269800.113    22269799.5544   22269804.8684  117028894.162 6  91191240.61843
     -1816.694       -1415.606
  25060483.181    25060478.6144   25060485.1464  131693747.046 4 102618528.50941
     -1398.598       -1089.819
  24254312.292    24254311.3154   24254311.5934  127457598.226 5  99317582.74141
     -2212.938       -1724.384
  25014529.432                                   131452238.614 4
      3579.600
  20315673.660    20315673.465    20315677.181   108408362.077 8  84317642.394 7
     -1125.938        -875.732
  22280419.585    22280418.612    22280424.614   118809048.160 6  92407086.155 5
      4540.586        3531.568
  20831390.055    20831390.052    20831395.124   111277704.043 8  86549385.446 6
     -2359.025       -1834.798
  19461561.480    19461561.100    19461564.394   103923734.677 9  80829620.280 7
      1621.545        1261.201
  22533345.395    22533344.712    22533374.679   120115472.976 6  93423177.379 3
      4661.072        3625.262
  24188125.679    24188124.738    24188127.284   129390144.308 5 100636814.271 4
     -1215.625        -945.477
 11 10 10  0  3 30.0000000  0 15G02G04G05G07G10G13G16G23G28R02R03R12
                                R13R14R19
  21876559.792    21876558.7044   21876562.4904  114962101.588 7  89580874.96144
      -140.203        -109.243
  22920183.309    22920183.2424   22920188.4074  120446405.341 6  93854350.40843
     -2573.790       -2005.540
  22855762.219    22855761.9274   22855767.6404  120107850.284 6  93590553.39044
      3417.925        2663.319
  20512763.741    20512763.4654   20512768.6654  107795534.751 8  83996498.62647
       -83.225         -64.848
  20269944.651    20269943.3894   20269949.8254  106519297.976 8  83002066.82546
       178.570         139.147
  22280181.789    22280181.5624   22280186.9584  117083453.385 7  91233754.28143
     -1820.641       -1418.686
  25068512.133    25068511.5594   25068516.4644  131735942.879 4 102651408.34741
     -1414.474       -1102.174
  24266950.526    24266949.1424   24266952.1154  127524010.166 5  99369332.20241
     -2214.470       -1725.551
  24994086.300                                   131344809.297 4
      3582.451
  20322049.085    20322048.483    20322051.866   108442379.656 8  84344100.498 7
     -1141.870        -888.119
  22254903.382    22254902.329    22254909.633   118672986.063 6  92301260.110 5
      4530.267        3523.540
  20844686.415    20844686.115    20844691.273   111348729.154 8  86604627.196 6
     -2375.992       -1847.994
  19452522.781    19452522.372    19452525.899   103875469.035 9  80792080.350 7
      1596.173        1241.469
  22507139.588    22507139.560    22507173.567   119975784.438 6  93314530.759 3
      4651.540        3617.854
  24194995.906    24194995.228    24194997.049   129426893.532 5 100665397.009 4
     -1234.348        -960.047
 11 10 10  0  4  0.0000000  0 15G02G04G05G07G10G13G16G23G28R02R03R12
                                R13R14R19
  21877414.630    21877414.4734   21877418.4154  114966598.073 7  89584378.70144
      -159.437        -124.235
  22934896.883    22934896.2674   22934902.0434  120523724.783 6  93914599.31943
     -2580.685       -2010.929
  22836267.733    22836267.5274   22836272.8984  120005405.346 6  93510726.17843
      3411.885        2658.608
  20513287.791    20513287.5344   20513292.3734  107798288.122 8  83998644.11547
      -100.180         -78.061
  20268970.415    20268969.2194   20268975.6634  106514178.625 8  82998077.71946
       162.864         126.907
  22290586.832    22290586.5434   22290591.8774  117138133.293 7  91276361.98743
     -1824.578       -1421.754
  25076633.999    25076632.8714   25076639.7324  131778616.979 4 102684660.87141
     -1430.347       -1114.497
  24279596.383    24279595.3594   24279601.2974  127590469.729 5  99421118.78841
     -2216.022       -1726.761
  24973626.555                                   131237293.753 4
      3585.508
  20328513.589    20328512.973    20328517.232   108476877.648 8  84370932.257 7
     -1157.839        -900.540
  22229445.491    22229445.295    22229452.498   118537235.965 6  92195676.729 5
      4519.860        3515.443
  20858077.563    20858077.658    20858083.090   111420265.737 8  86660266.754 6
     -2392.934       -1861.171
  19443627.090    19443626.489    19443629.844   103827965.577 9  80755133.222 7
      1570.877        1221.795
  22480988.049    22480987.985    22481023.587   119836384.900 6  93206108.803 3
      4641.854        3610.299
  24201968.713    24201970.056    24201972.274   129464207.844 5 100694419.217 4
     -1253.004        -974.558
 11 10 10  0  4 30.0000000  0 16G02G04G05G07G10G13G16G23G26G28R02R03
                                R12R13R14R19
  21878379.824    21878379.3894   21878383.6894  114971670.044 7  89588330.87744
      -178.224        -138.876
  22949649.767    22949649.1904   22949655.2584  120601250.916 6  93975009.27343
     -2587.227       -2016.024
  22816807.184    22816807.4314   22816812.9584  119903141.259 6  93431039.87944
      3406.197        2654.194
  20513908.280    20513908.0744   20513912.9034  107801548.847 8  84001184.94147
      -116.722         -90.957
  20268085.794    20268084.4104   20268091.1284  106509529.845 8  82994455.29646
       147.541         114.965
  22301014.890    22301014.5014   22301019.9244  117192930.350 6  91319060.98343
     -1828.127       -1424.516
  25084844.287    25084843.3774   25084848.6064  131821764.134 4 102718282.10241
     -1445.780       -1126.599
  24292252.350    24292250.1994   24292255.6184  127656973.308 5  99472939.74041
     -2217.147       -1727.672
  24364261.841    24364260.3844   24364269.6614  128035064.608 5  99767596.97741
      3590.460        2797.760
  24953151.916                                   131129692.023 4
      3588.663
  20335067.685    20335067.366    20335071.585   108511853.054 8  84398135.342 7
     -1173.356        -912.613
  22204046.896    22204046.427    22204053.027   118401797.650 6  92090335.839 5
      4509.810        3507.623
  20871563.717    20871563.704    20871568.935   111492306.306 7  86716298.298 6
     -2409.327       -1873.925
  19434873.179    19434872.766    19434875.991   103781221.338 9  80718776.604 7
      1545.909        1202.368
  22454893.035    22454891.459    22454920.066   119697274.743 6  93097912.066 3
      4632.581        3603.110
  24209050.510    24209049.659    24209053.026   129502080.806 5 100723875.983 4
     -1271.319        -988.814
 11 10 10  0  5  0.0000000  0 16G02G04G05G07G10G13G16G23G26G28R02R03
                                R12R13R14R19
  21879451.513    21879450.9564   21879455.0864  114977301.008 7  89592718.62844
      -197.106        -153.583
  22964437.586    22964438.0604   22964444.7484  120678965.449 6  94035566.05043
     -2593.694       -2021.060
  22797379.337    22797379.1594   22797384.5724  119801044.881 6  93351484.30444
      3400.294        2649.584
  20514622.237    20514621.9084   20514626.7034  107805300.041 8  84004107.95347
      -133.289        -103.860
  20267288.031    20267286.5514   20267293.0494  106505336.799 8  82991187.98246
       132.067         102.911
  22311461.326    22311461.1604   22311466.2454  117247828.595 6  91361838.81243
     -1831.723       -1427.325
  25093140.660    25093136.1414   25093144.7974  131865367.253 4 102752258.56741
     -1461.208       -1138.649
  24304912.769    24304912.2244   24304917.1664  127723505.172 5  99524782.65841
     -2218.199       -1728.412
  24343774.538    24343772.1074   24343779.7004  127927395.148 5  99683698.70941
      3587.633        2795.542
  24932656.767                                   131021999.445 4
      3591.734
  20341709.186    20341708.524    20341712.349   108547290.129 8  84425697.490 7
     -1189.043        -924.802
  22178703.630    22178703.423    22178709.854   118266658.422 6  91985227.576 5
      4499.522        3499.632
  20885140.675    20885140.350    20885146.187   111564831.683 7  86772706.911 6
     -2425.635       -1886.603
  19426258.889    19426258.516    19426261.723   103735221.069 9  80682998.625 7
      1520.852        1182.889
  22428848.304    22428847.078    22428883.258   119558441.399 6  92989930.620 3
      4623.029        3595.693
  24216230.023    24216229.527    24216233.008   129540493.489 5 100753752.477 4
     -1289.524       -1002.967
 11 10 10  0  5 30.0000000  0 16G02G04G05G07G10G13G16G23G26G28R02R03
                                R12R13R14R19
  21880631.454    21880631.0394   21880635.0574  114983501.970 7  89597550.53744
      -215.963        -168.283
  22979264.052    22979263.0984   22979269.8804  120756877.272 6  94096276.53643
     -2600.103       -2026.037
  22777985.717    22777985.2484   22777990.4524  119699130.393 6  93272070.42643
      3394.250        2644.859
  20515431.334    20515431.1244   20515435.8974  107809552.601 8  84007421.64347
      -149.903        -116.806
  20266579.209    20266577.8944   20266584.3004  106501611.999 8  82988285.53646
       116.550          90.822
  22321929.844    22321929.7024   22321934.5394  117302839.194 7  91404704.19343
     -1835.373       -1430.153
  25101528.021    25101524.5284   25101529.9134  131909436.392 4 102786598.11941
     -1476.530       -1150.543
  24317581.812    24317581.2114   24317586.5854  127790077.084 5  99576656.83841
     -2219.522       -1729.499
  24323301.091    24323301.5664   24323304.7154  127819814.893 4  99599869.94441
      3584.768        2793.295
  24912145.899                                   130914210.089 4
      3594.334
  20348438.584    20348438.043    20348442.002   108583201.275 8  84453628.369 7
     -1204.728        -937.002
  22153419.240    22153419.052    22153425.794   118131834.013 6  91880364.172 5
      4489.069        3491.507
  20898810.250    20898809.850    20898814.885   111637850.048 8  86829498.981 6
     -2441.915       -1899.267
  19417786.188    19417785.979    19417789.054   103689978.161 9  80647809.706 7
      1495.698        1163.321
  22402859.119    22402856.823    22402888.382   119419900.480 6  92882176.486 3
      4613.313        3588.179
  24223514.471    24223513.174    24223516.853   129579454.953 5 100784055.860 4
     -1307.528       -1016.966
 11 10 10  0  6  0.0000000  0 16G02G04G05G07G10G13G16G23G26G28R02R03
                                R12R13R14R19
  21881920.294    21881919.4214   21881924.1824  114990273.085 7  89602826.73044
      -235.062        -183.168
  22994127.482    22994127.3874   22994133.5144  120834985.412 6  94157140.02343
     -2606.666       -2031.170
  22758626.899    22758627.2974   22758632.2294  119597401.462 6  93192801.13844
      3387.959        2639.970
  20516335.940    20516335.7764   20516340.5074  107814306.942 8  84011126.33247
      -166.705        -129.900
  20265959.901    20265958.4504   20265964.9704  106498357.422 8  82985749.50446
       100.783          78.534
  22332419.279    22332419.3844   22332424.4024  117357963.184 7  91447657.93143
     -1839.219       -1433.163
  25110001.852                                   131953971.521 4
     -1492.074
  24330257.292    24330256.4844   24330259.2884  127856690.450 5  99628563.24941
     -2220.981       -1730.611
  24302846.437    24302847.2724   24302853.6104  127712326.092 5  99516112.50641
      3581.568        2790.812
  24891620.221                                   130806340.734 4
      3597.001
  20355257.894    20355257.167    20355261.167   108619588.165 8  84481929.278 7
     -1220.706        -949.436
  22128196.740    22128195.590    22128202.228   117997329.235 6  91775749.386 5
      4478.267        3483.094
  20912570.595    20912570.834    20912576.643   111711359.304 7  86886672.842 6
     -2458.334       -1912.039
  19409455.731    19409455.373    19409458.838   103645493.827 9  80613210.786 7
      1470.268        1143.544
  22376923.843    22376922.891    22376960.795   119281656.623 6  92774653.415 3
      4603.272        3580.305
  24230899.505    24230899.718    24230903.003   129618963.412 5 100814784.613 4
     -1325.800       -1031.173
 11 10 10  0  6 30.0000000  0 16G02G04G05G07G10G13G16G23G26G28R02R03
                                R12R13R14R19
  21883313.848    21883313.9704   21883318.5094  114997601.581 6  89608537.22944
      -253.209        -197.303
  23009025.785    23009024.8674   23009031.3524  120913275.027 6  94218144.90143
     -2612.286       -2035.552
  22739302.101    22739302.5494   22739307.2404  119495848.687 6  93113669.11844
      3382.485        2635.695
  20517333.658    20517333.3634   20517338.3584  107819549.458 8  84015211.41147
      -182.527        -142.226
  20265427.799    20265426.4944   20265433.0294  106495561.894 8  82983571.16246
        85.886          66.926
  22342928.313    22342928.1324   22342933.2394  117413188.232 6  91490690.40043
     -1842.161       -1435.446
  25118562.925                                   131998959.101 3
     -1506.755
  24342939.806    24342939.0084   24342942.9334  127923333.492 5  99680492.89941
     -2221.633       -1731.115
  24282406.734    24282405.4144   24282413.4864  127604917.680 4  99432417.66241
      3579.258        2789.032
  24871073.781                                   130698382.221 4
      3600.498
  20362163.470    20362162.935    20362166.757   108656439.027 8  84510591.048 6
     -1235.748        -961.133
  22103030.272    22103029.985    22103036.987   117863135.530 6  91671376.527 5
      4468.264        3475.320
  20926420.479    20926420.471    20926425.769   111785343.681 7  86944216.227 6
     -2473.640       -1923.942
  19401265.503    19401264.921    19401268.290   103601756.752 9  80579193.068 7
      1445.808        1124.519
  22351044.440    22351043.375    22351078.865   119143701.345 6  92667354.936 3
      4594.034        3573.151
  24238383.745    24238384.483    24238388.213   129659004.217 5 100845927.434 4
     -1343.225       -1044.731
 11 10 10  0  7  0.0000000  0 16G02G04G05G07G10G13G16G23G26G28R02R03
                                R12R13R14R19
  21884813.207    21884812.7294   21884817.1394  115005477.831 7  89614674.56044
      -271.775        -211.770
  23023956.004    23023954.9854   23023962.5244  120991735.127 6  94279282.63643
     -2618.261       -2040.212
  22720009.550    22720009.8104   22720014.3514  119394465.844 7  93034669.50044
      3376.421        2630.982
  20518422.416    20518422.1624   20518427.2104  107825271.493 8  84019670.14247
      -198.865        -154.960
  20264981.888    20264980.5314   20264986.8854  106493217.761 8  82981744.55646
        70.442          54.889
  22353455.513    22353454.9424   22353459.7814  117468505.658 7  91533794.86243
     -1845.603       -1438.131
  25127208.372                                   132044389.073 4
     -1521.806
  24355623.816    24355621.9624   24355629.2444  127989997.643 5  99732438.92941
     -2222.637       -1731.924
  24261980.536    24261982.7904   24261989.1234  127497581.552 4  99348779.11041
      3576.472        2786.850
  24850510.117                                   130590330.257 3
      3603.142
  20369154.585    20369154.105    20369158.192   108693745.399 8  84539607.103 6
     -1251.311        -973.241
  22077921.972    22077921.587    22077928.574   117729247.164 6  91567241.152 5
      4457.641        3467.057
  20940357.488    20940357.179    20940363.080   111859790.897 7  87002119.624 6
     -2489.450       -1936.238
  19393213.344    19393212.755    19393216.045   103558758.967 9  80545750.360 7
      1420.751        1105.028
  22325216.816    22325215.822    22325255.423   119006029.505 6  92560276.936 3
      4584.141        3565.407
  24245966.301    24245967.642    24245970.342   129699565.154 5 100877474.773 4
     -1360.852       -1058.435
 11 10 10  0  7 30.0000000  0 16G02G04G05G07G10G13G16G23G26G28R02R03
                                R12R13R14R19
  21886419.256    21886418.9604   21886423.1664  115013917.712 7  89621251.06944
      -290.973        -226.729
  23038920.470    23038920.0624   23038927.4364  121070379.940 6  94340564.28143
     -2624.792       -2045.298
  22700753.092    22700753.1124   22700758.4544  119293272.563 7  92955817.59544
      3369.654        2625.706
  20519605.454    20519605.2044   20519609.9914  107831488.677 8  84024514.70246
      -215.736        -168.105
  20264624.942    20264623.6344   20264630.1344  106491342.597 8  82980283.37746
        54.415          42.403
  22364002.760    22364002.4924   22364006.4004  117523932.054 7  91576984.25143
     -1849.624       -1441.267
  25135939.749                                   132090276.648 3
     -1537.416
  24368318.498    24368317.6174   24368320.3824  128056699.973 5  99784414.74941
     -2224.475       -1733.358
  24241574.097    24241572.6394   24241579.6224  127390335.559 4  99265210.85741
      3573.108        2784.229
  24829936.732                                   130482201.679 4
      3605.271
  20376234.155    20376233.738    20376237.725   108731524.965 8  84568991.198 6
     -1267.453        -985.792
  22052874.919    22052874.365    22052880.890   117595685.575 6  91463359.941 5
      4446.292        3458.224
  20954383.854    20954383.622    20954388.739   111934714.567 8  87060393.577 6
     -2505.599       -1948.797
  19385302.717    19385302.327    19385305.779   103516518.082 9  80512896.349 7
      1395.122        1085.093
  22299447.521    22299445.651    22299488.900   118868661.840 6  92453435.474 3
      4573.565        3557.175
  24253647.969    24253649.334    24253653.226   129740660.819 5 100909438.081 4
     -1378.963       -1072.524
 11 10 10  0  8  0.0000000  0 16G02G04G05G07G10G13G16G23G26G28R02R03
                                R12R13R14R19
  21888134.262    21888133.9014   21888138.3614  115022931.431 6  89628274.72444
      -309.732        -241.352
  23053923.154    23053923.3404   23053930.0444  121149218.042 6  94401996.54442
     -2630.839       -2049.998
  22681535.086    22681535.1954   22681539.9494  119192282.293 7  92877123.90344
      3363.215        2620.687
  20520884.897    20520884.6444   20520889.4974  107838211.228 8  84029753.05547
      -232.210        -180.942
  20264359.695    20264358.2744   20264364.7364  106489948.393 8  82979196.97946
        38.718          30.172
  22374572.125    22374571.9354   22374576.9454  117579478.274 6  91620267.00043
     -1853.277       -1444.107
  25144762.948                                   132136631.758 3
     -1552.621
  24381020.750    24381019.0074   24381022.8414  128123451.613 5  99836428.92841
     -2225.688       -1734.276
  24221183.814    24221184.4584   24221190.9834  127283191.733 4  99181722.17441
      3569.970        2781.783
  24809345.195                                   130374009.767 4
      3607.876
  20383404.971    20383404.700    20383408.534   108769789.342 8  84598752.369 7
     -1283.296        -998.120
  22027892.688    22027891.625    22027898.297   117462464.987 6  91359743.961 5
      4435.238        3449.627
  20968500.184    20968500.100    20968505.460   112010122.737 7  87119044.372 6
     -2521.356       -1961.053
  19377536.598    19377536.062    19377539.565   103475046.350 9  80480640.569 7
      1369.849        1065.438
  22273737.711    22273736.176    22273777.265   118731613.319 6  92346842.053 3
      4563.204        3549.158
  24261434.783    24261433.923    24261436.990   129782299.470 5 100941823.699 4
     -1396.670       -1086.301
 11 10 10  0  8 30.0000000  0 16G02G04G05G07G10G13G16G23G26G28R02R03
                                R12R13R14R19
  21889957.751    21889956.8924   21889961.4574  115032511.828 6  89635739.97244
      -328.699        -256.128
  23068961.386    23068960.9464   23068967.3124  121228240.114 6  94463572.18043
     -2637.029       -2054.832
  22662355.701    22662355.3454   22662360.2764  119091491.314 6  92798585.47244
      3356.421        2615.393
  20522258.733    20522258.5564   20522263.2454  107845431.297 8  84035379.08546
      -248.879        -193.933
  20264184.934    20264183.5954   20264190.1614  106489029.668 8  82978481.08346
        22.772          17.740
  22385164.040    22385163.5864   22385169.6394  117635137.957 6  91663638.16643
     -1857.138       -1447.124
  25153670.571                                   132183446.159 3
     -1568.035
  24393731.251    24393731.4544   24393733.6614  128190245.966 5  99888476.41441
     -2227.058       -1735.368
  24200814.619    24200814.4024   24200820.0554  127176144.717 4  99098308.94841
      3566.664        2779.192
  24788743.955                                   130265751.098 4
      3609.807
  20390665.790    20390665.255    20390669.073   108808532.449 8  84628885.875 7
     -1299.333       -1010.599
  22002972.077    22002971.187    22002978.682   117329582.608 6  91256391.026 5
      4423.828        3440.751
  20982705.464    20982705.042    20982710.432   112086005.023 7  87178063.928 6
     -2537.177       -1973.358
  19369913.163    19369912.734    19369915.933   103434337.710 9  80448978.300 7
      1344.293        1045.561
  22248087.582    22248085.634    22248132.271   118594880.817 6  92240494.491 3
      4552.487        3540.817
  24269318.418    24269316.805    24269321.247   129824471.696 5 100974624.304 4
     -1414.517       -1100.181
 11 10 10  0  9  0.0000000  0 16G02G04G05G07G10G13G16G23G26G28R02R03
                                R12R13R14R19
  21891888.710    21891887.9764   21891892.2774  115042657.505 7  89643645.68444
      -347.700        -270.931
  23084034.117    23084033.1954   23084039.0724  121307443.925 6  94525289.41643
     -2643.200       -2059.630
  22643213.914    22643213.4324   22643219.4614  118990901.953 6  92720204.16444
      3349.488        2609.990
  20523727.254    20523726.9184   20523731.6924  107853147.939 8  84041392.05746
      -265.583        -206.950
  20264100.570    20264099.2404   20264105.7984  106488586.711 8  82978135.91746
         6.722           5.234
  22395777.141    22395776.7924   22395782.3834  117690910.428 6  91707097.21343
     -1861.074       -1450.194
  25162662.039                                   132230718.321 3
     -1583.249
  24406448.908    24406449.5034   24406453.5414  128257083.665 5  99940557.69441
     -2228.722       -1736.670
  24180463.895    24180462.7964   24180471.3494  127069194.909 5  99014971.43141
      3563.292        2776.606
  24768131.851                                   130157428.170 4
      3611.734
  20398015.903    20398015.162    20398019.427   108847754.152 8  84659391.623 7
     -1315.455       -1023.131
  21978116.255    21978115.695    21978123.188   117197041.022 6  91153303.152 5
      4412.221        3431.722
  20996999.004    20996998.929    20997003.654   112162358.012 8  87237449.587 6
     -2553.036       -1985.699
  19362432.591    19362432.086    19362435.513   103394392.398 9  80417909.733 7
      1318.711        1025.662
  22222495.840    22222494.625    22222530.321   118458467.809 6  92134395.442 3
      4541.663        3532.420
  24277301.989    24277300.326    24277304.121   129867174.123 5 101007837.270 4
     -1432.300       -1114.017
 11 10 10  0  9 30.0000000  0 15G02G04G05G07G10G13G23G26G28R02R03R12
                                R13R14R19
  21893927.214    21893926.5494   21893931.1144  115053371.385 7  89651994.14944
      -366.513        -285.596
  23099140.524    23099139.6124   23099146.1974  121386830.794 6  94587149.28642
     -2649.149       -2064.250
  22624111.742    22624111.6354   22624116.1494  118890520.852 6  92641985.12644
      3342.661        2604.674
  20525290.599    20525290.4994   20525295.1824  107861364.219 8  84047794.35647
      -282.091        -219.811
  20264107.691    20264106.3784   20264112.9494  106488624.642 8  82978165.46546
        -9.177          -7.151
  22406412.153    22406411.9464   22406417.9974  117746799.563 7  91750647.16843
     -1864.791       -1453.088
  24419177.799    24419176.3404   24419181.1154  128323968.751 5  99992675.85841
     -2230.204       -1737.811
  24160130.497    24160130.0824   24160137.2294  126962347.136 4  98931713.47241
      3560.057        2774.092
  24747507.871                                   130049050.232 4
      3613.802
  20405456.948    20405456.289    20405460.172   108887459.236 8  84690273.334 7
     -1331.460       -1035.580
  21953325.897    21953325.527    21953332.821   117064848.406 6  91050486.702 5
      4400.666        3422.737
  21011380.761    21011380.631    21011385.432   112239182.200 8  87297201.738 6
     -2568.498       -1997.721
  19355095.788    19355095.320    19355099.002   103355215.084 9  80387438.498 7
      1293.201        1005.823
  22196964.637    22196965.091    22197010.559   118322381.846 6  92028550.834 3
      4530.897        3524.013
  24285383.593    24285382.967    24285385.861   129910408.145 4 101041463.710 4
     -1449.850       -1127.659
 11 10 10  0 10  0.0000000  0 14G02G04G05G07G10G13G23G26G28R02R03R12
                                R13R14
  21896073.829    21896073.8034   21896078.3864  115064654.890 6  89660786.47644
      -385.637        -300.491
  23114281.672    23114281.3174   23114287.9734  121466400.336 6  94649151.51242
     -2655.369       -2069.122
  22605050.190    22605050.3094   22605055.8554  118790352.995 6  92563932.25944
      3335.295        2598.927
  20526949.489    20526949.1884   20526954.1814  107870081.361 8  84054586.94046
      -298.957        -232.955
  20264207.127    20264205.8234   20264212.3914  106489146.278 8  82978571.91946
       -25.508         -19.878
  22417070.768    22417070.2844   22417075.7384  117802807.611 6  91794289.77543
     -1868.992       -1456.352
  24431915.949    24431914.5314   24431917.4304  128390903.617 5 100044832.83841
     -2232.034       -1739.236
  24139818.653    24139815.3854   24139824.2714  126855604.595 4  98848537.46641
      3556.289        2771.143
  24726874.531                                   129940621.655 4
      3615.071
  20412988.546    20412988.164    20412991.937   108927650.253 8  84721532.989 7
     -1347.862       -1048.338
  21928603.391    21928602.328    21928608.617   116933010.826 6  90947946.387 5
      4388.592        3413.348
  21025850.036    21025850.020    21025855.578   112316476.568 7  87357319.569 6
     -2584.341       -2010.042
  19347903.509    19347903.076    19347906.770   103316808.546 9  80357566.757 7
      1267.292         985.671
  22171499.398    22171497.561    22171550.961   118186628.945 6  91922965.274 3
      4519.399        3515.084
 11 10 10  0 10 30.0000000  0 14G02G04G05G07G10G13G23G26G28R02R03R12
                                R13R14
  21898329.485    21898328.7274   21898333.5594  115076506.304 7  89670021.33044
      -404.478        -315.180
  23129456.860    23129456.9314   23129463.8794  121546149.131 6  94711293.42142
     -2661.250       -2073.695
  22586029.896    22586030.1934   22586035.4274  118690400.217 6  92486046.99544
      3328.150        2593.364
  20528703.266    20528703.0484   20528708.0514  107879297.317 8  84061768.20747
      -315.503        -245.851
  20264398.387    20264397.0124   20264403.4994  106490151.814 8  82979355.44146
       -41.568         -32.394
  22427751.183    22427751.0714   22427754.9764  117858933.643 6  91838024.32243
     -1872.840       -1459.337
  24444659.750    24444659.6994   24444664.5174  128457887.558 5 100097028.06341
     -2233.620       -1740.464
  24119525.957    24119526.4624   24119531.6444  126748967.642 5  98765443.74741
      3552.819        2768.448
  24706230.936                                   129832146.075 4
      3616.426
  20420611.071    20420610.643    20420614.512   108968326.703 8  84753170.215 6
     -1363.955       -1060.858
  21903946.460    21903945.724    21903952.249   116801530.920 6  90845684.271 5
      4376.699        3404.094
  21040407.276    21040407.189    21040412.603   112394236.887 8  87417799.803 6
     -2599.732       -2022.019
  19340855.697    19340855.198    19340858.558   103279172.173 9  80328294.037 7
      1241.692         965.756
  22146094.724    22146093.965    22146144.278   118051211.958 6  91817640.873 3
      4508.299        3506.489
 11 10 10  0 11  0.0000000  0 14G02G04G05G07G10G13G23G26G28R02R03R12
                                R13R14
  21900692.966    21900692.2174   21900696.5634  115088924.314 7  89679697.69144
      -423.255        -329.803
  23144667.198    23144666.0694   23144672.5454  121626075.238 6  94773573.49442
     -2666.987       -2078.188
  22567051.403    22567051.2554   22567056.5554  118590665.203 7  92408331.40544
      3320.943        2587.749
  20530551.824    20530551.6104   20530556.5594  107889011.629 8  84069337.80047
      -331.989        -258.692
  20264681.974    20264680.7004   20264687.0854  106491641.911 8  82980516.54446
       -57.621         -44.898
  22438453.304    22438453.2194   22438458.6284  117915177.546 7  91881850.72143
     -1876.666       -1462.326
  24457416.805    24457415.9924   24457421.2514  128524920.998 5 100149261.84441
     -2235.183       -1741.700
  24099253.734    24099253.2044   24099259.6844  126642437.141 5  98682432.96641
      3549.307        2765.723
  24685581.401                                   129723625.645 4
      3618.326
  20428325.028    20428324.398    20428328.203   109009489.163 8  84785185.443 6
     -1380.082       -1073.396
  21879356.291    21879356.459    21879363.664   116670411.653 6  90743702.634 5
      4364.661        3394.735
  21055050.877    21055050.664    21055055.916   112472459.657 8  87478639.744 6
     -2614.950       -2033.848
  19333951.839    19333951.494    19333954.925   103242306.994 9  80299621.128 7
      1216.102         945.857
  22120754.314    22120753.543    22120803.800   117916134.641 6  91712580.634 3
      4496.977        3497.673
 11 10 10  0 11 30.0000000  0 14G02G04G05G07G10G13G23G26G28R02R03R12
                                R13R14
  21903163.659    21903163.3024   21903167.9274  115101910.236 7  89689816.56844
      -442.311        -344.654
  23159909.404    23159909.8514   23159915.2384  121706178.046 6  94835991.23842
     -2673.018       -2082.845
  22548114.984    22548114.6844   22548120.0494  118491152.658 7  92330789.17944
      3313.338        2581.822
  20532495.456    20532495.1974   20532499.9324  107899225.238 8  84077296.46146
      -348.770        -271.768
  20265058.236    20265057.1104   20265063.4204  106493619.349 8  82982057.39646
       -74.049         -57.700
  22449179.406    22449179.6344   22449184.1334  117971541.420 6  91925770.59643
     -1880.780       -1465.556
  24470183.642    24470183.2434   24470186.1184  128592006.473 5 100201536.19541
     -2237.082       -1743.199
  24079000.171    24079001.0194   24079009.5224  126536016.005 4  98599507.42541
      3545.507        2762.727
  24664924.180                                   129615065.296 4
      3619.345
  20436129.877    20436129.506    20436133.276   109051139.977 8  84817580.500 6
     -1396.514       -1086.179
  21854836.203    21854835.785    21854843.894   116539658.405 6  90642005.690 5
      4352.307        3385.124
  21069781.062    21069780.759    21069785.967   112551143.610 7  87539838.354 6
     -2630.517       -2045.961
  19327193.120    19327192.623    19327195.960   103206215.250 9  80271549.779 7
      1190.132         925.658
  22095478.709    22095478.547    22095527.639   117781402.758 6  91607789.327 3
      4485.237        3488.542
 11 10 10  0 12  0.0000000  0 14G02G04G05G07G10G13G23G26G28R02R03R12
                                R13R14
  21905742.068    21905741.5434   21905745.9524  115115458.050 7  89700373.28644
      -461.043        -359.256
  23175185.763    23175185.7664   23175191.3844  121786450.138 6  94898540.90742
     -2678.624       -2087.250
  22529220.021    22529219.9924   22529224.1694  118391860.306 6  92253418.52644
      3305.971        2576.079
  20534532.949    20534532.7064   20534537.5634  107909932.345 8  84085639.67046
      -365.197        -284.565
  20265526.522    20265525.2704   20265531.7584  106496080.127 8  82983974.87946
       -90.182         -70.273
  22459927.077    22459927.0004   22459932.0454  118028020.286 6  91969780.08843
     -1884.594       -1468.532
  24482958.096    24482956.6584   24482963.5444  128659139.008 5 100253847.17941
     -2238.654       -1744.396
  24058770.029    24058770.7554   24058772.9354  126429700.577 4  98516664.26141
      3541.983        2760.005
  24644256.100                                   129506463.779 4
      3620.652
  20444025.922    20444025.533    20444029.741   109093274.585 8  84850351.833 6
     -1412.644       -1098.724
  21830384.076    21830383.831    21830391.341   116409270.375 6  90540592.805 5
      4340.033        3375.583
  21084595.074    21084594.993    21084600.391   112630280.440 7  87601389.238 6
     -2645.473       -2057.589
  19320578.139    19320577.697    19320581.182   103170892.441 9  80244076.499 7
      1164.533         905.745
  22070268.452    22070268.069    22070327.879   117647014.882 6  91503265.512 3
      4473.751        3479.553
 11 10 10  0 12 30.0000000  0 14G02G04G05G07G10G13G23G26G28R02R03R12
                                R13R14
  21908429.459    21908429.3424   21908433.0874  115129582.605 7  89711379.42744
      -480.379        -374.323
  23190495.270    23190494.6234   23190500.7184  121866904.649 6  94961232.72242
     -2684.851       -2092.088
  22510370.565    22510370.5174   22510376.1194  118292806.658 6  92176233.87244
      3297.797        2569.713
  20536667.046    20536666.8444   20536671.6584  107921147.578 8  84094378.81547
      -382.294        -297.893
  20266089.741    20266088.6204   20266095.2124  106499040.805 8  82986281.88246
      -107.015         -83.384
  22470700.092    22470699.8634   22470704.4654  118084629.591 6  92013891.19543
     -1889.145       -1472.068
  24495744.700    24495743.7674   24495747.6254  128726334.863 5 100306207.57241
     -2240.841       -1746.123
  24038563.551    24038563.1904   24038570.3524  126323507.192 5  98433916.21241
      3537.761        2756.679
  24623585.558                                   129397839.567 4
      3621.219
  20452015.820    20452015.445    20452019.250   109135908.932 8  84883511.859 6
     -1429.464       -1111.802
  21806004.672    21806004.489    21806010.891   116279266.123 6  90439478.411 5
      4327.009        3365.455
  21099496.548    21099496.620    21099501.850   112709882.639 7  87663302.043 6
     -2661.145       -2069.779
  19314110.182    19314109.876    19314113.233   103136354.882 9  80217213.962 7
      1138.159         885.235
  22045123.858    22045124.693    22045186.898   117512990.505 6  91399024.353 3
      4461.367        3469.967
 11 10 10  0 13  0.0000000  0 14G02G04G05G07G10G13G23G26G28R02R03R12
                                R13R14
  21911223.782    21911222.3044   21911226.4544  115144260.053 7  89722816.38844
      -498.216        -388.215
  23205835.010    23205835.2924   23205841.0934  121947516.776 6  95024047.34542
     -2689.475       -2095.673
  22491562.992    22491563.1004   22491568.3484  118193971.897 7  92099219.79644
      3291.008        2564.419
  20538893.449    20538893.2834   20538898.0794  107932847.302 8  84103495.49446
      -397.826        -309.997
  20266744.407    20266742.9704   20266749.6814  106502479.537 8  82988961.39646
      -122.393         -95.370
  22481492.762    22481492.2494   22481497.3564  118141346.965 6  92058086.52043
     -1892.171       -1474.417
  24508540.417    24508540.2914   24508543.2824  128793571.835 5 100358599.96641
     -2241.707       -1746.749
  24018373.017    24018373.8594   24018380.3984  126217414.416 5  98351246.49641
      3534.934        2754.507
  24602906.657                                   129289173.154 4
      3623.156
  20460095.017    20460094.592    20460098.640   109179020.624 8  84917043.147 6
     -1444.796       -1123.732
  21781693.711    21781693.153    21781699.537   116149627.782 7  90338648.617 5
      4315.333        3356.367
  21114480.568    21114480.419    21114485.815   112789923.718 7  87725556.203 6
     -2675.150       -2080.670
  19307785.314    19307784.902    19307788.356   103102579.904 9  80190944.539 7
      1113.338         865.929
  22020048.052    22020046.839    22020114.293   117379310.391 6  91295050.890 3
      4450.438        3461.473
 11 10 10  0 13 30.0000000  0 14G02G04G05G07G10G13G23G26G28R02R03R12
                                R13R14
  21914117.419    21914116.4314   21914120.0434  115159467.401 7  89734666.25344
      -516.016        -402.086
  23221200.023    23221200.2134   23221207.3644  122028262.232 6  95086965.85942
     -2693.974       -2099.190
  22472793.337    22472793.5024   22472798.6674  118095336.824 6  92022361.29344
      3284.203        2559.113
  20541207.517    20541207.2484   20541212.2924  107945008.448 8  84112971.71646
      -413.330        -322.073
  20267485.798    20267484.4094   20267490.9144  106506375.389 8  82991997.11546
      -137.753        -107.339
  22492301.522    22492301.3604   22492306.7974  118198150.544 6  92102349.03943
     -1895.113       -1476.708
  24521338.527    24521337.9764   24521342.9974  128860828.010 5 100411007.33341
     -2242.414       -1747.350
  23998200.341    23998201.2274   23998206.9874  126111401.251 5  98268638.84641
      3532.200        2752.400
  24582215.094                                   129180446.084 4
      3625.029
  20468260.040    20468259.214    20468263.063   109222587.720 8  84950928.644 6
     -1460.129       -1135.655
  21757447.352    21757447.009    21757453.559   116020336.168 6  90238088.492 5
      4303.592        3347.239
  21129541.713    21129541.601    21129546.878   112870378.006 7  87788131.753 6
     -2688.929       -2091.387
  19301599.126    19301598.601    19301602.052   103069545.568 9  80165251.182 7
      1088.503         846.615
  21995031.594    21995030.541    21995095.197   117245955.931 6  91191330.696 3
      4439.386        3452.859
 11 10 10  0 14  0.0000000  0 14G02G04G05G07G10G13G23G26G28R02R03R12
                                R13R14
  21917115.712    21917114.8754   21917118.6514  115175224.884 7  89746944.80244
      -534.424        -416.434
  23236594.400    23236594.5314   23236600.5404  122109159.558 6  95150002.71342
     -2699.063       -2103.190
  22454066.597    22454066.3614   22454071.7184  117996925.467 7  91945677.12944
      3276.588        2553.186
  20543613.233    20543613.0174   20543618.1574  107957651.172 8  84122823.19446
      -429.453        -334.635
  20268318.220    20268316.7734   20268323.3094  106510750.059 8  82995405.93946
      -153.824        -119.860
  22503131.725    22503130.4734   22503136.7734  118255061.057 6  92146694.85543
     -1898.805       -1479.582
  24534145.123    24534143.3954   24534149.1614  128928124.847 5 100463446.35441
     -2243.923       -1748.487
  23978045.228    23978043.5534   23978051.3354  126005489.726 4  98186110.41941
      3528.666        2749.625
  24561518.096                                   129071682.186 4
      3625.969
  20476513.515    20476513.292    20476517.086   109266632.075 8  84985185.338 6
     -1476.122       -1148.093
  21733269.240    21733269.602    21733276.694   115891415.463 6  90137816.857 5
      4291.104        3337.526
  21144683.585    21144683.442    21144688.884   112951263.716 7  87851042.863 6
     -2703.372       -2102.622
  19295555.704    19295555.244    19295558.715   103037273.880 9  80140150.990 7
      1062.977         826.761
  21970079.082    21970078.928    21970151.537   117112952.163 6  91087883.445 3
      4427.556        3443.611
 11 10 10  0 14 30.0000000  0 14G02G04G05G07G10G13G23G26G28R02R03R12
                                R13R14
  21920218.454    21920217.5344   21920221.6924  115191529.738 6  89759649.85944
      -552.738        -430.702
  23252016.920    23252017.1444   23252022.2454  122190204.925 6  95213154.93042
     -2704.148       -2107.117
  22435382.149    22435382.3004   22435386.9374  117898738.998 7  91869168.20244
      3268.960        2547.235
  20546110.380    20546110.1854   20546115.1704  107970773.009 8  84133048.00746
      -445.522        -347.159
  20269241.722    20269240.3264   20269246.7474  106515602.744 8  82999187.25246
      -169.872        -132.368
  22513981.373    22513981.1204   22513986.7924  118312077.457 6  92191123.19743
     -1902.440       -1482.427
  24546959.265    24546958.3014   24546962.7704  128995461.414 5 100515916.33441
     -2245.400       -1749.666
  23957910.943    23957909.0434   23957919.1714  125899679.440 5  98103660.85741
      3525.211        2746.950
  24540814.658                                   128962883.107 4
      3626.979
  20484856.219    20484855.817    20484860.190   109311152.255 8  85019812.133 6
     -1492.084       -1160.512
  21709163.497    21709162.872    21709170.305   115762868.166 6  90037835.652 5
      4278.502        3327.721
  21159905.260    21159905.175    21159910.706   113032575.977 7  87914285.730 6
     -2717.673       -2113.745
  19289654.837    19289654.292    19289657.870   103005763.194 9  80115642.679 7
      1037.515         806.956
  21945194.706    21945194.106    21945264.009   116980301.359 6  90984710.481 3
      4415.642        3434.382
 11 10 10  0 15  0.0000000  0 14G02G04G05G07G10G13G23G26G28R02R03R12
                                R13R14
  21923425.809    21923424.0604   21923428.2694  115208380.581 7  89772780.36444
      -570.836        -444.804
  23267466.728    23267467.6244   23267472.6344  122271395.857 6  95276420.58442
     -2708.796       -2110.760
  22416741.496    22416741.0924   22416746.2424  117800780.093 7  91792836.59544
      3261.465        2541.401
  20548698.426    20548698.0894   20548703.1854  107984373.069 8  84143645.45546
      -461.316        -359.466
  20270256.063    20270254.8314   20270261.3704  106520934.323 8  83003341.71446
      -185.727        -144.722
  22524852.152    22524851.4844   22524856.8344  118369199.558 6  92235633.88743
     -1905.869       -1485.085
  24559779.245    24559778.6214   24559782.5314  129062837.745 5 100568417.31941
     -2246.591       -1750.566
  23937794.463    23937794.4804   23937802.9454  125793971.336 5  98021290.92141
      3521.898        2744.364
  24520106.135                                   128854052.361 4
      3628.160
  20493289.112    20493288.607    20493292.397   109356148.707 8  85054809.358 6
     -1507.835       -1172.760
  21685127.962    21685126.990    21685134.088   115634697.655 7  89938147.501 5
      4266.053        3318.043
  21175206.507    21175206.293    21175212.249   113114311.290 7  87977857.619 6
     -2731.531       -2124.522
  19283896.460    19283895.996    19283899.345   102975013.689 9  80091726.400 7
      1012.272         787.323
  21920377.201    21920376.008    21920450.529   116848007.038 6  90881814.810 3
      4403.811        3425.195
 11 10 10  0 15 30.0000000  0 14G02G04G05G07G10G13G23G26G28R02R03R12
                                R13R14
  21926735.476    21926735.1694   21926738.8404  115225779.007 6  89786337.57444
      -589.078        -459.013
  23282945.088    23282944.6174   23282950.8624  122352732.498 6  95339799.76442
     -2713.663       -2114.539
  22398144.992    22398144.1124   22398149.5204  117703054.066 7  91716686.44544
      3253.598        2535.263
  20551377.732    20551377.5464   20551382.3744  107998452.775 8  84154616.65446
      -477.321        -371.938
  20271362.402    20271361.1104   20271367.6074  106526748.009 8  83007871.85246
      -201.861        -157.293
  22535742.506    22535742.2254   22535747.4324  118426429.940 6  92280228.96743
     -1909.521       -1487.930
  24572608.837    24572610.1954   24572614.8534  129130256.856 5 100620951.66641
     -2248.073       -1751.719
  23917699.786    23917698.6404   23917705.8534  125688368.964 4  97939003.32941
      3518.255        2741.521
  24499388.111                                   128745195.854 4
      3628.900
  20501811.305    20501810.565    20501814.571   109401624.145 8  85090179.128 6
     -1523.856       -1185.222
  21661163.199    21661163.231    21661169.968   115506909.999 7  89838757.134 5
      4253.159        3308.015
  21190586.297    21190586.500    21190592.071   113196469.123 7  88041758.151 6
     -2745.611       -2135.473
  19278281.126    19278280.616    19278284.013   102945028.183 9  80068404.351 7
       986.767         767.485
  21895627.425    21895626.174    21895704.499   116716075.336 6  90779201.185 3
      4391.640        3415.684
 11 10 10  0 16  0.0000000  0 14G02G04G05G07G10G13G23G26G28R02R03R12
                                R13R14
  21930150.727    21930150.2464   21930153.2514  115243724.158 7  89800320.80944
      -607.288        -473.214
  23298450.390    23298450.5034   23298455.5114  122434212.962 6  95403291.02242
     -2718.413       -2118.250
  22379593.205    22379592.7944   22379598.0404  117605564.208 6  91640720.32444
      3245.661        2529.084
  20554148.323    20554147.9304   20554152.8214  108013011.516 8  84165961.12746
      -493.312        -384.396
  20272560.861    20272559.5254   20272565.9764  106533045.115 8  83012778.68146
      -218.000        -169.867
  22546653.394    22546652.9884   22546659.0184  118483769.179 6  92324908.88343
     -1913.197       -1490.801
  24585447.081    24585445.3944   24585451.2114  129197719.592 5 100673519.94541
     -2249.571       -1752.892
  23897625.140    23897624.0604   23897631.8194  125582873.958 5  97856799.47341
      3514.598        2738.673
  24478669.499                                   128636316.936 4
      3629.551
  20510422.239    20510422.269    20510426.781   109447579.414 8  85125922.102 7
     -1539.891       -1197.691
  21637271.384    21637271.165    21637278.694   115379509.018 7  89739667.498 5
      4240.140        3297.886
  21206046.046    21206045.693    21206050.744   113279046.194 7  88105984.748 6
     -2759.577       -2146.340
  19272808.985    19272808.434    19272811.845   102915807.683 9  80045677.305 7
       961.195         747.599
  21870946.230    21870944.916    21871023.166   116584510.521 6  90676873.131 3
      4379.304        3406.134
 11 10 10  0 16 30.0000000  0 14G02G04G05G07G10G13G23G26G28R02R03R12
                                R13R14
  21933668.890    21933667.8734   21933671.3574  115262210.949 7  89814726.09544
      -625.193        -487.168
  23313982.089    23313981.1364   23313987.8154  122515831.113 6  95466889.55942
     -2722.826       -2121.683
  22361086.149    22361086.0504   22361091.1414  117508309.500 7  91564937.42944
      3237.919        2523.050
  20557008.815    20557008.5954   20557013.3784  108028044.122 8  84177674.84646
      -508.931        -396.570
  20273850.407    20273849.1384   20273855.6324  106539822.020 8  83018059.37846
