     2.11           OBSERVATION DATA    M (MIXED)           RINEX VERSION / TYPE
teqc  2012Jun6                          20151118 02:01:21UTCPGM / RUN BY / DATE
OSX ker:10.8.0|Core 2 Duo|gcc 4.2 -m64|OSX ker:10.8.0+|=+   COMMENT
     2              OBSERVATION DATA    M (MIXED)           COMMENT
CCRINEXO V2.3.3 UX  BKG Frankfurt       11-OCT-11 00:16     COMMENT
Concatenated RINEX hourly files (24/24)                     COMMENT
JPS2RIN 1.40 lnx    SAC                 10-OCT-11 01:01     COMMENT
build Feb  6 2004 (c) Javad Navigation Systems              COMMENT
Stazione Astronomica Cagliari                               COMMENT
/home/srv/htdocs/glonass/hdata/CAGZ.tps                     COMMENT
SE TPS 8b1daea3                                             COMMENT
CAGZ                                                        MARKER NAME
12725M004                                                   MARKER NUMBER
SAC                 SAC-DIST                                OBSERVER / AGENCY
AGNV7TGA2O0         TPS E_GGD           3.3 Jul,10,2008 p4  REC # / TYPE / VERS
RRA052              JPSREGANT_DD_E  NONE                    ANT # / TYPE
  4893378.7999   772650.4734  4004179.0402                  APPROX POSITION XYZ
        0.0945        0.0000        0.0000                  ANTENNA: DELTA H/E/N
     1     1                                                WAVELENGTH FACT L1/2
     7    C1    P1    P2    L1    L2    D1    D2            # / TYPES OF OBSERV
    30.0000                                                 INTERVAL
teqc windowed: start @ 2011 Oct 10 20:00:00.000             COMMENT
teqc windowed: delta = 14400.000 sec                        COMMENT
  2011    10    10    20     0    0.0000000     GPS         TIME OF FIRST OBS
    15                                                      LEAP SECONDS
                                                            END OF HEADER
 11 10 10 20  0  0.0000000  1 15G04G11G13G17G20G23G31G32R01R02R11R12
                                R17R18R24
  24250707.565    24250708.7974   24250715.7904  127438365.207 4  99302623.08041
      3875.101        3019.540
  22443406.256    22443405.5274   22443410.4704  117941009.545 6  91902115.93443
     -2620.771       -2042.158
  22209871.757    22209870.7684   22209876.6354  116714085.047 7  90945839.32844
      3616.191        2817.811
  22209701.130    22209701.2384   22209706.8674  116712833.488 7  90945084.55644
       783.120         610.217
  20429713.156    20429712.2914   20429717.7184  107359128.621 8  83656449.92546
        32.084          25.003
  20755964.728    20755963.9864   20755967.2914  109073738.313 8  84992427.37846
      2036.416        1586.817
  23624558.765    23624558.7124   23624565.5674  124147923.191 6  96738657.74442
      -181.489        -141.412
  22013612.107    22013611.2384   22013617.8984  115682731.168 7  90142313.91645
     -1429.462       -1113.870
  21424186.599    21424186.190    21424189.775   114524985.030 7  89075125.859 4
     -1876.962       -1459.860
  20079019.954    20079019.459    20079022.875   107145750.454 8  83335697.216 7
       843.668         656.188
  22159922.503    22159921.859    22159926.317   118415935.698 6  92101306.363 4
      1535.438        1194.233
  23306003.964    23306004.983    23306011.817   124496560.176 6  96830696.740 5
      4209.172        3273.800
  20081927.938    20081926.978    20081930.429   107462512.148 7  83581997.147 5
      -189.542        -147.421
  22377804.636    22377805.111    22377812.224   119454256.944 6  92908908.540 5
      3546.592        2758.459
  21879878.420    21879878.205    21879882.779   117001618.662 7  91001309.315 5
     -3660.794       -2847.280
 11 10 10 20  0 30.0000000  0 15G04G11G13G17G20G23G31G32R01R02R11R12
                                R17R18R24
  24228594.113    24228593.5864   24228600.0644  127322153.668 5  99212068.74641
      3872.504        3017.521
  22458392.798    22458392.0274   22458397.1074  118019765.109 7  91963483.89043
     -2629.430       -2048.913
  22189258.476    22189257.9884   22189263.4494  116605763.795 7  90861433.21243
      3605.374        2809.385
  22205287.131    22205287.3494   22205292.9554  116689638.968 7  90927010.91544
       763.364         594.828
  20429556.825    20429555.7604   20429561.3714  107358306.241 8  83655809.10446
        22.903          17.841
  20744383.934    20744383.3004   20744386.8844  109012882.040 8  84945006.92746
      2020.849        1574.689
  23625648.795    23625648.8194   23625653.3924  124153648.974 5  96743119.43142
      -200.029        -155.863
  22021784.494    22021783.7524   22021790.6154  115725678.128 7  90175779.07745
     -1433.475       -1116.992
  21434730.887    21434730.044    21434733.525   114581348.725 7  89118964.289 4
     -1880.427       -1462.554
  20074304.642    20074304.398    20074308.017   107120591.187 8  83316128.912 7
       833.793         648.502
  22151372.293    22151372.389    22151376.440   118370246.871 6  92065770.646 4
      1510.725        1175.003
  23282382.990    23282382.375    23282389.128   124370369.782 6  96732548.722 5
      4203.640        3269.491
  20083068.202    20083067.397    20083070.713   107468614.533 7  83586743.440 5
      -217.076        -168.836
  22357925.787    22357925.527    22357929.893   119348132.852 6  92826367.636 5
      3528.491        2744.381
  21900445.570    21900444.663    21900450.003   117111598.179 7  91086848.844 5
     -3670.946       -2855.179
 11 10 10 20  1  0.0000000  0 15G04G11G13G17G20G23G31G32R01R02R11R12
                                R17R18R24
  24206493.504    24206493.3794   24206501.9834  127206013.398 5  99121569.96241
      3869.975        3015.544
  22473427.157    22473426.8164   22473432.1304  118098772.536 7  92025048.09343
     -2637.865       -2055.471
  22168705.582    22168705.2494   22168711.5194  116497761.050 6  90777275.29044
      3594.647        2801.022
  22200984.826    22200984.7844   22200990.6194  116667029.914 7  90909393.48344
       743.783         579.580
  20429451.160    20429450.1304   20429455.7444  107357752.219 8  83655377.40046
        13.885          10.818
  20732890.904    20732890.4674   20732893.7924  108952486.213 8  84897945.25846
      2005.406        1562.654
  23626842.883    23626842.8034   23626847.3604  124159926.133 5  96748010.73542
      -218.471        -170.229
  22029978.563    22029977.5714   22029984.6854  115768738.260 7  90209332.42545
     -1437.306       -1119.981
  21445292.912    21445292.308    21445295.984   114637809.929 7  89162878.544 4
     -1883.787       -1465.167
  20069643.765    20069643.480    20069647.276   107095720.156 8  83296784.794 7
       824.142         640.997
  22142959.614    22142959.216    22142963.294   118325293.246 6  92030806.743 4
      1486.072        1155.838
  23258789.163    23258789.371    23258795.807   124244341.733 6  96634526.984 5
      4198.191        3265.255
  20084361.371    20084360.339    20084363.897   107475534.403 7  83592125.561 5
      -244.442        -190.120
  22338144.757    22338144.316    22338151.415   119242545.556 6  92744244.230 5
      3510.317        2730.244
  21921067.442    21921066.934    21921071.978   117221872.957 7  91172618.022 5
     -3680.830       -2862.868
 11 10 10 20  1 30.0000000  0 15G04G11G13G17G20G23G31G32R01R02R11R12
                                R17R18R24
  24184405.282    24184405.2804   24184413.9504  127089944.013 5  99031126.36541
      3867.911        3013.964
  22488509.466    22488508.6984   22488514.0754  118178027.864 7  92086805.47243
     -2645.823       -2061.674
  22148214.572    22148213.8124   22148219.5214  116390076.695 7  90693365.45044
      3584.274        2792.939
  22196793.512    22196793.5624   22196799.2364  116645003.904 7  90892230.37144
       724.649         564.662
  20429396.520    20429395.4534   20429400.8834  107357463.934 8  83655152.76646
         5.301           4.130
  20721485.354    20721484.6094   20721487.9944  108892549.084 8  84851241.02146
      1990.385        1550.948
  23628142.675    23628142.2574   23628147.3644  124166752.212 6  96753329.76842
      -236.543        -184.304
  22038193.646    22038192.6784   22038199.5904  115811908.689 7  90242971.72444
     -1440.733       -1122.650
  21455872.280    21455871.910    21455876.473   114694365.276 7  89206866.029 4
     -1886.589       -1467.352
  20065035.922    20065035.792    20065039.674   107071134.060 8  83277662.292 7
       814.947         633.847
  22134683.526    22134683.558    22134688.751   118281074.692 6  91996414.563 4
      1461.779        1136.928
  23235228.582    23235227.838    23235233.235   124118478.057 6  96536633.096 5
      4192.781        3261.045
  20085806.696    20085805.738    20085809.483   107483269.490 7  83598141.738 5
      -271.305        -211.013
  22318466.681    22318466.011    22318470.537   119137496.355 6  92662539.379 5
      3492.791        2716.610
  21941743.560    21941742.951    21941747.670   117332436.384 7  91258611.699 6
     -3690.104       -2870.085
 11 10 10 20  2  0.0000000  0 15G04G11G13G17G20G23G31G32R01R02R11R12
                                R17R18R24
  24162333.082    24162332.2524   24162339.3114  126973947.121 5  98940739.31341
      3865.505        3012.080
  22503637.458    22503637.1604   22503642.4314  118257528.889 6  92148754.31743
     -2653.977       -2068.026
  22127783.735    22127783.2524   22127788.3794  116282712.148 7  90609704.81944
      3573.620        2784.643
  22192713.145    22192713.1344   22192718.3924  116623560.781 7  90875521.45944
       705.215         549.520
  20429391.974    20429391.1724   20429396.4524  107357441.279 8  83655135.12446
        -3.501          -2.730
  20710166.955    20710166.4574   20710169.6204  108833071.201 8  84804894.63346
      1975.090        1539.035
  23629545.139    23629545.1694   23629550.1214  124174126.434 6  96759075.93142
      -254.764        -198.511
  22046429.912    22046428.6754   22046435.4514  115855188.536 7  90276696.28644
     -1444.340       -1125.453
  21466470.063    21466469.410    21466473.486   114751013.417 7  89250925.694 4
     -1889.666       -1469.740
  20060482.091    20060481.413    20060485.564   107046832.070 8  83258760.751 7
       805.492         626.498
  22126547.569    22126546.638    22126552.965   118237593.055 6  91962595.547 4
      1437.243        1117.855
  23211696.810    23211697.169    23211702.776   123992783.204 6  96438870.516 4
      4187.167        3256.678
  20087404.000    20087403.113    20087406.854   107491817.380 7  83604790.096 5
      -298.300        -232.009
  22298887.511    22298887.536    22298894.051   119032988.752 6  92581255.719 5
      3474.637        2702.498
  21962472.120    21962471.800    21962477.061   117443283.987 7  91344826.399 5
     -3699.454       -2877.346
 11 10 10 20  2 30.0000000  0 15G04G11G13G17G20G23G31G32R01R02R11R12
                                R17R18R24
  24140272.613    24140271.0424   24140280.9174  126858026.288 5  98850411.53441
      3862.555        3009.781
  22518813.114    22518812.5804   22518817.8234  118337275.726 7  92210894.69643
     -2662.401       -2074.596
  22107414.334    22107413.9474   22107419.6254  116175670.926 7  90526296.11944
      3562.498        2775.976
  22188743.703    22188743.6374   22188749.4694  116602702.360 7  90859268.15244
       685.424         534.088
  20429438.377    20429437.5174   20429442.9324  107357685.227 8  83655325.22046
       -12.673          -9.875
  20698936.631    20698935.8814   20698939.2464  108774054.601 8  84758907.68446
      1959.418        1526.818
  23631053.065    23631052.7364   23631058.6484  124182049.841 6  96765250.01842
      -273.299        -212.980
  22054686.588    22054685.7844   22054692.3094  115898578.775 7  90310506.86844
     -1448.276       -1128.522
  21477085.001    21477084.304    21477088.621   114807755.102 7  89295058.104 4
     -1893.044       -1472.366
  20055981.389    20055980.930    20055984.383   107022814.495 8  83240080.428 7
       795.742         618.906
  22118549.720    22118549.225    22118554.913   118194852.173 6  91929352.672 4
      1412.227        1098.395
  23188199.191    23188199.601    23188204.701   123867263.175 6  96341243.898 4
      4180.941        3251.841
  20089153.504    20089152.713    20089156.850   107501178.823 7  83612071.208 5
      -325.695        -253.319
  22279413.356    22279413.404    22279418.232   118929028.762 7  92500398.015 5
      3455.962        2687.962
  21983253.832    21983253.623    21983259.042   117554413.154 7  91431260.103 5
     -3709.017       -2884.788
 11 10 10 20  3  0.0000000  0 15G04G11G13G17G20G23G31G32R01R02R11R12
                                R17R18R24
  24118230.006    24118230.8124   24118236.5674  126742186.298 5  98760146.73541
      3859.996        3007.790
  22534035.387    22534034.7674   22534040.1654  118417269.446 7  92273227.45243
     -2670.468       -2080.877
  22087107.030    22087106.9274   22087112.6434  116068958.000 7  90443143.23144
      3551.643        2767.506
  22184886.251    22184886.3084   22184892.2934  116582431.278 7  90843472.51744
       665.956         518.924
  20429536.271    20429535.2174   20429540.5684  107358198.503 8  83655725.17846
       -21.528         -16.774
  20687795.045    20687794.1304   20687797.3604  108715503.289 8  84713283.29746
      1944.037        1514.830
  23632665.170    23632666.0164   23632670.1094  124190525.066 5  96771854.10242
      -291.666        -227.245
  22062964.749    22062963.9004   22062970.3474  115942081.694 7  90344405.24744
     -1451.872       -1131.323
  21487717.819    21487716.607    21487720.452   114864592.387 7  89339264.894 4
     -1896.125       -1474.763
  20051534.562    20051533.831    20051537.500   106999083.769 8  83221623.202 7
       786.323         611.589
  22110689.999    22110690.291    22110695.273   118152857.120 6  91896689.892 4
      1387.493        1079.162
  23164736.986    23164736.583    23164742.968   123741925.708 6  96243759.254 4
      4174.873        3247.122
  20091056.049    20091054.681    20091058.369   107511356.543 7  83619987.212 5
      -352.750        -274.359
  22260041.053    22260041.001    22260046.237   118825622.701 6  92419971.114 5
      3437.678        2673.744
  22004088.612    22004088.514    22004093.307   117665822.351 6  91517911.590 5
     -3718.201       -2891.932
 11 10 10 20  3 30.0000000  0 15G04G11G13G17G20G23G31G32R01R02R11R12
                                R17R18R24
  24096202.173    24096201.9054   24096209.3504  126626430.266 5  98669947.40041
      3856.948        3005.421
  22549304.190    22549303.6104   22549309.3464  118497508.574 7  92335751.42643
     -2678.905       -2087.462
  22066864.038    22066863.6204   22066868.8664  115962576.080 7  90360248.26944
      3540.329        2758.702
  22181141.790    22181140.7994   22181146.5464  116562748.401 7  90828135.22444
       646.144         503.496
  20429685.100    20429684.1694   20429689.6304  107358981.541 8  83656335.33546
       -30.778         -23.979
  20676741.543    20676740.9694   20676744.1574  108657418.500 8  84668022.43446
      1928.214        1502.511
  23634384.056    23634383.7044   23634387.8024  124199552.801 5  96778888.71142
      -310.307        -241.795
  22071264.528    22071263.3174   22071270.3294  115985697.596 7  90378391.65944
     -1455.911       -1134.476
  21498367.066    21498366.902    21498371.352   114921525.041 7  89383545.832 4
     -1899.512       -1477.398
  20047140.934    20047140.505    20047144.304   106975640.142 8  83203389.286 7
       776.492         603.937
  22102970.828    22102969.900    22102975.673   118111610.948 6  91864609.571 4
      1362.143        1059.445
  23141307.483    23141307.568    23141314.449   123616776.126 6  96146420.733 5
      4168.354        3242.055
  20093110.390    20093108.806    20093112.932   107522349.475 7  83628537.277 5
      -380.188        -295.702
  22240775.136    22240774.431    22240780.282   118722774.675 6  92339978.299 5
      3418.740        2659.029
  22024973.388    22024973.910    22024979.382   117777508.478 6  91604778.474 5
     -3727.607       -2899.240
 11 10 10 20  4  0.0000000  0 15G04G11G13G17G20G23G31G32R01R02R11R12
                                R17R18R24
  24074191.055    24074189.9964   24074198.6144  126510765.353 5  98579819.06341
      3854.162        3003.224
  22564620.552    22564620.3694   22564625.2694  118577996.887 6  92398469.57843
     -2686.962       -2093.741
  22046683.723    22046683.9834   22046689.5074  115856532.695 7  90277617.10144
      3529.256        2750.072
  22177508.607    22177508.1954   22177513.8344  116543658.922 7  90813260.31544
       626.529         488.206
  20429886.496    20429885.5624   20429890.9034  107360039.569 8  83657159.77346
       -39.727         -30.957
  20665778.258    20665777.5884   20665780.7304  108599806.097 8  84623129.67046
      1912.661        1490.387
  23636208.083    23636206.5934   23636212.0284  124209137.662 5  96786357.44742
      -328.639        -256.079
  22079586.448    22079585.7804   22079592.5564  116029431.142 7  90412469.74544
     -1459.596       -1137.351
  21509037.423    21509036.492    21509040.130   114978557.855 7  89427904.688 4
     -1902.655       -1479.852
  20042802.398    20042801.845    20042805.149   106952487.831 8  83185381.950 7
       767.017         596.567
  22095394.455    22095393.048    22095398.287   118071120.815 6  91833117.269 4
      1337.153        1040.011
  23117917.753    23117917.193    23117923.810   123491824.417 6  96049236.095 5
      4161.812        3236.975
  20095317.875    20095316.410    20095319.857   107534161.954 7  83637724.764 5
      -407.269        -316.765
  22221613.993    22221613.497    22221618.805   118620493.923 7  92260426.646 5
      3399.929        2644.386
  22045912.830    22045912.314    22045917.016   117889472.515 7  91691861.512 5
     -3736.598       -2906.238
 11 10 10 20  4 30.0000000  0 15G04G11G13G17G20G23G31G32R01R02R11R12
                                R17R18R24
  24052197.622    24052196.7364   24052205.6594  126395186.693 5  98489757.90941
      3851.052        3000.826
  22579982.972    22579982.4404   22579987.7724  118658725.628 6  92461375.07743
     -2695.022       -2100.009
  22026567.920    22026567.4264   22026573.4244  115750822.999 7  90195245.95144
      3518.006        2741.295
  22173986.874    22173987.0654   22173992.8614  116525155.878 7  90798842.36144
       606.943         472.939
  20430138.968    20430137.8424   20430143.1814  107361365.709 8  83658193.13046
       -48.723         -37.965
  20654903.761    20654903.0934   20654906.3884  108542660.090 8  84578600.33646
      1897.022        1478.193
  23638135.109    23638136.1414   23638140.8914  124219272.627 5  96794254.81542
      -347.089        -270.460
  22087929.890    22087928.8164   22087935.8814  116073275.018 7  90446633.79244
     -1463.343       -1140.268
  21519722.152    21519722.503    21519726.032   115035682.794 7  89472335.208 4
     -1905.753       -1482.246
  20038516.745    20038516.352    20038520.019   106929619.376 8  83167595.388 7
       757.507         589.166
  22087958.843    22087957.311    22087961.378   118031381.963 6  91802209.278 4
      1312.059        1020.492
  23094561.906    23094561.955    23094569.337   123367068.292 6  95952203.599 5
      4155.169        3231.796
  20097676.529    20097675.507    20097679.200   107546786.897 7  83647544.168 5
      -434.417        -337.882
  22202559.112    22202558.657    22202564.311   118518778.017 6  92181314.341 5
      3381.009        2629.669
  22066901.268    22066900.215    22066904.767   118001703.409 7  91779152.088 5
     -3745.487       -2913.153
 11 10 10 20  5  0.0000000  0 15G04G11G13G17G20G23G31G32R01R02R11R12
                                R17R18R24
  24030219.736    24030220.0304   24030228.7604  126279698.533 5  98399767.31841
      3848.141        2998.573
  22595390.490    22595390.1564   22595395.2584  118739695.527 6  92524468.48343
     -2702.939       -2106.181
  22006516.098    22006515.9174   22006521.9624  115645451.255 7  90113138.14544
      3506.769        2732.542
  22170578.454    22170578.2534   22170583.9504  116507241.737 7  90784883.29844
       587.360         457.680
  20430442.686    20430441.6344   20430446.8374  107362961.989 8  83659436.98846
       -57.690         -44.956
  20644118.504    20644117.7354   20644121.0384  108485983.161 8  84534436.51846
      1881.436        1466.047
  23640169.225    23640169.6174   23640174.3544  124229959.355 5  96802582.17042
      -365.402        -284.750
  22096294.745    22096294.0694   22096299.9474  116117231.119 7  90480885.29244
     -1467.026       -1143.138
  21530426.653    21530426.752    21530430.565   115092901.630 7  89516838.755 4
     -1908.778       -1484.599
  20034284.801    20034284.344    20034288.091   106907036.364 8  83150030.842 7
       748.053         581.820
  22080663.203    22080663.221    22080667.161   117992398.663 6  91771888.972 4
      1286.869        1000.896
  23071243.598    23071244.444    23071252.273   123242514.581 6  95855328.548 5
      4148.383        3226.519
  20100187.855    20100186.949    20100190.116   107560224.714 7  83657995.805 5
      -461.418        -358.883
  22183611.671    22183610.484    22183615.745   118417632.255 6  92102645.464 5
      3361.994        2614.883
  22087937.235    22087937.522    22087942.745   118114199.155 6  91866648.657 5
     -3754.196       -2919.929
 11 10 10 20  5 30.0000000  0 15G04G11G13G17G20G23G31G32R01R02R11R12
                                R17R18R24
  24008262.428    24008262.6064   24008268.9044  126164308.062 5  98309852.78941
      3844.745        2995.897
  22610845.973    22610845.0974   22610850.3234  118820910.117 6  92587752.55843
     -2711.165       -2112.599
  21986530.266    21986529.5904   21986536.1884  115540424.324 7  90031299.02344
      3495.163        2723.491
  22167282.517    22167282.1164   22167287.8524  116489921.503 7  90771387.02744
       567.444         442.165
  20430798.573    20430797.5724   20430802.9264  107364833.122 8  83660895.01446
       -66.923         -52.151
  20633423.646    20633422.9294   20633425.9204  108429781.109 8  84490642.72746
      1865.505        1453.639
  23642309.107    23642309.9604   23642313.7844  124241202.733 5  96811343.24842
      -383.980        -299.207
  22104681.496    22104680.7254   22104687.0014  116161303.662 7  90515227.52744
     -1471.031       -1146.263
  21541149.159    21541148.784    21541153.770   115150218.297 7  89561418.387 4
     -1912.144       -1487.223
  20030106.460    20030106.111    20030110.432   106884742.670 8  83132691.308 7
       738.305         574.235
  22073510.562    22073509.954    22073514.331   117954177.910 6  91742161.757 4
      1261.308         981.010
  23047967.680    23047967.635    23047974.839   123118173.183 6  95758618.624 5
      4141.134        3220.879
  20102851.387    20102850.247    20102853.968   107574478.722 7  83669082.254 5
      -488.660        -380.071
  22164771.358    22164770.919    22164776.798   118317065.683 6  92024427.077 5
      3342.572        2599.771
  22109024.141    22109024.001    22109029.904   118226960.486 6  91954351.784 5
     -3763.077       -2926.837
 11 10 10 20  6  0.0000000  0 15G04G11G13G17G20G23G31G32R01R02R11R12
                                R17R18R24
  23986321.026    23986320.8344   23986328.2604  126049006.888 5  98220007.86741
      3841.861        2993.638
  22626344.560    22626344.2464   22626348.2774  118902356.867 6  92651217.53543
     -2718.595       -2118.373
  21966608.227    21966608.3744   21966614.3744  115435733.665 7  89949721.92244
      3484.195        2714.962
  22164097.383    22164097.2854   22164102.4424  116473184.342 7  90758345.08544
       548.287         427.234
  20431205.017    20431204.0794   20431209.2454  107366968.542 8  83662558.98046
       -75.450         -58.790
  20622816.908    20622816.3844   20622819.5364  108374044.111 8  84447211.31546
      1850.323        1441.812
  23644552.599    23644551.8714   23644556.4404  124252991.492 5  96820529.30042
      -401.949        -313.216
  22113087.773    22113087.2584   22113093.8834  116205481.867 7  90549652.09944
     -1474.226       -1148.745
  21551887.804    21551887.128    21551891.187   115207621.570 7  89606065.363 4
     -1914.762       -1489.258
  20025981.233    20025980.740    20025984.385   106862727.322 8  83115568.280 7
       729.336         567.258
  22066498.715    22066498.319    22066503.208   117916711.200 6  91713021.000 4
      1236.440         961.682
  23024730.803    23024729.540    23024736.369   122994037.975 6  95662069.077 5
      4134.506        3215.726
  20105665.789    20105664.651    20105668.443   107589537.168 7  83680794.380 5
      -515.186        -400.704
  22146039.176    22146038.681    22146044.245   118217071.529 7  91946653.920 5
      3323.728        2585.119
  22130158.261    22130157.825    22130163.959   118339972.797 6  92042250.104 5
     -3771.089       -2933.066
 11 10 10 20  6 30.0000000  0 15G04G11G13G17G20G23G31G32R01R02R11R12
                                R17R18R24
  23964398.770    23964398.0604   23964406.7454  125933803.207 5  98130238.87541
      3838.334        2990.899
  22641888.289    22641887.4484   22641892.2414  118984039.904 6  92714866.64143
     -2726.786       -2124.772
  21946752.284    21946751.9654   21946757.7864  115331387.480 7  89868413.24444
      3472.366        2705.742
  22161024.634    22161024.5544   22161029.6094  116457036.372 7  90745762.25644
       528.342         411.702
  20431662.927    20431661.9084   20431667.3594  107369374.364 8  83664433.64646
       -84.776         -66.058
  20612300.218    20612299.6654   20612302.9144  108318778.571 8  84404147.27346
      1834.212        1429.259
  23646901.054    23646901.2144   23646905.7514  124265331.428 6  96830144.84242
      -420.566        -327.711
  22121516.013    22121515.5834   22121522.1604  116249771.392 7  90584163.41444
     -1478.295       -1151.915
  21562643.700    21562643.215    21562646.648   115265116.675 7  89650783.767 4
     -1918.128       -1491.878
  20021908.595    20021907.927    20021911.947   106840995.742 8  83098665.943 7
       719.569         559.670
  22059629.290    22059629.325    22059634.325   117880006.646 6  91684473.026 4
      1210.683         941.648
  23001532.747    23001532.599    23001537.688   122870119.880 6  95565688.421 5
      4126.850        3209.773
  20108630.666    20108629.859    20108633.435   107605405.087 7  83693136.100 5
      -542.515        -421.961
  22127415.591    22127415.724    22127421.118   118117659.696 7  91869333.636 5
      3303.844        2569.656
  22151339.674    22151339.386    22151345.181   118453238.116 6  92130345.217 5
     -3779.821       -2939.858
 11 10 10 20  7  0.0000000  0 15G04G11G13G17G20G23G31G32R01R02R11R12
                                R17R18R24
  23942494.157    23942492.2394   23942500.1844  125818693.904 5  98040543.44541
      3835.404        2988.615
  22657475.926    22657475.2464   22657480.3324  119065952.702 6  92778694.77843
     -2734.273       -2130.613
  21926961.645    21926960.5914   21926965.7514  115227382.520 7  89787370.46444
      3461.101        2696.952
  22158062.573    22158062.3354   22158067.8044  116441472.300 7  90733634.41744
       509.057         396.672
  20432171.139    20432170.1294   20432175.5884  107372045.168 8  83666514.79246
       -93.467         -72.835
  20601872.611    20601871.9704   20601875.3124  108263980.600 8  84361447.56746
      1818.775        1417.226
  23649352.743    23649353.7764   23649357.2714  124278216.691 5  96840185.32042
      -438.645        -341.806
  22129964.641    22129963.5454   22129970.5064  116294166.582 7  90618757.05644
     -1481.612       -1154.497
  21573415.086    21573414.718    21573418.051   115322698.047 7  89695569.280 4
     -1920.840       -1493.991
  20017888.239    20017887.806    20017891.249   106819541.966 8  83081979.677 7
       710.500         552.605
  22052903.079    22052902.732    22052907.455   117844061.004 6  91656515.294 4
      1185.482         922.036
  22978375.191    22978374.930    22978380.591   122746418.463 6  95469476.293 5
      4119.729        3204.234
  20111746.236    20111745.648    20111748.867   107622076.901 7  83706103.065 5
      -569.094        -442.627
  22108900.481    22108900.700    22108907.735   118018828.814 7  91792465.232 6
      3284.510        2554.616
  22172566.172    22172566.851    22172571.769   118566746.945 6  92218629.716 5
     -3787.650       -2945.952
 11 10 10 20  7 30.0000000  0 15G04G11G13G17G20G23G31G32R01R02R11R12
                                R17R18R24
  23920607.998    23920607.1164   23920616.1264  125703684.653 5  97950925.96941
      3831.775        2985.843
  22673107.435    22673107.1574   22673112.0474  119148096.618 6  92842703.00443
     -2742.010       -2136.622
  21907234.919    21907235.0674   21907240.4654  115123724.211 7  89706597.78344
      3449.405        2687.844
  22155212.241    22155212.3224   22155217.9794  116426495.128 7  90721963.90144
       489.390         381.346
  20432730.295    20432729.3314   20432734.8224  107374984.098 8  83668804.86846
      -102.493         -79.862
  20591534.636    20591533.9344   20591537.2144  108209653.646 8  84319114.88746
      1802.960        1404.909
  23651908.460    23651908.7114   23651913.9454  124291650.532 5  96850653.26742
      -457.073        -356.180
  22138433.112    22138432.0614   22138438.9344  116338670.358 7  90653435.32344
     -1485.333       -1157.398
  21584203.430    21584202.924    21584207.503   115380368.000 7  89740423.675 4
     -1923.879       -1496.346
  20013919.935    20013919.792    20013923.238   106798368.706 8  83065511.597 7
       701.044         545.255
  22046320.115    22046318.631    22046323.922   117808879.259 6  91629151.734 4
      1159.859         902.114
  22955260.455    22955259.658    22955266.133   122622941.828 6  95373438.985 5
      4111.993        3198.213
  20115012.616    20115011.308    20115014.606   107639552.831 7  83719695.450 5
      -595.994        -463.547
  22090497.924    22090497.674    22090502.886   117920586.078 7  91716054.279 5
      3264.897        2539.364
  22193840.085    22193839.123    22193843.468   118680498.436 7  92307102.945 5
     -3795.749       -2952.248
 11 10 10 20  8  0.0000000  0 15G04G11G13G17G20G23G31G32R01R02R11R12
                                R17R18R24
  23898741.889    23898740.6114   23898750.4824  125588774.042 5  97861385.30941
      3828.730        2983.424
  22688781.539    22688781.0254   22688786.7164  119230466.658 6  92906887.43243
     -2749.458       -2142.440
  21887575.361    21887574.9904   21887580.3614  115020410.994 7  89626094.00644
      3437.983        2678.944
  22152473.260    22152473.2804   22152478.4364  116412101.518 7  90710748.10344
       470.029         366.257
  20433340.132    20433338.9604   20433344.3954  107378187.700 8  83671301.18446
      -111.219         -86.662
  20581285.915    20581285.2154   20581288.3774  108155795.250 8  84277147.32046
      1787.445        1392.815
  23654570.448    23654569.7924   23654574.6084  124305628.945 5  96861545.54842
      -474.896        -370.037
  22146922.289    22146920.9324   22146927.7344  116383278.855 7  90688195.19444
     -1488.691       -1160.013
  21595008.433    21595007.792    21595011.251   115438122.544 7  89785343.861 4
     -1926.578       -1498.444
  20010004.343    20010003.849    20010007.554   106777471.882 8  83049258.522 7
       691.948         538.178
  22039877.316    22039877.748    22039883.003   117774459.882 6  91602381.156 4
      1134.526         882.404
  22932186.275    22932186.668    22932193.741   122499691.055 6  95277577.321 5
      4104.474        3192.368
  20118427.512    20118426.520    20118430.011   107657829.066 7  83733910.301 5
      -622.562        -484.214
  22072203.051    22072202.380    22072208.945   117822930.972 7  91640100.362 6
      3245.281        2524.103
  22215154.832    22215155.133    22215159.888   118794485.195 6  92395759.156 5
     -3803.502       -2958.275
 11 10 10 20  8 30.0000000  0 15G04G11G13G17G20G23G31G32R01R02R11R12
                                R17R18R24
  23876894.410    23876893.7054   23876901.3484  125473961.596 5  97771921.20241
      3825.389        2980.809
  22704498.486    22704498.0054   22704504.0434  119313058.396 6  92971244.60343
     -2756.816       -2148.168
  21867980.881    21867980.4744   21867985.9274  114917442.128 7  89545858.56344
      3426.495        2670.003
  22149844.901    22149844.9234   22149850.5354  116398288.449 7  90699984.68144
       450.686         351.187
  20433999.494    20433998.5414   20434003.9404  107381653.219 8  83674001.59346
      -119.930         -93.454
  20571125.664    20571124.9504   20571127.9504  108102402.936 8  84235542.93546
      1771.890        1380.692
  23657333.074    23657332.3604   23657336.4344  124320148.594 6  96872859.57342
      -493.062        -384.202
  22155429.958    22155429.0434   22155435.4174  116427988.882 7  90723034.17444
     -1492.079       -1162.658
  21605827.402    21605826.748    21605830.317   115495957.972 7  89830326.956 4
     -1929.269       -1500.542
  20006139.237    20006138.854    20006142.375   106756847.935 8  83033217.688 7
       682.867         531.119
  22033579.933    22033579.589    22033583.157   117740801.709 6  91576202.604 4
      1109.224         862.731
  22909155.796    22909155.640    22909163.612   122376668.108 6  95181892.875 5
      4096.770        3186.367
  20121991.953    20121990.710    20121994.417   107676901.070 7  83748744.079 5
      -649.044        -504.812
  22054018.630    22054018.911    22054024.732   117725865.336 7  91564604.918 5
      3225.572        2508.778
  22236514.765    22236513.940    22236519.079   118908700.145 6  92484592.838 5
     -3811.000       -2964.111
 11 10 10 20  9  0.0000000  0 15G04G11G13G17G20G23G31G32R01R02R11R12
                                R17R18R24
  23855063.805    23855065.8004   23855070.4544  125359251.333 5  97682536.66041
      3822.158        2978.304
  22720257.323    22720256.2624   22720262.3334  119395871.620 6  93035774.36743
     -2763.969       -2153.738
  21848452.352    21848452.3714   21848457.1214  114814821.507 7  89465894.48344
      3414.993        2661.029
  22147327.409    22147327.1844   22147332.5554  116385057.662 7  90689674.97844
       431.463         336.197
  20434709.084    20434708.0844   20434713.5204  107385382.249 8  83676907.33546
      -128.558        -100.176
  20561054.547    20561053.8024   20561056.7774  108049479.133 8  84194303.62746
      1756.458        1368.671
  23660198.222    23660198.7794   23660202.6894  124335210.533 6  96884596.16642
      -510.969        -398.154
  22163957.450    22163956.5604   22163962.9104  116472801.910 7  90757953.42444
     -1495.335       -1165.194
  21616662.233    21616661.194    21616664.828   115553875.674 7  89875374.055 4
     -1931.797       -1502.505
  20002325.956    20002325.498    20002328.825   106736498.145 8  83017390.092 7
       673.904         524.145
  22027424.423    22027423.763    22027428.462   117707908.448 6  91550618.970 4
      1083.776         842.934
  22886170.518    22886169.567    22886177.151   122253879.668 6  95086390.796 5
      4089.163        3180.457
  20125704.828    20125703.953    20125706.832   107696769.618 7  83764197.398 5
      -675.398        -525.308
  22035946.644    22035946.934    22035953.035   117629393.818 7  91489571.580 5
      3205.970        2493.531
  22257915.858    22257915.210    22257919.826   119023140.987 6  92573602.208 5
     -3818.302       -2969.782
 11 10 10 20  9 30.0000000  0 15G04G11G13G17G20G23G31G32R01R02R11R12
                                R17R18R24
  23833255.991    23833253.9844   23833260.9654  125244644.163 5  97593232.43841
      3818.638        2975.564
  22736057.351    22736056.6534   22736062.4914  119478903.630 6  93100474.62343
     -2771.308       -2159.459
  21828990.826    21828990.9764   21828995.8084  114712550.075 7  89386202.49944
      3403.243        2651.870
  22144919.878    22144919.9374   22144925.2674  116372407.586 7  90679817.78044
       412.052         321.074
  20435468.787    20435467.7194   20435473.0864  107389373.557 8  83680017.44846
      -137.371        -107.043
  20551072.409    20551071.7464   20551074.8654  107997023.311 8  84153428.98146
      1740.785        1356.452
  23663168.310    23663167.4484   23663173.6704  124350813.427 6  96896754.25042
      -529.069        -412.259
  22172504.350    22172503.5294   22172509.7604  116517716.390 7  90792951.71944
     -1498.774       -1167.875
  21627511.141    21627511.062    21627514.888   115611873.713 7  89920483.630 4
     -1934.579       -1504.675
  19998563.491    19998562.818    19998566.627   106716420.535 8  83001774.179 7
       664.762         517.041
  22021412.268    22021411.390    22021415.906   117675780.759 6  91525630.756 4
      1058.193         823.036
  22863227.869    22863228.337    22863235.318   122131329.081 6  94991073.734 5
      4081.029        3174.132
  20129566.303    20129564.905    20129568.496   107717431.570 7  83780267.808 5
      -701.894        -545.918
  22017986.710    22017986.627    22017991.687   117533519.296 7  91415002.558 5
      3185.881        2477.904
  22279356.785    22279357.142    22279362.177   119137802.320 6  92662783.052 5
     -3825.639       -2975.491
 11 10 10 20 10  0.0000000  0 15G04G11G13G17G20G23G31G32R01R02R11R12
                                R17R18R24
  23811467.359    23811465.7344   23811473.2964  125130141.888 5  97504010.01941
      3815.127        2972.820
  22751899.379    22751898.2164   22751904.5994  119562152.222 6  93165343.63543
     -2778.403       -2164.994
  21809596.486    21809595.9714   21809601.1604  114610629.168 7  89306783.64644
      3391.632        2642.821
  22142622.801    22142622.9594   22142628.3644  116360337.465 7  90670412.50044
       392.793         306.073
  20436277.928    20436276.8864   20436282.4414  107393626.842 8  83683331.70146
      -146.020        -113.782
  20541179.369    20541178.7404   20541181.8664  107945035.611 8  84112919.10046
      1725.242        1344.344
  23666239.796    23666239.3934   23666244.9344  124366956.075 5  96909332.94942
      -546.967        -426.204
  22181070.784    22181069.6064   22181076.1144  116562731.505 7  90828028.42944
     -1502.056       -1170.435
  21638376.386    21638375.705    21638379.315   115669951.067 7  89965654.899 4
     -1937.094       -1506.626
  19994851.428    19994851.052    19994854.670   106696614.192 8  82986369.258 7
       655.812         510.075
  22015541.838    22015541.880    22015548.075   117644419.873 6  91501238.994 4
      1032.679         803.196
  22840331.556    22840332.122    22840338.392   122009021.081 6  94895945.350 5
      4072.907        3167.813
  20133574.886    20133574.056    20133577.413   107738885.224 7  83796953.980 5
      -728.159        -566.343
  22000137.840    22000137.908    22000143.694   117438244.774 6  91340900.198 5
      3165.853        2462.328
  22300840.355    22300839.923    22300845.381   119252679.806 6  92752132.024 5
     -3832.689       -2980.972
 11 10 10 20 10 30.0000000  0 15G04G11G13G17G20G23G31G32R01R02R11R12
                                R17R18R24
  23789698.973    23789698.3984   23789705.2284  125015750.649 5  97414874.06741
      3811.300        2969.841
  22767782.543    22767781.3624   22767788.4874  119645619.470 6  93230383.03143
     -2785.781       -2170.740
  21790269.187    21790268.9784   21790274.3724  114509064.610 7  89227642.46844
      3379.552        2633.414
  22140437.531    22140436.9204   22140442.8234  116348850.992 7  90661462.01044
       373.247         290.833
  20437137.827    20437136.7594   20437142.3744  107398145.536 8  83686852.76546
      -154.982        -120.765
  20531376.346    20531375.6564   20531378.6304  107893520.379 8  84072777.37746
      1709.361        1331.968
  23669414.342    23669414.4654   23669418.3804  124383641.770 5  96922334.82442
      -565.179        -440.401
  22189656.407    22189655.1304   22189662.4984  116607850.805 7  90863186.30844
     -1505.667       -1173.243
  21649256.024    21649255.185    21649259.490   115728111.096 7  90010890.461 4
     -1939.990       -1508.872
  19991191.001    19991190.686    19991194.404   106677082.160 8  82971177.692 7
       646.558         502.877
  22009817.760    22009817.626    22009823.490   117613831.353 6  91477447.938 4
      1006.793         783.062
  22817482.837    22817483.151    22817488.922   121886964.061 6  94801012.162 5
      4064.395        3161.203
  20137732.629    20137731.548    20137734.871   107761132.470 7  83814257.390 5
      -754.742        -587.023
  21982404.303    21982404.030    21982409.064   117343578.096 7  91267270.613 5
      3145.479        2446.483
  22322363.947    22322363.595    22322368.984   119367773.310 6  92841648.981 5
     -3839.940       -2986.611
 11 10 10 20 11  0.0000000  0 15G04G11G13G17G20G23G31G32R01R02R11R12
                                R17R18R24
  23767951.904    23767952.1834   23767959.6234  124901472.613 5  97325826.35841
      3807.383        2966.750
  22783707.566    22783706.5764   22783712.0294  119729303.621 6  93295591.44043
     -2793.003       -2176.360
  21771010.055    21771009.9014   21771015.2864  114407858.367 7  89148780.48344
      3367.660        2624.146
  22138362.104    22138362.3064   22138368.3154  116337947.897 7  90652966.10344
       353.824         275.712
  20438048.207    20438047.1554   20438052.6264  107402929.551 8  83690580.57046
      -163.804        -127.639
  20521663.204    20521662.6464   20521665.6894  107842478.135 8  84033004.21446
      1693.617        1319.702
  23672692.557    23672693.1114   23672697.9994  124400869.597 5  96935759.10842
      -583.190        -454.448
  22198261.838    22198260.8634   22198268.0024  116653073.632 7  90898424.85444
     -1509.073       -1175.901
  21660151.696    21660151.250    21660154.457   115786353.017 7  90056189.726 4
     -1942.646       -1510.948
  19987582.271    19987581.754    19987585.467   106657823.787 8  82956198.963 7
       637.469         495.803
  22004239.653    22004239.253    22004243.960   117584016.740 6  91454258.800 4
       980.979         762.979
  22794681.167    22794681.834    22794687.306   121765162.598 6  94706277.743 5
      4055.875        3154.567
  20142038.103    20142037.053    20142040.253   107784172.310 7  83832177.262 5
      -781.097        -607.517
  21964783.489    21964783.751    21964789.384   117249522.731 6  91194116.487 5
      3125.012        2430.563
  22343926.400    22343926.172    22343931.860   119483078.354 6  92931330.465 5
     -3846.897       -2992.019
 11 10 10 20 11 30.0000000  0 15G04G11G13G17G20G23G31G32R01R02R11R12
                                R17R18R24
  23746228.615    23746227.8154   23746236.1554  124787314.026 5  97236871.71341
      3803.170        2963.501
  22799673.368    22799672.9734   22799678.7204  119813207.001 6  93360970.67943
     -2800.497       -2182.199
  21751820.783    21751820.2294   21751826.1714  114307016.215 7  89070202.21944
      3355.243        2614.469
  22136399.340    22136399.4044   22136405.1234  116327631.887 7  90644927.66144
       334.023         260.271
  20439009.908    20439008.8204   20439014.2434  107407983.016 8  83694518.33746
      -172.995        -134.804
  20512041.238    20512040.6764   20512043.6214  107791913.432 8  83993603.16446
      1677.453        1307.104
  23676076.039    23676075.6094   23676079.4914  124418643.445 6  96949608.88542
      -601.637        -468.808
  22206887.986    22206887.0104   22206893.9984  116698403.945 7  90933747.15744
     -1512.878       -1178.859
  21671063.048    21671062.569    21671066.708   115844680.205 7  90101555.291 4
     -1945.759       -1513.371
  19984025.136    19984024.726    19984028.097   106638842.536 8  82941435.775 7
       627.992         488.439
  21998804.827    21998805.420    21998810.200   117554981.652 6  91431675.971 4
       954.755         742.583
  22771930.123    22771929.178    22771935.849   121643625.759 6  94611749.150 5
      4046.736        3147.460
  20146492.527    20146491.125    20146494.486   107808006.579 7  83850715.029 5
      -807.777        -628.273
  21947279.782    21947280.262    21947285.380   117156086.590 6  91121443.975 5
      3104.116        2414.307
  22365528.290    22365528.408    22365534.355   119598595.158 6  93021176.629 5
     -3854.080       -2997.612
 11 10 10 20 12  0.0000000  0 15G04G11G13G17G20G23G31G32R01R02R11R12
                                R17R18R24
  23724527.084    23724527.0014   23724532.4674  124673273.145 5  97148008.76941
      3799.499        2960.646
  22815680.409    22815679.6484   22815685.8414  119897323.991 6  93426516.36143
     -2807.336       -2187.537
  21732699.983    21732699.5064   21732705.4214  114206536.364 7  88991906.27044
      3343.367        2605.222
  22134546.936    22134547.2064   22134552.6994  116317898.612 7  90637343.29844
       314.810         245.305
  20440021.966    20440020.9814   20440026.4314  107413301.907 8  83698662.93046
      -181.619        -141.522
  20502509.510    20502508.7074   20502511.7894  107741822.644 8  83954571.39146
      1661.879        1294.969
  23679560.422    23679560.1484   23679564.5924  124436958.397 6  96963880.27542
      -619.405        -482.663
  22215533.808    22215533.0864   22215539.3584  116743837.257 7  90969149.73644
     -1516.056       -1181.345
  21681988.577    21681988.290    21681992.441   115903088.239 7  90146983.754 4
     -1948.188       -1515.250
  19980519.312    19980518.809    19980522.187   106620133.914 8  82926884.630 7
       619.194         481.597
  21993517.741    21993516.957    21993521.347   117526723.623 6  91409697.505 4
       929.060         722.595
  22749226.842    22749226.413    22749233.447   121522354.200 6  94517426.865 5
      4038.022        3140.684
  20151093.784    20151092.527    20151095.509   107832629.560 7  83869866.232 5
      -833.806        -648.510
  21929892.648    21929892.132    21929897.724   117063268.337 7  91049252.056 5
      3083.693        2398.427
  22387168.866    22387168.961    22387174.633   119714315.552 6  93111181.134 5
     -3860.621       -3002.697
 11 10 10 20 12 30.0000000  0 15G04G11G13G17G20G23G31G32R01R02R11R12
                                R17R18R24
  23702848.449    23702847.4874   23702854.9094  124559354.435 5  97059241.03441
      3795.063        2957.169
  22831728.269    22831727.6174   22831733.1744  119981654.907 6  93492228.74243
     -2814.702       -2193.266
  21713648.585    21713648.5294   21713654.3474  114106422.927 7  88913895.82744
      3330.872        2595.492
  22132806.128    22132805.9894   22132811.9264  116308749.775 7  90630214.33744
       295.114         229.964
  20441085.128    20441084.1244   20441089.5214  107418888.276 8  83703015.94446
      -190.780        -148.662
  20493068.138    20493067.3734   20493070.3524  107692208.535 9  83915911.05946
      1645.733        1282.381
  23683148.866    23683147.8344   23683152.9694  124455816.018 5  96978574.51742
      -637.714        -496.926
  22224199.843    22224198.6944   22224205.5664  116789375.656 7  91004634.19144
     -1519.785       -1184.244
  21692930.645    21692930.373    21692934.406   115961578.901 7  90192476.478 4
     -1951.200       -1517.596
  19977064.459    19977063.932    19977067.572   106601699.422 8  82912546.705 7
       609.778         474.270
  21988375.200    21988374.849    21988380.063   117499246.265 6  91388326.265 4
       902.814         702.185
  22726574.585    22726575.544    22726582.353   121401355.084 6  94423316.476 5
      4028.562        3133.328
  20155841.915    20155841.369    20155844.709   107858041.953 7  83889631.426 5
      -860.336        -669.150
  21912621.354    21912621.538    21912626.595   116971074.987 7  90977546.134 5
      3062.588        2382.011
  22408848.315    22408847.503    22408852.669   119830237.829 6  93201342.642 5
     -3867.529       -3008.071
 11 10 10 20 13  0.0000000  0 15G04G11G13G17G20G23G31G32R01R02R11R12
                                R17R18R24
  23681194.672    23681193.4464   23681201.0254  124445565.018 5  96970574.04341
      3790.858        2953.904
  22847817.903    22847816.8144   22847821.9394  120066202.925 6  93558110.28743
     -2821.809       -2198.807
  21694668.395    21694668.5994   21694674.2664  114006682.313 7  88836175.90544
      3318.523        2585.859
  22131177.235    22131177.2394   22131182.8804  116300190.264 7  90623544.58544
       275.574         214.735
  20442199.802    20442198.9304   20442204.2594  107424746.954 8  83707581.14846
      -199.761        -155.660
  20483718.787    20483717.9254   20483720.7954  107643076.419 8  83877626.31046
      1629.789        1269.967
  23686841.518    23686841.9404   23686846.6724  124475220.512 5  96993694.91442
      -655.894        -511.100
  22232886.324    22232885.2714   22232892.3004  116835023.435 7  91040203.88744
     -1523.359       -1187.026
  21703889.694    21703889.055    21703892.747   116020156.304 7  90238036.670 4
     -1953.955       -1519.739
  19973662.055    19973661.603    19973665.198   106583543.405 8  82898425.373 7
       600.640         467.159
  21983380.896    21983380.477    21983385.700   117472556.130 6  91367567.302 4
       876.620         681.816
  22703977.024    22703976.953    22703984.377   121280637.887 6  94329425.348 5
      4019.276        3126.096
  20160739.495    20160738.363    20160742.163   107884247.290 7  83910013.354 5
      -886.641        -689.608
  21895469.471    21895468.932    21895474.859   116879514.248 7  90906332.278 6
      3041.514        2365.621
  22430564.329    22430563.396    22430569.196   119946362.650 6  93291661.687 5
     -3874.105       -3013.188
 11 10 10 20 13 30.0000000  0 15G04G11G13G17G20G23G31G32R01R02R11R12
                                R17R18R24
  23659567.488    23659568.1604   23659572.7214  124331911.483 5  96882012.94341
      3786.112        2950.191
  22863948.130    22863947.1644   22863952.4704  120150970.329 6  93624162.78943
     -2829.264       -2204.620
  21675761.120    21675760.5704   21675766.2824  113907320.932 7  88758751.48744
      3305.656        2575.829
  22129662.002    22129661.3514   22129666.9044  116292223.360 7  90617336.61644
       255.630         199.192
  20443367.359    20443366.3244   20443371.6044  107430882.018 8  83712361.72046
      -209.171        -162.991
  20474461.619    20474460.9014   20474463.9084  107594430.977 8  83839720.78546
      1613.343        1257.149
  23690639.112    23690638.5444   23690643.3844  124495175.422 6  97009244.20642
      -674.426        -525.519
  22241594.243    22241593.1334   22241600.1604  116880784.691 7  91075862.01244
     -1527.317       -1190.119
  21714863.840    21714863.260    21714868.438   116078824.269 7  90283667.312 4
     -1957.205       -1522.277
  19970312.552    19970312.139    19970315.556   106565669.579 8  82884523.512 7
       591.059         459.715
  21978534.138    21978534.048    21978538.739   117446658.751 6  91347424.922 4
       849.959         661.078
  22681432.825    22681433.014    22681440.155   121160211.836 6  94235760.670 5
      4009.295        3118.341
  20165785.367    20165784.215    20165787.415   107911247.919 7  83931013.834 5
      -913.299        -710.345
  21878436.722    21878436.434    21878441.866   116788594.264 7  90835616.776 5
      3019.861        2348.778
  22452317.222    22452317.203    22452323.502   120062690.354 6  93382138.511 5
     -3880.992       -3018.533
 11 10 10 20 14  0.0000000  0 15G04G11G13G17G20G23G31G32R01R02R11R12
                                R17R18R24
  23637966.656    23637964.3484   23637973.7654  124218392.240 5  96793556.47941
      3781.787        2946.853
  22880118.850    22880118.6924   22880123.2774  120235951.579 6  93690381.92043
     -2836.120       -2209.965
  21656924.535    21656924.4614   21656929.9284  113808336.919 7  88681621.12344
      3293.289        2566.194
  22128257.500    22128257.0864   22128263.0064  116284845.054 7  90611587.29244
       236.239         184.086
  20444586.539    20444585.5294   20444590.9244  107437289.693 8  83717354.71346
      -218.011        -169.882
  20465296.577    20465295.9984   20465299.0374  107546268.980 8  83802191.96746
      1597.460        1244.774
  23694539.354    23694539.7304   23694543.7504  124515676.074 6  97025218.74242
      -692.355        -539.505
  22250322.693    22250321.8244   22250329.0324  116926655.182 7  91111605.24444
     -1530.700       -1192.752
  21725855.345    21725854.653    21725859.555   116137578.481 6  90329365.021 4
     -1959.738       -1524.242
  19967014.961    19967014.529    19967017.912   106548073.407 8  82870837.608 7
       582.058         452.711
  21973835.286    21973835.095    21973839.445   117421551.603 6  91327897.154 4
       823.806         640.735
  22658945.015    22658943.806    22658950.620   121040077.920 6  94142323.219 5
      3999.711        3110.885
  20170978.380    20170977.081    20170980.800   107939037.454 7  83952627.913 5
      -939.353        -730.609
  21861523.118    21861523.605    21861529.273   116698315.142 7  90765399.726 5
      2998.645        2332.273
  22474107.341    22474107.832    22474113.546   120179213.027 6  93472766.945 5
     -3887.134       -3023.313
 11 10 10 20 14 30.0000000  0 15G04G11G13G17G20G23G31G32R01R02R11R12
                                R17R18R24
  23616388.742    23616388.3374   23616395.9384  124105004.170 5  96705202.22941
      3777.343        2943.395
  22896330.337    22896329.4754   22896334.2114  120321139.915 6  93756762.41743
     -2843.026       -2215.329
  21638159.648    21638159.4374   21638164.9394  113709726.636 7  88604781.97744
      3280.740        2556.425
  22126963.808    22126963.9994   22126969.3404  116278049.520 7  90606292.06844
       216.806         168.947
  20445856.957    20445855.8184   20445861.1304  107443964.615 8  83722555.95146
      -226.965        -176.852
  20456222.728    20456222.1114   20456225.3174  107498585.575 8  83765036.07446
      1581.454        1232.300
  23698543.379    23698543.0814   23698548.4644  124536716.248 5  97041613.68242
      -710.292        -553.467
  22259071.336    22259070.4844   22259077.6004  116972629.415 7  91147429.31844
     -1534.219       -1195.492
  21736861.549    21736860.987    21736865.958   116196412.994 7  90375125.181 4
     -1962.514       -1526.395
  19963768.723    19963768.038    19963771.361   106530748.921 8  82857363.018 7
       572.940         445.618
  21969284.036    21969283.476    21969288.457   117397230.790 6  91308980.994 4
       797.550         620.311
  22636508.598    22636508.744    22636515.370   120920235.336 6  94049112.364 5
      3989.833        3103.201
  20176317.296    20176316.507    20176320.093   107967609.209 7  83974850.372 5
      -965.414        -750.877
  21844731.613    21844731.219    21844736.279   116608674.054 7  90695678.897 5
      2977.330        2315.701
  22495932.918    22495933.014    22495938.962   120295921.029 6  93563539.504 5
     -3893.340       -3028.143
 11 10 10 20 15  0.0000000  0 15G04G11G13G17G20G23G31G32R01R02R11R12
                                R17R18R24
  23594834.998    23594835.6144   23594843.2564  123991745.810 5  96616949.06041
      3773.062        2940.005
  22912580.169    22912578.4984   22912583.6374  120406529.491 6  93823299.73443
     -2849.675       -2220.532
  21619465.615    21619465.5234   21619470.8004  113611488.419 7  88528232.74644
      3268.369        2546.783
  22125780.900    22125780.6234   22125786.5434  116271832.525 7  90601447.65544
       197.612         153.977
  20447177.144    20447176.1374   20447181.5674  107450902.860 8  83727962.37846
      -235.680        -183.648
  20447239.180    20447238.6364   20447241.7734  107451377.016 8  83728250.19646
      1565.673        1220.005
  23702649.618    23702649.2464   23702653.1694  124558291.429 5  97058425.51142
      -728.010        -567.281
  22267839.482    22267838.3404   22267845.2874  117018702.995 7  91183330.80544
     -1537.454       -1198.022
  21747882.025    21747881.894    21747886.070   116255323.106 7  90420944.146 4
     -1964.934       -1528.281
  19960571.577    19960571.234    19960575.181   106513691.509 8  82844096.148 7
       564.149         438.783
  21964879.467    21964879.568    21964885.124   117373693.318 6  91290674.095 4
       771.541         600.087
  22614128.373    22614128.568    22614134.703   120800684.967 6  93956128.793 5
      3980.061        3095.603
  20181801.971    20181800.801    20181804.150   107996956.673 7  83997676.161 5
      -991.145        -770.892
  21828058.546    21828057.646    21828063.437   116519670.679 7  90626454.089 5
      2956.031        2299.132
  22517791.828    22517791.515    22517797.875   120412806.149 6  93654449.798 5
     -3899.153       -3032.660
 11 10 10 20 15 30.0000000  0 15G04G11G13G17G20G23G31G32R01R02R11R12
                                R17R18R24
  23573309.028    23573309.0824   23573318.3574  123878626.364 5  96528804.11941
      3768.448        2936.448
  22928867.915    22928867.1564   22928872.6564  120492125.463 6  93889997.86143
     -2856.630       -2225.940
  21600843.837    21600843.8044   21600848.4934  113513630.655 7  88451979.97444
      3255.572        2536.806
  22124709.622    22124709.2664   22124714.6404  116266200.350 7  90597058.95644
       178.005         138.706
  20448548.874    20448547.8524   20448553.1294  107458111.038 8  83733579.14146
      -244.774        -190.734
  20438347.520    20438346.7674   20438349.8484  107404650.811 8  83691840.18046
      1549.503        1207.403
  23706857.857    23706857.8484   23706862.9114  124580407.984 5  97075659.18842
      -746.172        -581.442
  22276627.519    22276626.2494   22276632.6784  117064882.688 7  91219314.96044
     -1541.093       -1200.843
  21758918.645    21758918.158    21758922.834   116314315.511 7  90466827.114 4
     -1967.769       -1530.494
  19957426.267    19957425.943    19957429.872   106496907.748 8  82831042.111 7
       554.902         431.587
  21960624.426    21960623.465    21960627.828   117350947.790 6  91272983.118 4
       744.956         579.409
  22591805.616    22591805.716    22591811.739   120681438.793 6  93863381.806 5
      3969.724        3087.556
  20187431.773    20187430.844    20187434.710   108027085.327 7  84021109.541 5
     -1017.309        -791.245
  21811506.295    21811506.311    21811511.828   116431315.705 7  90557733.584 5
      2934.331        2282.257
  22539684.509    22539683.374    22539690.019   120529871.904 6  93745500.565 5
     -3905.163       -3037.338
 11 10 10 20 16  0.0000000  0 15G04G11G13G17G20G23G31G32R01R02R11R12
                                R17R18R24
  23551810.168    23551808.9114   23551817.2914  123765644.217 5  96440766.14841
      3764.058        2933.015
  22945193.939    22945193.3954   22945199.2044  120577922.330 6  93956852.52843
     -2863.022       -2230.936
  21582294.373    21582293.9774   21582299.2234  113416151.661 7  88376022.34044
      3243.175        2527.143
  22123748.129    22123747.8524   22123753.3034  116261148.387 6  90593122.36744
       158.953         123.851
  20449971.308    20449970.2154   20449975.5694  107465585.659 8  83739403.52246
      -253.382        -197.446
  20429546.624    20429546.1664   20429549.0864  107358403.384 8  83655803.22946
      1533.818        1195.182
