     2              OBSERVATION DATA    M (MIXED)           RINEX VERSION / TYPE
CCRINEXO V2.3.3 UX  BKG Frankfurt       15-OCT-11 00:16     PGM / RUN BY / DATE
Concatenated RINEX hourly files (15/24)                     COMMENT
JPS2RIN 1.40 lnx    SAC                 14-OCT-11 01:01     COMMENT
build Feb  6 2004 (c) Javad Navigation Systems              COMMENT
Stazione Astronomica Cagliari                               COMMENT
/home/srv/htdocs/glonass/hdata/CAGZ.tps                     COMMENT
SE TPS 8b1daea7                                             COMMENT
CAGZ                                                        MARKER NAME
12725M004                                                   MARKER NUMBER
SAC                 SAC-DIST                                OBSERVER / AGENCY
AGNV7TGA2O0         TPS E_GGD           3.3 Jul,10,2008 p4  REC # / TYPE / VERS
RRA052              JPSREGANT_DD_E  NONE                    ANT # / TYPE
  4893377.4584   772650.1268  4004180.2165                  APPROX POSITION XYZ
        0.0945        0.0000        0.0000                  ANTENNA: DELTA H/E/N
     1     1                                                WAVELENGTH FACT L1/2
     7    C1    P1    P2    L1    L2    D1    D2            # / TYPES OF OBSERV
    30.000                                                  INTERVAL
    15                                                      LEAP SECONDS
  2011    10    14     0     0    0.000000      GPS         TIME OF FIRST OBS
                                                            END OF HEADER
 11 10 14  0  0  0.0000000  1 15G02G04G05G07G10G13G23G26G28R06R07R08
                                R09R10R16
  22052655.981    22052655.6364   22052659.3104  115887497.176 7  90301970.70844
      -630.581        -491.366
  23425160.259    23425159.2214   23425165.7384  123100099.189 6  95922175.94442
     -2720.333       -2119.741
  22502469.451    22502469.4364   22502474.7934  118251292.359 6  92143877.70044
      3246.746        2529.929
  20679641.823    20679641.6214   20679646.4854  108672592.131 8  84679956.61646
      -509.135        -396.735
  20395918.310    20395917.0434   20395923.5814  107181311.991 8  83517921.75846
      -235.033        -183.143
  22661134.110    22661133.8254   22661139.6624  119085512.578 6  92793735.46243
     -1911.095       -1489.158
  24708251.992    24708250.1774   24708257.0264  129843231.955 5 101176370.10841
     -2250.177       -1753.427
  24002961.553    24002962.4314   24002967.4894  126136418.881 4  98288141.86441
      3511.623        2736.349
  24587821.213                                   129209950.529 4
      3630.777
  20685890.826    20685890.741    20685894.784   110383935.363 8  85854221.058 6
     -1676.303       -1303.790
  19862056.216    19862055.074    19862054.860   106323154.580 8  82695832.116 6
      2347.246        1825.632
  23023698.199    23023697.165    23023699.130   123290848.540 5  95892908.552 5
      4172.575        3245.333
  19271345.369    19271345.533    19271349.481   102908086.053 9  80039699.162 7
       981.114         763.086
  21796577.399    21796575.763    21796584.085   116188093.718 7  90368570.374 5
      4233.442        3292.675
  21270554.314    21270554.958    21270559.598   113623842.227 7  88374227.784 6
     -2787.961       -2168.414
 11 10 14  0  0 30.0000000  0 15G02G04G05G07G10G13G23G26G28R06R07R08
                                R09R10R16
  22056308.949    22056307.8434   22056311.6724  115906690.623 6  90316926.62744
      -648.844        -505.589
  23440703.850    23440704.1994   23440710.1874  123181783.920 6  95985826.32542
     -2725.171       -2123.506
  22483958.476    22483958.1064   22483963.0444  118154014.473 7  92068076.75944
      3238.553        2523.548
  20682594.565    20682594.3044   20682599.2144  108688109.045 8  84692047.72146
      -525.193        -409.239
  20397306.901    20397305.6094   20397312.3424  107188609.931 8  83523608.45446
      -251.364        -195.864
  22672055.638    22672055.1794   22672061.7964  119142905.696 6  92838457.32543
     -1914.932       -1492.169
  24721103.735    24721103.6794   24721108.0634  129910762.088 5 101228990.94941
     -2251.835       -1754.661
  23982924.425    23982925.5064   23982932.4434  126031127.168 4  98206096.43041
      3507.849        2733.398
  24567092.586    24567091.5714   24567101.6824  129101022.203 4 100598150.32941
      3631.255        2829.562
  20695360.469    20695360.398    20695364.520   110434466.957 8  85893523.391 6
     -1692.304       -1316.230
  19848944.823    19848943.675    19848943.474   106252968.913 8  82641243.252 6
      2331.917        1813.715
  23000323.236    23000322.908    23000325.140   123165685.395 5  95795559.469 5
      4171.726        3244.677
  19265906.790    19265907.126    19265911.204   102879046.008 9  80017112.469 7
       955.054         742.821
  21772789.780    21772788.476    21772795.458   116061290.837 7  90269945.929 4
      4220.204        3282.383
  21286251.760    21286252.255    21286256.840   113707693.401 7  88439445.340 6
     -2801.944       -2179.288
 11 10 14  0  1  0.0000000  0 15G02G04G05G07G10G13G23G26G28R06R07R08
                                R09R10R16
  22060064.131    22060063.1184   22060067.1254  115926426.529 6  90332305.23444
      -666.879        -519.653
  23456274.025    23456274.2164   23456280.9114  123263606.800 5  96049584.38042
     -2729.731       -2127.071
  22465492.889    22465492.6004   22465498.0924  118056979.146 7  91992464.82044
      3230.438        2517.223
  20685637.753    20685637.5774   20685642.5054  108704101.722 8  84704509.54846
      -541.021        -421.578
  20398787.925    20398786.8974   20398793.5824  107196392.901 8  83529673.09746
      -267.524        -208.458
  22682998.169    22682997.7494   22683003.1724  119200408.645 6  92883264.78243
     -1918.611       -1495.030
  24733962.096    24733961.5004   24733965.2184  129978337.037 5 101281646.74941
     -2253.319       -1755.837
  23962910.389    23962910.6054   23962917.4554  125925945.556 5  98124136.73441
      3504.227        2730.550
  24546359.444    24546360.7974   24546369.6704  128992080.003 4 100513260.61241
      3631.572        2829.787
  20704919.537    20704919.058    20704923.458   110485473.974 8  85933195.518 6
     -1708.175       -1328.582
  19835918.587    19835917.691    19835917.385   106183239.054 8  82587008.912 6
      2316.682        1801.861
  22976953.182    22976952.796    22976956.912   123040543.044 5  95698226.577 5
      4171.016        3244.115
  19260614.273    19260614.516    19260618.827   102850784.373 9  79995131.212 7
       929.073         722.608
  21749076.509    21749074.159    21749081.718   115934882.597 7  90171628.429 4
      4206.985        3272.100
  21302026.283    21302026.657    21302031.132   113791957.859 7  88504984.356 6
     -2815.712       -2190.000
 11 10 14  0  1 30.0000000  0 15G02G04G05G07G10G13G23G26G28R06R07R08
                                R09R10R16
  22063923.280    22063922.4364   22063926.3134  115946706.100 7  90348107.47944
      -684.961        -533.732
  23471870.909    23471870.9784   23471877.1604  123345567.618 6  96113449.91442
     -2734.240       -2130.597
  22447075.088    22447075.0384   22447079.5134  117960191.112 7  91917045.57844
      3222.164        2510.781
  20688772.144    20688771.8464   20688776.7244  108720571.389 8  84717343.04946
      -556.888        -433.936
  20400361.969    20400360.7444   20400367.5374  107204663.893 8  83536118.01746
      -283.802        -221.143
  22693961.863    22693961.6274   22693966.8464  119258023.453 6  92928159.40043
     -1922.343       -1497.921
  24746830.053    24746829.1964   24746834.0854  130045959.181 5 101334339.32741
     -2254.744       -1756.961
  23942918.332    23942917.4274   23942923.4914  125820876.893 5  98042265.07241
      3500.619        2727.784
  24525626.532    24525627.6954   24525635.7884  128883129.205 4 100428364.25941
      3631.815        2829.976
  20714567.675    20714567.490    20714571.339   110536958.777 8  85973239.238 6
     -1724.088       -1340.956
  19822978.992    19822977.782    19822977.510   106113971.073 8  82533133.815 6
      2301.246        1789.860
  22953588.565    22953587.807    22953591.370   122915426.325 5  95600913.586 5
      4170.241        3243.519
  19255468.150    19255468.281    19255472.377   102823303.478 9  79973757.193 7
       903.070         702.389
  21725435.866    21725434.944    21725443.049   115808875.119 7  90073622.647 4
      4193.558        3261.656
  21317878.034    21317878.076    21317882.836   113876634.454 7  88570843.908 6
     -2829.314       -2200.576
 11 10 14  0  2  0.0000000  0 15G02G04G05G07G10G13G23G26G28R06R07R08
                                R09R10R16
  22067883.409    22067883.0154   22067886.8584  115967519.241 6  90364325.50144
      -702.868        -547.688
  23487492.594    23487492.3604   23487498.0694  123427655.308 5  96177414.32642
     -2738.545       -2133.929
  22428702.600    22428702.3954   22428708.0824  117863644.950 7  91841814.80644
      3213.930        2504.355
  20691995.001    20691994.7994   20691999.6214  108737508.256 8  84730540.61146
      -572.555        -446.149
  20402027.462    20402026.0804   20402032.9294  107213415.359 8  83542937.33046
      -299.960        -233.734
  22704944.609    22704944.9034   22704951.4444  119315741.671 6  92973134.58542
     -1925.903       -1500.713
  24759706.183    24759705.4974   24759708.7454  130113620.834 5 101387062.65641
     -2256.297       -1758.089
  23922942.941    23922942.4824   23922949.6124  125715913.956 5  97960475.80441
      3496.809        2724.785
  24504891.780    24504894.0394   24504898.7034  128774164.688 4 100343457.09941
      3632.167        2830.271
  20724303.438    20724303.252    20724307.633   110588912.387 8  86013647.578 6
     -1739.856       -1353.221
  19810124.231    19810122.810    19810122.630   106045157.912 8  82479612.469 6
      2285.918        1777.935
  22930229.024    22930227.171    22930231.287   122790329.364 5  95503615.973 5
      4169.356        3242.825
  19250466.520    19250466.743    19250470.888   102796594.572 9  79952983.608 7
       877.209         682.271
  21701872.869    21701871.125    21701878.608   115683263.012 7  89975924.372 5
      4180.196        3251.265
  21333804.535    21333804.747    21333809.000   113961710.830 7  88637014.409 6
     -2842.727       -2211.007
 11 10 14  0  2 30.0000000  0 15G02G04G05G07G10G13G23G26G28R06R07R08
                                R09R10R16
  22071946.419    22071945.3774   22071949.6324  115988868.142 7  90380960.98744
      -720.264        -561.244
  23503137.247    23503136.7734   23503144.1404  123509870.737 6  96241478.25242
     -2742.332       -2136.895
  22410377.786    22410377.8984   22410382.6074  117767346.173 7  91766776.80244
      3206.099        2498.261
  20695307.287    20695307.0824   20695311.8904  108754914.394 8  84744103.83846
      -587.718        -457.964
  20403785.136    20403783.6084   20403790.1914  107222650.671 8  83550133.67246
      -315.620        -245.940
  22715948.146    22715948.4004   22715953.7374  119373566.853 6  93018193.14042
     -1928.985       -1503.107
  24772589.751    24772589.0564   24772591.5734  130181325.318 5 101439819.39841
     -2257.309       -1758.973
  23902989.060    23902989.6734   23902996.5294  125611060.879 5  97878772.13641
      3493.491        2722.208
  24484156.459    24484152.9754   24484165.1234  128665192.687 4 100258544.12241
      3632.869        2830.806
  20734127.934    20734127.978    20734132.227   110641338.564 8  86054423.458 6
     -1755.123       -1365.094
  19797355.922    19797354.631    19797354.333   105976808.017 8  82426451.434 6
      2270.940        1766.286
  22906871.213    22906870.717    22906874.285   122665258.434 5  95406338.630 5
      4168.906        3242.494
  19245609.859    19245610.083    19245614.433   102770661.013 9  79932813.074 7
       851.820         662.525
  21678383.133    21678382.310    21678390.178   115558052.824 7  89878538.703 5
      4167.235        3241.178
  21349805.435    21349805.898    21349810.689   114047187.125 7  88703495.950 6
     -2855.537       -2220.975
 11 10 14  0  3  0.0000000  0 15G02G04G05G07G10G13G23G26G28R06R07R08
                                R09R10R16
  22076109.588    22076109.2484   22076113.0044  116010747.576 6  90398009.87644
      -738.081        -575.123
  23518805.498    23518805.3874   23518812.1814  123592207.868 6  96305637.01242
     -2746.453       -2140.112
  22392099.405    22392099.1124   22392105.0064  117671294.146 7  91691931.07144
      3197.652        2491.676
  20698708.001    20698707.7614   20698712.6434  108772785.179 8  84758029.12546
      -603.365        -470.150
  20405633.911    20405632.5544   20405639.2314  107232366.713 8  83557704.60646
      -331.822        -258.561
  22726972.505    22726972.4834   22726977.6884  119431495.053 6  93063331.95442
     -1932.588       -1505.925
  24785480.386    24785478.7134   24785483.8624  130249069.194 4 101492606.80241
     -2258.718       -1760.036
  23883058.427    23883057.9304   23883064.8314  125506315.109 5  97797152.11141
      3489.786        2719.326
  24463418.223    24463416.3364   24463424.9574  128556213.005 4 100173625.12241
      3632.766        2830.684
  20744040.457    20744040.487    20744044.639   110694233.362 8  86095563.823 6
     -1770.915       -1377.375
  19784673.859    19784672.528    19784672.107   105908919.840 8  82373649.516 6
      2255.151        1754.009
  22883520.692    22883519.667    22883523.134   122540212.266 5  95309080.505 5
      4167.837        3241.655
  19240897.892    19240898.128    19240902.395   102745499.062 9  79913242.676 7
       825.899         642.365
  21654969.470    21654968.290    21654975.460   115433244.164 7  89781465.329 5
      4153.595        3230.578
  21365880.573    21365881.011    21365885.878   114133056.250 7  88770283.024 6
     -2868.744       -2231.242
 11 10 14  0  3 30.0000000  0 15G02G04G05G07G10G13G23G26G28R06R07R08
                                R09R10R16
  22080373.895    22080373.3144   22080377.5454  116033156.414 7  90415471.30244
      -755.723        -588.872
  23534497.418    23534496.4764   23534502.4004  123674664.486 5  96369888.87442
     -2750.464       -2143.226
  22373869.007    22373868.7514   22373873.9454  117575491.787 7  91617279.89644
      3189.279        2485.150
  20702196.847    20702196.7224   20702201.6454  108791119.508 8  84772315.62246
      -618.816        -482.196
  20407574.553    20407573.1124   20407579.7274  107242564.193 8  83565650.68846
      -347.895        -271.090
  22738015.552    22738015.3764   22738021.7274  119489526.635 6  93108551.32043
     -1936.072       -1508.612
  24798379.136    24798378.2224   24798383.1654  130316853.115 5 101545425.48441
     -2260.087       -1761.101
  23863146.806    23863146.1394   23863153.0874  125401677.750 5  97715616.51341
      3486.176        2716.490
  24442678.214    24442676.9334   24442684.8464  128447229.249 4 100088702.93841
      3632.713        2830.649
  20754040.954    20754040.778    20754045.045   110747596.967 8  86137068.829 6
     -1786.532       -1389.527
  19772078.333    19772077.270    19772077.214   105841497.733 8  82321210.095 6
      2239.436        1741.783
  22860173.576    22860173.318    22860176.535   122415194.022 5  95211844.123 5
      4166.794        3240.828
  19236330.262    19236330.533    19236335.088   102721108.701 9  79894272.408 7
       800.213         622.387
  21631631.709    21631630.552    21631637.278   115308840.777 7  89684707.166 4
      4140.056        3220.048
  21382028.932    21382028.885    21382032.958   114219314.838 7  88837373.020 6
     -2881.704       -2241.327
 11 10 14  0  4  0.0000000  0 15G02G04G05G07G10G13G23G26G28R06R07R08
                                R09R10R16
  22084738.122    22084737.4124   22084742.3524  116056090.797 7  90433342.23144
      -773.366        -602.611
  23550210.269    23550209.4454   23550215.8274  123757235.565 6  96434229.91942
     -2754.402       -2146.278
  22355685.523    22355685.5364   22355690.9444  117479939.596 7  91542823.64844
      3180.730        2478.493
  20705773.137    20705772.9604   20705778.1334  108809913.784 8  84786960.51546
      -634.274        -494.241
  20409605.997    20409604.7784   20409611.4214  107253241.291 8  83573970.50046
      -364.065        -283.692
  22749078.222    22749077.8704   22749084.0584  119547659.244 6  93153849.41143
     -1939.597       -1511.384
  24811286.934    24811285.3874   24811289.8324  130384674.805 4 101598273.58041
     -2261.590       -1762.318
  23843255.435    23843254.1494   23843262.6144  125297147.328 5  97634164.25841
      3482.317        2713.479
  24421937.985    24421937.2684   24421944.4494  128338241.855 4 100003777.92441
      3632.816        2830.724
  20764128.432    20764128.241    20764132.584   110801426.534 8  86178936.251 6
     -1802.234       -1401.740
  19759570.957    19759569.522    19759569.148   105774541.400 8  82269132.942 6
      2223.831        1729.646
  22836834.491    22836833.005    22836836.071   122290203.966 6  95114629.649 5
      4165.669        3239.961
  19231906.661    19231906.831    19231911.168   102697487.442 9  79875900.330 7
       774.410         602.318
  21608370.644    21608368.812    21608376.300   115184843.433 7  89588264.818 4
      4126.293        3209.335
  21398248.234    21398248.364    21398252.733   114305956.831 7  88904761.222 6
     -2894.544       -2251.316
 11 10 14  0  4 30.0000000  0 15G02G04G05G07G10G13G23G26G28R06R07R08
                                R09R10R16
  22089201.691    22089201.2904   22089205.6194  116079546.976 7  90451619.76244
      -790.559        -616.023
  23565943.955    23565942.9124   23565949.6974  123839916.723 5  96498656.74842
     -2757.808       -2148.918
  22337550.249    22337550.3244   22337555.6754  117384638.033 6  91468562.70744
      3172.506        2472.078
  20709436.461    20709436.1744   20709441.2934  108829164.373 8  84801960.97046
      -649.300        -505.948
  20411728.944    20411727.5224   20411734.1914  107264396.400 8  83582662.78046
      -379.815        -295.960
  22760158.603    22760158.8384   22760164.4064  119605890.812 6  93199224.61543
     -1942.723       -1513.809
  24824199.114    24824201.2704   24824204.7784  130452532.528 5 101651149.64141
     -2262.550       -1762.976
  23823383.397    23823384.0684   23823389.9824  125192722.540 5  97552794.32241
      3478.935        2710.851
  24401197.168    24401196.0694   24401207.1394  128229251.859 4  99918850.85641
      3633.239        2831.125
  20774303.482    20774303.105    20774307.195   110855720.024 8  86221164.487 6
     -1817.532       -1413.635
  19747150.161    19747149.032    19747148.644   105708053.641 8  82217420.238 6
      2208.406        1717.650
  22813497.933    22813497.054    22813499.154   122165243.390 5  95017438.111 5
      4164.806        3239.299
  19227626.751    19227626.874    19227630.974   102674632.454 9  79858124.235 7
       749.048         582.591
  21585184.572    21585183.703    21585190.939   115061253.188 7  89492139.092 4
      4112.843        3198.880
  21414538.047    21414538.556    21414543.496   114392976.902 7  88972443.472 6
     -2906.931       -2260.943
 11 10 14  0  5  0.0000000  0 15G02G04G05G07G10G13G23G26G28R06R07R08
                                R09R10R16
  22093763.918    22093763.2364   22093767.1254  116103520.153 7  90470300.14444
      -807.660        -629.346
  23581696.949    23581696.4234   23581703.0534  123922702.206 5  96563164.88442
     -2761.189       -2151.580
  22319462.547    22319462.5984   22319468.0254  117289586.467 7  91394496.55444
      3164.248        2465.650
  20713185.807    20713185.4794   20713190.3924  108848866.632 8  84817313.37546
      -664.183        -517.545
  20413942.047    20413940.8634   20413947.3194  107276026.509 8  83591725.18846
      -395.543        -308.216
  22771258.517    22771257.8324   22771264.0904  119664217.514 6  93244673.92743
     -1945.772       -1516.174
  24837117.620    24837115.9994   24837121.2154  130520423.047 4 101704051.35341
     -2263.536       -1763.773
  23803531.550    23803531.0874   23803539.6484  125088400.977 5  97471504.82941
      3475.621        2708.277
  24380456.823    24380456.4184   24380465.1894  128120259.243 4  99833921.72141
      3633.131        2830.989
  20784564.543    20784564.344    20784568.416   110910473.999 8  86263750.887 6
     -1832.776       -1425.494
  19734817.200    19734815.910    19734815.673   105642033.840 8  82166071.507 6
      2192.865        1705.558
  22790165.902    22790166.317    22790170.172   122040310.891 5  94920268.381 5
      4163.957        3238.631
  19223489.549    19223489.874    19223494.037   102652540.416 9  79840941.543 7
       723.742         562.909
  21562075.642    21562074.189    21562082.667   114938069.810 7  89396329.832 5
      4099.335        3188.371
  21430897.550    21430898.157    21430902.871   114480367.675 7  89040414.053 6
     -2919.075       -2270.393
 11 10 14  0  5 30.0000000  0 15G02G04G05G07G10G13G23G26G28R06R07R08
                                R09R10R16
  22098424.732    22098423.7804   22098427.7404  116128011.779 7  90489384.51044
      -825.030        -642.880
  23597469.765    23597470.1924   23597476.7364  124005592.346 5  96627754.56542
     -2764.776       -2154.369
  22301423.817    22301423.6084   22301428.9254  117194790.694 7  91320629.72644
      3155.521        2458.848
  20717021.235    20717021.0104   20717025.8234  108869022.425 8  84833019.17746
      -679.449        -529.438
  20416246.348    20416244.9154   20416251.8244  107288135.054 8  83601160.40746
      -411.632        -320.751
  22782377.337    22782376.0294   22782381.5514  119722643.137 6  93290200.33142
     -1949.192       -1518.846
  24850044.229    24850042.6554   24850048.3164  130588349.978 4 101756981.43841
     -2264.859       -1764.835
  23783700.238    23783699.9714   23783706.3854  124984186.991 5  97390299.10941
      3471.931        2705.417
  24359718.087    24359715.8664   24359724.6704  128011270.053 5  99748995.28241
      3632.873        2830.825
  20794912.617    20794912.366    20794916.031   110965691.574 8  86306697.868 6
     -1848.318       -1437.578
  19722572.323    19722571.458    19722571.014   105576488.703 8  82115091.956 6
      2176.941        1693.176
  22766842.607    22766842.606    22766844.826   121915412.519 6  94823125.230 5
      4162.623        3237.599
  19219495.969    19219496.115    19219500.489   102631214.128 9  79824354.445 7
       698.087         542.955
  21539045.103    21539042.782    21539051.416   114815299.839 7  89300842.098 5
      4085.326        3177.477
  21447327.039    21447327.574    21447332.359   114568129.133 7  89108672.944 6
     -2931.523       -2280.075
 11 10 14  0  6  0.0000000  0 15G02G04G05G07G10G13G23G26G28R06R07R08
                                R09R10R16
  22103182.723    22103182.4984   22103186.5274  116153017.698 7  90508869.62244
      -841.949        -656.065
  23613263.002    23613262.6624   23613269.3834  124088582.252 5  96692421.98042
     -2767.764       -2156.708
  22283433.423    22283433.6004   22283439.0394  117100250.957 7  91246962.40044
      3147.167        2452.335
  20720942.149    20720942.1924   20720947.1994  108889628.339 8  84849075.74046
      -694.193        -540.931
  20418640.946    20418639.7614   20418646.5314  107300719.888 8  83610966.75846
      -427.295        -332.957
  22793512.520    22793512.8054   22793517.4374  119781164.681 6  93335801.49942
     -1952.196       -1521.177
  24862977.222    24862973.6154   24862980.4084  130656310.753 4 101809937.89941
     -2265.800       -1765.542
  23763889.513    23763887.8684   23763895.5104  124880078.156 5  97309175.37641
      3468.690        2702.902
  24338978.426    24338979.9254   24338984.8414  127902284.996 4  99664072.05841
      3632.946        2830.851
  20805346.065    20805345.909    20805349.542   111021369.375 8  86350002.804 6
     -1863.445       -1449.346
  19710416.650    19710415.622    19710415.260   105511417.688 8  82064481.167 6
      2161.264        1680.980
  22743524.594    22743524.990    22743527.784   121790548.471 5  94726008.772 5
      4161.735        3236.903
  19215645.190    19215645.157    19215649.326   102610650.446 9  79808360.479 7
       672.913         523.375
  21516089.547    21516089.068    21516097.613   114692943.857 7  89205676.358 5
      4071.727        3166.907
  21463824.858    21463824.775    21463829.187   114656254.935 7  89177215.215 6
     -2943.444       -2289.345
 11 10 14  0  6 30.0000000  0 15G02G04G05G07G10G13G23G26G28R06R07R08
                                R09R10R16
  22108038.248    22108037.2074   22108040.8744  116178529.439 7  90528748.89744
      -859.062        -669.396
  23629072.316    23629072.3754   23629079.6414  124171662.388 5  96757159.70242
     -2771.042       -2159.260
  22265490.733    22265490.7394   22265496.4524  117005962.972 7  91173491.26044
      3138.476        2445.567
  20724947.577    20724947.3864   20724952.3554  108910675.547 8  84865476.16846
      -709.179        -552.610
  20421125.268    20421124.0264   20421130.4774  107313774.476 8  83621139.14846
      -443.259        -345.394
  22804665.804    22804665.1734   22804670.5974  119839774.967 6  93381471.81342
     -1955.415       -1523.724
  24875912.582    24875915.9294   24875918.2854  130724298.645 4 101862915.48341
     -2267.023       -1766.486
  23744096.123    23744094.5714   23744102.9994  124776068.962 5  97228129.26241
      3465.035        2700.052
  24318239.940    24318240.0724   24318247.5984  127793300.091 5  99579148.91941
      3632.514        2830.519
  20815864.761    20815864.698    20815868.222   111077500.062 8  86393659.988 6
     -1878.828       -1461.310
  19698349.127    19698347.914    19698347.542   105446817.937 8  82014236.912 6
      2145.163        1668.464
  22720214.537    22720213.315    22720216.219   121665714.857 5  94628915.981 5
      4160.306        3235.785
  19211935.498    19211935.662    19211939.722   102590841.777 9  79792953.745 7
       647.418         503.548
  21493213.565    21493212.430    21493220.717   114570997.805 7  89110829.458 5
      4057.739        3156.012
  21480387.813    21480388.574    21480392.999   114744734.581 7  89246032.704 5
     -2955.463       -2298.688
 11 10 14  0  7  0.0000000  0 15G02G04G05G07G10G13G23G26G28R06R07R08
                                R09R10R16
  22112990.476    22112990.2384   22112993.4294  116204557.182 7  90549030.24344
      -876.215        -682.768
  23644900.246    23644900.3714   23644907.5694  124254842.202 5  96821975.07842
     -2774.340       -2161.818
  22247599.275    22247599.1624   22247604.8874  116911941.347 7  91100227.66144
      3129.555        2438.611
  20729039.044    20729038.6264   20729043.5404  108932174.960 8  84882228.96246
      -724.208        -564.320
  20423701.249    20423700.0954   20423706.6234  107327311.364 8  83631687.35146
      -459.301        -357.898
  22815837.807    22815837.6854   22815843.4924  119898486.249 6  93427220.82842
     -1958.774       -1526.318
  24888859.835    24888858.2564   24888865.1404  130792325.849 4 101915923.71741
     -2268.154       -1767.432
  23724324.969    23724325.7264   23724332.0174  124672172.102 5  97147170.69841
      3461.269        2697.092
  24297503.250    24297503.1224   24297509.3944  127684330.721 5  99494237.83641
      3632.057        2830.144
  20826470.970    20826470.670    20826474.593   111134095.879 8  86437678.939 6
     -1894.267       -1473.319
  19686372.238    19686371.218    19686370.726   105382705.336 8  81964371.548 6
      2128.920        1655.827
  22696910.064    22696909.512    22696912.641   121540926.400 6  94531858.292 5
      4158.757        3234.588
  19208369.604    19208369.745    19208374.043   102571800.151 9  79778143.597 7
       621.958         483.744
  21470417.007    21470415.424    21470424.292   114449477.132 7  89016313.395 5
      4043.556        3144.988
  21497019.155    21497020.225    21497024.551   114833576.576 7  89315132.003 6
     -2967.409       -2307.982
 11 10 14  0  7 30.0000000  0 15G02G04G05G07G10G13G23G26G28R06R07R08
                                R09R10R16
  22118042.701    22118041.3264   22118045.1924  116231101.743 7  90569714.30844
      -893.462        -696.203
  23660748.090    23660747.8524   23660756.4214  124338121.894 5  96886868.30442
     -2777.640       -2164.389
  22229758.661    22229758.8674   22229764.4514  116818191.045 7  91027175.48744
      3120.399        2431.479
  20733216.042    20733215.8484   20733220.6564  108954127.051 8  84899334.49346
      -739.312        -576.085
  20426369.348    20426368.0834   20426374.9124  107341332.987 8  83642613.27646
      -475.537        -370.547
  22827029.591    22827029.1204   22827035.9054  119957300.433 6  93473050.02042
     -1962.228       -1529.001
  24901812.493    24901808.2624   24901815.7544  130860395.176 4 101968964.73041
     -2269.643       -1768.547
  23704577.085    23704577.7374   23704584.0274  124568390.830 5  97066302.16441
      3457.458        2694.099
  24276770.327    24276769.0894   24276776.0834  127575382.270 5  99409343.10341
      3631.263        2829.564
  20837164.398    20837164.264    20837168.222   111191158.570 8  86482061.008 6
     -1909.936       -1485.502
  19674487.488    19674486.337    19674486.072   105319085.190 8  81914889.201 6
      2112.388        1642.973
  22673616.769    22673615.963    22673618.453   121416188.433 6  94434839.893 5
      4156.986        3233.221
  19204947.226    19204947.608    19204951.883   102553527.048 9  79763931.193 7
       596.238         463.741
  21447700.878    21447699.582    21447707.436   114328387.254 7  88922132.401 5
      4029.077        3133.728
  21513719.179    21513719.344    21513723.697   114922779.822 7  89384512.290 6
     -2979.444       -2317.342
 11 10 14  0  8  0.0000000  0 15G02G04G05G07G10G13G23G26G28R06R07R08
                                R09R10R16
  22123191.902    22123190.6644   22123194.4944  116258161.953 7  90590800.16644
      -910.612        -709.564
  23676614.663    23676614.7014   23676621.4314  124421499.234 5  96951837.58941
     -2780.880       -2166.912
  22211971.566    22211971.6334   22211977.0544  116724715.695 7  90954337.55444
      3111.197        2424.311
  20737479.519    20737479.2694   20737484.4064  108976531.518 8  84916792.52246
      -754.372        -587.822
  20429130.224    20429128.9064   20429135.5554  107355840.401 8  83653917.74446
      -491.727        -383.162
  22838241.825    22838241.4654   22838248.2094  120016218.786 6  93518960.38242
     -1965.695       -1531.714
  24914775.033    24914775.8954   24914780.8514  130928507.457 4 102022039.25341
     -2271.080       -1769.681
  23684849.715    23684850.9234   23684854.7184  124464726.731 5  96985524.97641
      3453.486        2691.017
  24256042.247    24256041.4334   24256047.7764  127466458.827 5  99324467.86241
      3630.232        2828.780
  20847945.730    20847945.365    20847949.489   111248688.766 8  86526806.689 6
     -1925.523       -1497.623
  19662695.648    19662694.407    19662694.263   105255961.688 8  81865793.141 6
      2095.833        1630.096
  22650333.942    22650332.838    22650335.448   121291504.722 6  94337863.684 5
      4155.185        3231.812
  19201669.546    19201669.841    19201674.172   102536023.049 9  79750316.980 7
       570.648         443.839
  21425066.117    21425065.085    21425073.069   114207731.980 7  88828289.433 5
      4014.509        3122.393
  21530484.275    21530485.188    21530489.326   115012341.743 7  89454171.542 5
     -2991.363       -2326.613
 11 10 14  0  8 30.0000000  0 15G02G04G05G07G10G13G23G26G28R06R07R08
                                R09R10R16
  22128437.704    22128437.1474   22128441.2514  116285732.736 7  90612283.88144
      -927.675        -722.868
  23692499.036    23692498.5244   23692504.9414  124504968.307 5  97016878.37342
     -2784.002       -2169.345
  22194235.966    22194235.9964   22194240.9214  116631514.477 7  90881713.24544
      3101.950        2417.104
  20741827.981    20741827.8994   20741832.8754  108999383.555 8  84934599.30646
      -769.319        -599.472
  20431982.558    20431981.3614   20431987.8984  107370830.582 8  83665598.38946
      -507.867        -395.737
  22849472.832    22849472.7704   22849477.9284  120075237.516 6  93564948.94742
     -1969.148       -1534.399
  24927742.819    24927740.6014   24927749.4194  130996659.417 4 102075144.66541
     -2272.537       -1770.768
  23665145.341    23665144.3574   23665151.7654  124361177.312 5  96904837.17041
      3449.570        2687.944
  24235319.863    24235319.1714   24235324.7824  127357559.875 5  99239611.64041
      3629.407        2828.097
  20858814.146    20858813.515    20858817.961   111306682.782 8  86571913.124 6
     -1940.989       -1509.657
  19650996.078    19650994.988    19650994.667   105193333.332 8  81817082.196 6
      2079.198        1617.156
  22627059.073    22627058.313    22627061.260   121166874.024 6  94240928.718 5
      4153.253        3230.311
  19198534.880    19198535.099    19198539.215   102519283.743 9  79737297.526 7
       545.073         423.948
  21402512.791    21402511.979    21402519.450   114087511.143 7  88734784.352 5
      3999.915        3111.049
  21547316.620    21547316.635    21547321.610   115102255.284 7  89524104.268 5
     -3003.138       -2335.773
 11 10 14  0  9  0.0000000  0 15G02G04G05G07G10G13G23G26G28R06R07R08
                                R09R10R16
  22133782.563    22133782.4294   22133786.8694  116313823.737 6  90634172.95744
      -944.849        -736.234
  23708401.751    23708401.4454   23708408.2624  124588538.181 5  97081997.69241
     -2787.178       -2171.832
  22176555.081    22176555.1094   22176560.2484  116538601.172 7  90809313.27344
      3092.457        2409.704
  20746263.698    20746263.5604   20746268.4604  109022692.956 8  84952762.47546
      -784.420        -611.236
  20434929.200    20434928.0264   20434934.5524  107386314.968 8  83677664.13646
      -524.219        -408.479
  22860724.837    22860724.2054   22860729.2224  120134367.782 6  93611024.44842
     -1972.721       -1537.177
  24940722.673    24940719.9704   24940725.1674  131064862.656 4 102128290.05941
     -2274.138       -1772.084
  23645464.366    23645464.4124   23645472.5034  124257754.480 5  96824247.93141
      3445.484        2684.822
  24214604.701    24214603.7874   24214610.7084  127248699.818 5  99154785.75141
      3628.191        2827.147
  20869770.258    20869770.177    20869774.660   111365151.282 8  86617388.604 6
     -1956.706       -1521.885
  19639391.799    19639390.871    19639391.102   105131216.120 8  81768768.807 6
      2062.500        1604.165
  22603798.638    22603797.665    22603800.485   121042311.665 6  94144046.870 5
      4151.084        3228.631
  19195545.409    19195545.501    19195549.791   102503320.010 9  79724881.296 7
       519.378         403.961
  21380044.248    21380042.654    21380050.895   113967739.015 7  88641628.274 5
      3985.043        3099.477
  21564215.459    21564216.082    21564221.102   115192528.252 7  89594316.556 5
     -3014.968       -2344.975
 11 10 14  0  9 30.0000000  0 15G02G04G05G07G10G13G23G26G28R06R07R08
                                R09R10R16
  22139226.535    22139225.6974   22139230.2334  116342428.828 7  90656462.61944
      -961.977        -749.593
  23724321.759    23724322.3454   23724329.4884  124672201.919 5  97147190.15641
     -2790.351       -2174.313
  22158928.381    22158928.6074   22158933.8074  116445974.248 7  90737136.45244
      3082.842        2402.211
  20750785.483    20750785.2704   20750790.3154  109046454.062 8  84971277.62746
      -799.467        -622.962
  20437969.235    20437967.8474   20437974.5234  107402289.700 8  83690111.96746
      -540.571        -421.230
  22871998.360    22871997.1724   22872001.9634  120193605.624 6  93657183.76042
     -1976.276       -1539.949
  24953709.608    24953703.5324   24953713.6074  131133113.264 4 102181472.39241
     -2275.592       -1773.196
  23625806.640    23625806.9754   23625814.0724  124154455.076 5  96743754.91941
      3441.367        2681.586
  24193895.079    24193896.0144   24193902.7524  127139877.695 5  99069989.40241
      3626.820        2826.094
  20880815.807    20880815.738    20880819.933   111424089.851 8  86663229.700 6
     -1972.362       -1534.060
  19627883.067    19627882.066    19627881.985   105069608.668 8  81720851.893 6
      2045.088        1590.624
  22580548.714    22580548.714    22580551.175   120917815.139 6  94047216.261 5
      4148.819        3226.871
  19192700.226    19192700.268    19192704.543   102488126.892 9  79713064.436 7
       493.676         383.967
  21357658.379    21357657.676    21357665.600   113848414.760 7  88548820.540 5
      3970.046        3087.814
  21581181.275    21581181.428    21581186.163   115283152.784 7  89664802.281 5
     -3026.585       -2354.009
 11 10 14  0 10  0.0000000  0 15G02G04G05G07G10G13G23G26G28R06R07R08
                                R09R10R16
  22144766.594    22144765.8744   22144770.4564  116371542.994 6  90679148.97144
      -978.981        -762.851
  23740258.775    23740258.2474   23740267.6314  124755953.940 5  97212451.39641
     -2793.242       -2176.550
  22141356.673    22141356.8984   22141361.9384  116353633.205 7  90665182.41144
      3073.208        2394.701
  20755392.010    20755391.7634   20755396.8274  109070662.232 8  84990141.13546
      -814.425        -634.614
  20441101.686    20441100.4214   20441107.1624  107418751.448 8  83702939.29246
      -556.893        -433.944
  22883291.339    22883289.8264   22883294.6884  120252947.558 6  93703424.21942
     -1979.866       -1542.763
  24966704.541    24966703.3914   24966705.3624  131201407.935 4 102234688.99741
     -2277.268       -1774.507
  23606174.754    23606174.0164   23606180.1384  124051276.987 5  96663356.41641
      3437.229        2678.374
  24173194.106    24173194.9154   24173201.0244  127031093.329 4  98985222.47941
      3625.391        2824.947
  20891948.939    20891948.598    20891952.150   111483494.905 8  86709433.610 6
     -1987.947       -1546.180
  19616469.869    19616468.661    19616468.299   105008510.994 8  81673331.488 6
      2028.007        1577.339
  22557313.501    22557312.091    22557314.974   120793384.779 6  93950437.094 5
      4146.475        3225.029
  19189998.741    19189998.840    19190002.965   102473700.404 9  79701843.839 7
       468.066         364.053
  21335358.192    21335357.154    21335364.244   113729537.668 7  88456360.586 4
      3955.052        3076.162
  21598210.804    21598211.179    21598216.010   115374122.383 7  89735556.391 5
     -3038.037       -2362.912
 11 10 14  0 10 30.0000000  0 15G02G04G05G07G10G13G23G26G28R06R07R08
                                R09R10R16
  22150404.085    22150402.6654   22150406.7194  116401161.617 7  90702228.41044
      -995.555        -775.766
  23756212.819    23756212.2184   23756219.8954  124839788.682 5  97277777.11741
     -2795.745       -2178.500
  22123838.815    22123838.8134   22123844.4664  116261578.137 7  90593451.19044
      3063.832        2387.401
  20760082.984    20760082.6954   20760087.6344  109095312.889 8  85009349.44046
      -828.922        -645.916
  20444326.335    20444325.0874   20444331.8544  107435697.358 8  83716143.88946
      -572.817        -446.355
  22894602.100    22894601.8824   22894607.7564  120312390.770 6  93749743.56642
     -1983.028       -1545.228
  24979708.824    24979703.7644   24979714.4084  131269743.972 4 102287937.89341
     -2278.431       -1775.414
  23586561.522    23586561.0394   23586569.6084  123948217.822 5  96583050.62441
      3433.421        2675.397
  24152500.598    24152498.9154   24152507.1644  126922346.959 5  98900485.15741
      3624.289        2824.153
  20903167.670    20903167.575    20903171.364   111543362.934 8  86755997.610 6
     -2003.178       -1558.029
  19605151.596    19605150.249    19605150.005   104947923.217 8  81626207.663 6
      2011.166        1564.236
  22534089.097    22534087.997    22534090.710   120669020.140 6  93853709.062 5
      4144.440        3223.456
  19187439.941    19187440.163    19187444.278   102460036.713 9  79691216.528 7
       442.858         344.441
  21313140.911    21313139.594    21313148.125   113611108.067 7  88364248.695 5
      3940.276        3064.654
  21615304.716    21615304.586    21615309.138   115465430.121 7  89806573.489 5
     -3049.053       -2371.488
 11 10 14  0 11  0.0000000  0 15G02G04G05G07G10G13G23G26G28R06R07R08
                                R09R10R16
  22156134.248    22156134.3414   22156138.6074  116431282.420 7  90725699.14444
     -1012.500        -788.964
  23772181.107    23772180.8994   23772189.1364  124923702.973 5  97343164.82341
     -2798.491       -2180.640
  22106376.412    22106376.3554   22106381.6264  116169810.784 7  90521944.18044
      3053.932        2379.688
  20764857.521    20764857.3014   20764862.4344  109120404.238 8  85028901.13746
      -843.831        -657.529
  20447643.355    20447642.0354   20447648.6554  107453127.472 8  83729725.78946
      -589.196        -459.115
  22905933.541    22905932.5404   22905938.0464  120371934.582 6  93796141.27142
     -1986.584       -1547.977
  24992721.919    24992723.9924   24992723.3394  131338121.059 4 102341218.69741
     -2279.980       -1776.564
  23566973.726    23566973.2394   23566979.4354  123845277.953 5  96502837.77941
      3429.236        2672.118
  24131815.550    24131814.7114   24131821.6844  126813641.247 5  98815779.53141
      3622.667        2822.841
  20914473.469    20914473.205    20914477.211   111603692.747 8  86802920.775 6
     -2018.824       -1570.197
  19593928.805    19593927.643    19593927.290   104887847.860 8  81579482.387 6
      1993.816        1550.744
  22510877.045    22510876.665    22510878.541   120544723.638 6  93757034.023 5
      4141.945        3221.523
  19185023.808    19185023.979    19185027.943   102447134.438 9  79681181.429 7
       417.292         324.561
  21291008.322    21291007.249    21291015.394   113493128.226 7  88272486.612 5
      3924.995        3052.779
  21632459.866    21632460.025    21632464.259   115557072.038 7  89877850.516 5
     -3060.354       -2380.271
 11 10 14  0 11 30.0000000  0 15G02G04G05G07G10G13G23G26G28R06R07R08
                                R09R10R16
  22161961.958    22161961.1764   22161965.7174  116461903.592 7  90749559.77844
     -1028.781        -801.641
  23788163.766    23788163.4464   23788171.3194  125007694.773 5  97408612.92641
     -2800.663       -2182.333
  22088968.860    22088968.5604   22088974.2314  116078334.663 7  90450664.09244
      3044.568        2372.393
  20769715.972    20769715.6834   20769720.7264  109145935.149 8  85048795.34946
      -858.080        -668.631
  20451052.388    20451051.1754   20451057.8404  107471042.358 8  83743685.42446
      -604.951        -471.388
  22917282.517    22917282.5034   22917288.5324  120431579.258 6  93842617.57642
     -1989.585       -1550.308
  25005742.526                                   131406540.237 4
     -2281.101
  23547407.423    23547407.5934   23547412.6524  123742458.630 5  96422718.83541
      3425.566        2669.274
  24111137.972    24111137.4394   24111143.2724  126704979.837 5  98731108.38041
      3621.554        2821.992
  20925865.698    20925865.601    20925869.763   111664484.334 8  86850203.102 6
     -2033.825       -1581.865
  19582802.898    19582801.694    19582801.267   104828288.989 8  81533158.813 6
      1977.092        1537.740
  22487678.896    22487678.404    22487681.098   120420498.752 6  93660414.681 5
      4139.931        3219.949
  19182750.193    19182750.271    19182754.226   102434993.150 9  79671738.211 7
       392.296         305.121
  21268960.662    21268959.603    21268967.048   113375601.665 7  88181077.093 5
      3910.239        3041.294
  21649677.278    21649677.258    21649682.067   115649045.205 7  89949385.190 5
     -3070.956       -2388.519
 11 10 14  0 12  0.0000000  0 15G02G04G05G07G10G13G23G26G28R06R07R08
                                R09R10R16
  22167883.853    22167882.7994   22167886.1244  116493018.642 7  90773805.27444
     -1045.526        -814.701
  23804159.839    23804160.8244   23804167.9284  125091757.373 5  97474116.18941
     -2803.342       -2184.409
  22071616.321    22071616.4974   22071622.3194  115987147.613 7  90379609.26144
      3034.604        2364.621
  20774656.876    20774656.5044   20774661.6904  109171899.384 8  85069027.22046
      -872.821        -680.124
  20454552.720    20454551.5924   20454558.3364  107489437.349 8  83758019.17246
      -621.310        -484.141
  22928651.453    22928650.9524   22928656.4374  120491320.190 6  93889168.89942
     -1993.124       -1553.080
  25018768.118                                   131474996.856 4
     -2282.566
  23527864.033    23527862.1824   23527870.2174  123639756.189 5  96342690.98441
      3421.341        2665.965
  24090468.064    24090467.0564   24090475.4724  126596360.975 5  98646470.42841
      3619.778        2820.599
  20937343.596    20937343.623    20937347.183   111725732.552 8  86897840.588 6
     -2049.356       -1593.946
  19571772.975    19571771.664    19571771.176   104769244.180 8  81487235.071 6
      1959.424        1523.997
  22464494.568    22464493.530    22464495.289   120296343.815 6  93563849.748 5
      4137.180        3217.791
  19180617.759    19180618.022    19180622.398   102423607.523 9  79662882.736 7
       366.803         285.290
  21246997.415    21246996.064    21247004.060   113258526.644 7  88090018.769 5
      3894.825        3029.313
  21666954.723    21666955.407    21666960.028   115741341.244 7  90021170.986 5
     -3082.019       -2397.125
 11 10 14  0 12 30.0000000  0 15G02G04G05G07G10G13G23G26G28R06R07R08
                                R09R10R16
  22173899.609    22173898.9404   22173902.5624  116524634.432 6  90798440.93144
     -1062.054        -827.575
  23820172.772    23820171.1954   23820180.9004  125175896.483 5  97539679.08041
     -2805.778       -2186.291
  22054321.873    22054321.5244   22054326.6944  115896260.580 7  90308788.20045
      3024.686        2356.897
  20779681.562    20779681.4024   20779686.3154  109198304.297 8  85089602.48446
      -887.339        -691.435
  20458146.473    20458145.1304   20458152.0254  107508321.478 8  83772734.06246
      -637.466        -496.728
  22940039.537    22940040.5884   22940043.7094  120551165.833 6  93935801.80742
     -1996.428       -1555.657
  25031799.451                                   131543499.993 3
     -2284.081
  23508343.422    23508340.9544   23508351.3274  123537180.139 5  96262761.64541
      3417.207        2662.768
  24069808.586    24069808.3704   24069814.3834  126487796.779 5  98561875.01441
      3617.992        2819.208
  20948908.906    20948908.374    20948912.192   111787445.732 8  86945839.703 6
     -2064.688       -1605.868
  19560840.707    19560839.713    19560839.486   104710726.141 8  81441721.039 6
      1941.948        1510.403
  22441324.254    22441323.124    22441326.526   120172270.717 6  93467348.468 5
      4134.496        3215.713
  19178628.652    19178628.850    19178632.998   102412985.257 9  79654620.975 7
       341.533         265.635
  21225121.591    21225120.227    21225128.135   113141915.056 7  87999320.893 5
      3879.468        3017.354
  21684294.383    21684295.071    21684299.814   115833965.448 7  90093212.001 5
     -3092.711       -2405.442
 11 10 14  0 13  0.0000000  0 15G02G04G05G07G10G13G23G26G28R06R07R08
                                R09R10R16
  22180008.796    22180008.1354   22180012.0324  116556739.091 7  90823457.53943
     -1078.393        -840.304
  23836196.215    23836195.3304   23836202.9144  125260099.662 5  97605291.92441
     -2807.879       -2187.978
  22037081.962    22037082.0494   22037087.2974  115805666.445 7  90238195.37845
      3014.797        2349.191
  20784787.911    20784787.7464   20784792.5734  109225137.914 8  85110511.80446
      -901.654        -702.585
  20461831.052    20461829.7614   20461836.7204  107527684.751 8  83787822.31446
      -653.518        -509.234
  22951445.636    22951445.3244   22951450.7584  120611106.687 6  93982508.92642
     -1999.702       -1558.200
  25044843.308                                   131612039.347 3
     -2285.286
  23488845.946    23488843.8964   23488852.2394  123434720.943 5  96182923.33241
      3413.226        2659.664
  24049158.802    24049157.7084   24049165.1784  126379280.191 5  98477316.67941
      3616.255        2817.886
  20960558.720    20960558.719    20960562.514   111849612.950 8  86994191.962 6
     -2079.914       -1617.711
  19550005.843    19550005.041    19550004.682   104652726.991 8  81396610.586 6
      1924.456        1496.798
  22418166.575    22418167.052    22418168.733   120048271.777 6  93370904.857 5
      4131.917        3213.713
  19176780.050    19176780.270    19176784.574   102403114.929 9  79646944.062 7
       316.401         246.090
  21203330.753    21203329.549    21203337.087   113025759.345 7  87908977.579 5
      3864.151        3005.450
  21701692.905    21701693.476    21701697.809   115926904.095 7  90165497.588 5
     -3103.250       -2413.638
 11 10 14  0 13 30.0000000  0 15G02G04G05G07G10G13G23G26G28R06R07R08
                                R09R10R16
  22186210.165    22186209.2244   22186213.5134  116589327.365 6  90848850.97043
     -1094.438        -852.811
  23852230.117    23852229.6124   23852236.7534  125344361.075 5  97670950.08541
     -2809.721       -2189.392
  22019898.144    22019898.2464   22019903.2514  115715364.590 7  90167830.30445
      3005.024        2341.572
  20789974.606    20789974.4454   20789979.4024  109252395.611 8  85131751.57046
      -915.787        -713.602
  20465606.511    20465605.1604   20465611.7034  107547523.706 8  83803281.22646
      -669.356        -521.577
  22962869.897    22962869.6654   22962874.2204  120671139.424 6  94029287.63042
     -2002.778       -1560.598
  25057894.780                                   131680611.937 3
     -2286.475
  23469370.669    23469369.1854   23469377.7164  123332376.396 5  96103174.37341
      3409.460        2656.742
  24028518.055    24028517.4644   24028524.1084  126270810.873 5  98392795.23741
      3614.718        2816.652
  20972293.152    20972292.962    20972297.312   111912230.600 8  87042894.566 6
     -2094.887       -1629.358
  19539268.658    19539267.489    19539267.442   104595248.231 8  81351904.880 6
      1907.163        1483.350
  22395024.880    22395024.665    22395028.522   119924346.685 6  93274518.699 5
      4129.433        3211.775
  19175071.644    19175072.005    19175075.976   102393992.312 9  79639848.704 7
       291.475         226.702
  21181625.861    21181624.464    21181631.863   112910059.227 7  87818988.611 5
      3848.906        2993.594
  21719149.018    21719149.426    21719153.788   116020150.361 7  90238022.448 5
     -3113.469       -2421.583
 11 10 14  0 14  0.0000000  0 15G02G04G05G07G10G13G23G26G28R06R07R08
                                R09R10R16
  22192502.743    22192501.9144   22192505.8884  116622393.827 7  90874617.03643
     -1110.032        -864.958
  23868273.127    23868273.1214   23868282.3884  125428675.104 5  97736649.25641
     -2811.238       -2190.562
  22002770.355    22002770.0534   22002775.0834  115625354.616 7  90097692.66645
      2995.580        2334.222
  20795241.542    20795241.4204   20795246.3664  109280073.039 8  85153318.39746
      -929.428        -724.228
  20469471.619    20469470.2264   20469476.8664  107567834.904 8  83819108.11646
      -684.792        -533.602
  22974310.480    22974311.0444   22974315.4774  120731260.428 6  94076135.12042
     -2005.338       -1562.604
  25070949.204                                   131749214.914 3
     -2287.074
  23449916.483    23449915.5474   23449922.0964  123230144.253 5  96023513.01041
      3405.979        2653.976
  24007885.643    24007885.1694   24007893.0314  126162389.005 5  98308310.72541
      3613.393        2815.605
  20984111.296    20984111.225    20984115.296   111975294.495 8  87091944.246 6
     -2109.421       -1640.658
  19528628.146    19528626.718    19528626.540   104538287.140 8  81307601.808 6
      1890.128        1470.098
  22371897.151    22371896.433    22371898.375   119800494.997 6  93178189.610 5
      4127.285        3210.103
  19173502.729    19173502.821    19173506.933   102385612.841 9  79633331.348 7
       267.091         207.739
  21160005.750    21160004.773    21160012.457   112794814.261 7  87729353.660 5
      3834.021        2982.016
  21736660.195    21736660.987    21736666.197   116113697.492 7  90310781.295 5
     -3123.125       -2429.097
 11 10 14  0 14 30.0000000  0 15G02G04G05G07G10G13G23G26G28R06R07R08
                                R09R10R16
  22198883.620    22198883.2784   22198888.1124  116655930.490 6  90900749.48943
     -1125.823        -877.268
  23884327.490    23884326.8284   23884334.0514  125513032.852 5  97802382.48041
     -2812.810       -2191.791
  21985696.272    21985696.2704   21985701.8614  115535632.842 7  90027779.60645
      2985.760        2326.570
  20800586.893    20800586.7164   20800591.3884  109308162.034 8  85175205.92746
      -943.305        -735.041
  20473425.274    20473424.0604   20473430.6634  107588612.555 8  83835298.47446
      -700.523        -545.858
  22985767.036    22985765.7324   22985771.2744  120791463.430 6  94123046.50142
     -2008.323       -1564.924
  25084008.211                                   131817842.096 3
     -2288.027
  23430482.753    23430482.2754   23430488.3574  123128018.883 5  95943934.82741
      3402.188        2651.037
  23987261.727    23987260.9864   23987268.1394  126054011.375 5  98223860.72041
      3611.708        2814.317
  20996011.994    20996011.917    20996015.950   112038797.947 8  87141335.810 6
     -2124.263       -1652.204
  19518083.805    19518082.426    19518082.019   104481842.008 8  81263700.046 6
      1872.683        1456.529
  22348782.263    22348781.552    22348784.575   119676713.655 6  93081915.228 5
      4124.688        3208.083
  19172071.335    19172071.403    19172075.740   102377969.353 9  79627386.420 7
       242.406         188.538
  21138470.907    21138469.248    21138478.492   112680021.168 7  87640070.164 5
      3818.742        2970.132
  21754227.600    21754228.006    21754232.670   116207535.407 7  90383766.309 5
     -3132.954       -2436.737
 11 10 14  0 15  0.0000000  0 15G02G04G05G07G10G13G23G26G28R06R07R08
                                R09R10R16
  22205356.122    22205355.7694   22205360.0284  116689942.251 7  90927252.12843
     -1141.739        -889.669
  23900390.501    23900389.1024   23900396.5814  125597438.891 5  97868153.33541
     -2814.423       -2193.053
  21968679.300    21968679.3394   21968684.5934  115446208.943 7  89958098.65445
      2975.675        2318.705
  20806011.354    20806011.1164   20806016.1514  109336668.170 8  85197418.49746
      -957.259        -745.914
  20477469.324    20477468.0024   20477474.8144  107609863.894 8  83851857.94546
      -716.394        -558.225
  22997241.154    22997240.1944   22997244.5684  120851755.497 6  94170027.28742
     -2011.312       -1567.257
  25097074.902                                   131886500.894 3
     -2289.207
  23411070.287    23411070.6074   23411075.8064  123026008.420 5  95864446.15741
      3398.308        2648.058
  23966648.664    23966649.1724   23966653.7204  125945688.058 5  98139452.97341
      3609.737        2812.809
  21007996.023    21007995.981    21008000.228   112102747.009 8  87191073.952 6
     -2139.184       -1663.807
  19507637.332    19507636.084    19507635.564   104425922.630 8  81220207.195 6
      1855.099        1442.859
  22325680.239    22325680.660    22325682.507   119553012.599 6  92985703.335 5
      4121.863        3205.897
  19170778.684    19170778.863    19170782.964   102371067.885 9  79622018.620 7
       217.577         169.227
  21117023.170    21117021.774    21117029.740   112565689.589 7  87551145.636 5
      3803.207        2958.050
  21771850.014    21771850.296    21771854.362   116301668.126 7  90456980.617 5
     -3142.690       -2444.316
 11 10 14  0 15 30.0000000  0 15G02G04G05G07G10G13G23G26G28R06R07R08
                                R09R10R16
  22211918.361    22211918.3744   22211922.8684  116724428.851 6  90954124.80343
     -1157.507        -901.951
  23916462.140    23916459.9434   23916467.2244  125681892.632 5  97933961.33241
     -2815.965       -2194.268
  21951720.211    21951720.2244   21951725.0354  115357087.267 7  89888653.20345
      2965.573        2310.836
  20811515.088    20811514.9954   20811520.1414  109365591.520 8  85219956.16946
      -971.109        -756.709
  20481603.760    20481602.7594   20481609.4004  107631590.746 8  83868787.95246
      -732.221        -570.557
  23008731.222    23008730.6574   23008735.2334  120912138.465 6  94217078.91842
     -2014.343       -1569.620
  25110144.474                                   131955193.236 3
     -2290.448
  23391681.358    23391679.8194   23391685.6474  122924115.505 5  95785049.13941
      3394.431        2645.006
  23946047.176    23946044.6284   23946052.0604  125837424.243 5  98055091.63341
      3607.762        2811.258
  21020064.358    21020064.179    21020068.014   112167143.305 8  87241159.953 6
     -2154.071       -1675.385
  19497290.266    19497289.122    19497288.910   104370534.217 8  81177127.320 6
      1837.330        1429.038
  22302597.740    22302597.065    22302600.181   119429396.710 6  92889557.667 5
      4118.995        3203.666
  19169625.377    19169625.619    19169629.793   102364908.978 9  79617228.371 7
       192.860         150.001
  21095661.315    21095660.692    21095668.858   112451824.540 7  87462583.950 5
      3787.648        2945.948
  21789526.762    21789527.062    21789531.023   116396093.809 7  90530422.803 5
     -3152.427       -2451.885
 11 10 14  0 16  0.0000000  0 14G02G04G05G07G10G13G26G28R06R07R08R09
                                R10R16
  22218572.532    22218571.2584   22218575.2884  116759389.681 6  90981366.98643
     -1173.184        -914.168
  23932538.689    23932540.6144   23932547.6614  125766392.891 5  97999805.60541
     -2817.340       -2195.313
  21934818.964    21934819.0894   21934824.2374  115268272.045 7  89819446.53945
      2955.442        2302.942
  20817098.783    20817098.5644   20817103.4614  109394931.981 8  85242818.85546
      -984.890        -767.446
  20485829.107    20485827.6734   20485834.5594  107653794.390 8  83886089.48146
      -747.993        -582.849
  23020238.867    23020238.5944   23020243.1894  120972613.637 6  94264202.40842
     -2017.286       -1571.910
  23372313.901    23372313.5004   23372320.3354  122822342.192 5  95705745.29041
      3390.487        2641.945
  23925457.387    23925456.2754   23925461.6394  125729224.368 5  97970780.11841
      3605.700        2809.611
  21032216.013    21032215.738    21032219.614   112231987.481 8  87291594.297 6
     -2168.866       -1686.892
  19487042.806    19487041.910    19487041.713   104315680.469 8  81134463.296 6
      1819.428        1415.116
  22279529.530    22279528.778    22279530.175   119305871.116 6  92793482.199 5
      4116.011        3201.349
  19168611.360    19168611.265    19168615.541   102359492.912 9  79613015.880 7
