     2.11           OBSERVATION DATA    M (MIXED)           RINEX VERSION / TYPE
teqc  2012Jun6                          20151118 02:01:20UTCPGM / RUN BY / DATE
OSX ker:10.8.0|Core 2 Duo|gcc 4.2 -m64|OSX ker:10.8.0+|=+   COMMENT
     2              OBSERVATION DATA    M (MIXED)           COMMENT
CCRINEXO V2.3.3 UX  BKG Frankfurt       11-OCT-11 00:16     COMMENT
Concatenated RINEX hourly files (24/24)                     COMMENT
JPS2RIN 1.40 lnx    SAC                 10-OCT-11 01:01     COMMENT
build Feb  6 2004 (c) Javad Navigation Systems              COMMENT
Stazione Astronomica Cagliari                               COMMENT
/home/srv/htdocs/glonass/hdata/CAGZ.tps                     COMMENT
SE TPS 8b1daea3                                             COMMENT
CAGZ                                                        MARKER NAME
12725M004                                                   MARKER NUMBER
SAC                 SAC-DIST                                OBSERVER / AGENCY
AGNV7TGA2O0         TPS E_GGD           3.3 Jul,10,2008 p4  REC # / TYPE / VERS
RRA052              JPSREGANT_DD_E  NONE                    ANT # / TYPE
  4893378.7999   772650.4734  4004179.0402                  APPROX POSITION XYZ
        0.0945        0.0000        0.0000                  ANTENNA: DELTA H/E/N
     1     1                                                WAVELENGTH FACT L1/2
     7    C1    P1    P2    L1    L2    D1    D2            # / TYPES OF OBSERV
    30.0000                                                 INTERVAL
teqc windowed: start @ 2011 Oct 10 04:00:00.000             COMMENT
teqc windowed: delta = 14400.000 sec                        COMMENT
  2011    10    10     4     0    0.0000000     GPS         TIME OF FIRST OBS
    15                                                      LEAP SECONDS
                                                            END OF HEADER
 11 10 10  4  0  0.0000000  1 17G05G09G12G15G17G18G26G28R03R05R06R14
                                R15R16R17R23R24
  23737483.531    23737484.3814   23737489.6424  124741322.774 6  97201049.56842
     -2958.581       -2305.397
  22499931.473    22499930.5344   22499937.6394  118237945.095 6  92133481.69043
      3123.042        2433.538
  25013065.914    25013064.5354   25013066.5974  131444528.097 5 102424330.02041
      4223.711        3291.196
  20714798.814    20714798.5434   20714803.4904  108857017.835 8  84823666.03646
      1894.227        1476.022
  23021783.769    23021783.9614   23021789.8664  120980306.710 6  94270386.91443
      2480.614        1932.948
  24046293.262    24046292.5064   24046299.0944  126364121.677 5  98465570.48741
      2535.540        1975.758
  20319241.551    20319241.1064   20319246.8864  106778350.688 8  83203927.26746
      -856.752        -667.599
  22288546.431    22288545.6534   22288551.0104  117127171.486 7  91267918.72244
     -1856.301       -1446.474
  21453382.818    21453382.992    21453389.777   114398946.791 7  88977010.294 6
     -1918.222       -1491.953
  19973327.104    19973326.753    19973331.981   106768902.172 8  83042500.760 7
         9.958           7.745
  22430710.686    22430710.947    22430713.669   119694577.501 6  93095807.995 5
      3729.452        2900.688
  21397141.931    21397141.045    21397130.174   114058881.251 7  88712492.016 3
     -1898.856       -1476.877
  20005267.807    20005268.357    20005272.713   106902117.054 8  83146130.184 6
       926.962         720.970
  22636753.784    22636754.683    22636759.612   120921487.873 6  94050071.030 5
      3038.727        2363.456
  23267817.440    23267816.336    23267819.787   124510791.955 5  96841758.346 4
      4275.119        3325.094
  23811910.908    23811908.898    23811915.276   127377684.026 3  99071559.820 4
     -1407.912       -1095.024
  22159224.540    22159223.330    22159227.103   118495353.851 7  92163081.851 5
      1794.737        1395.907
 11 10 10  4  0 30.0000000  0 17G05G09G12G15G17G18G26G28R03R05R06R14
                                R15R16R17R23R24
  23754382.840    23754382.2724   23754388.6214  124830123.879 5  97270245.22142
     -2961.364       -2307.551
  22482118.547    22482117.1674   22482123.8834  118144333.432 6  92060537.58043
      3117.852        2429.496
  24988959.119    24988961.6274   24988965.7094  131317866.016 4 102325632.34441
      4220.568        3288.774
  20704023.274    20704023.0774   20704027.8084  108800392.613 8  84779542.49146
      1880.852        1465.600
  23007657.660    23007657.4284   23007662.7174  120906070.168 6  94212540.27643
      2468.524        1923.520
  24031859.283    24031857.5364   24031865.7164  126288272.597 5  98406467.35041
      2521.199        1964.558
  20324178.270    20324177.6334   20324183.3574  106804292.021 8  83224141.29846
      -872.616        -679.962
  22299171.227    22299170.4464   22299175.7744  117183005.939 7  91311426.09144
     -1865.859       -1453.909
  21464183.879    21464183.741    21464190.111   114456539.452 7  89021804.598 6
     -1921.233       -1494.292
  19973348.998    19973348.876    19973353.493   106769019.895 8  83042592.316 7
       -17.775         -13.824
  22409792.467    22409791.833    22409796.306   119582952.229 6  93008988.330 5
      3712.221        2887.283
  21407837.831    21407836.750    21407827.855   114115895.667 7  88756836.691 3
     -1902.009       -1479.356
  20000092.421    20000092.156    20000096.338   106874456.629 8  83124616.517 6
       917.193         713.371
  22619706.097    22619706.391    22619712.231   120830419.327 6  93979239.958 5
      3032.651        2358.730
  23243863.808    23243863.406    23243867.822   124382615.312 5  96742065.407 4
      4270.043        3321.145
  23819865.837    23819867.620    23819874.604   127420256.121 3  99104671.415 4
     -1430.058       -1112.263
  22149220.839    22149220.947    22149224.827   118441866.134 6  92121480.332 5
      1771.209        1377.604
 11 10 10  4  1  0.0000000  0 16G05G09G12G15G17G18G26G28R03R05R06R14
                                R15R16R17R24
  23771294.629    23771294.8104   23771300.4234  124918998.899 5  97339498.49842
     -2963.573       -2309.291
  22464331.489    22464331.3144   22464337.4704  118050867.520 6  91987707.02943
      3113.261        2425.915
  24964874.161    24964872.8384   24964879.1504  131191287.985 4 102227000.13941
      4217.911        3286.687
  20693322.750    20693322.6644   20693327.3214  108744160.844 8  84735725.52846
      1867.994        1455.578
  22993598.458    22993598.1744   22993603.2034  120832188.515 6  94154970.17043
      2456.940        1914.503
  24017507.150    24017506.6664   24017512.0734  126212846.536 5  98347693.79041
      2507.286        1953.728
  20329203.385    20329202.7484   20329208.6934  106830699.791 8  83244718.78146
      -887.849        -691.833
  22309849.386    22309848.5794   22309854.2214  117239118.234 7  91355149.95844
     -1874.818       -1460.897
  21474999.116    21474998.952    21475005.956   114514212.965 7  89066661.782 6
     -1923.574       -1496.111
  19973524.979    19973524.722    19973529.486   106769960.218 8  83043323.671 7
       -44.854         -34.890
  22388968.354    22388968.735    22388973.240   119471835.807 6  92922564.503 5
      3695.571        2874.333
  21418549.572    21418548.541    21418542.525   114172995.218 7  88801247.444 3
     -1904.535       -1481.297
  19994969.374    19994969.220    19994973.607   106847079.442 8  83103323.151 6
       907.995         706.218
  22602690.832    22602690.367    22602696.806   120739524.719 6  93908544.185 5
      3027.148        2354.440
  23219937.849    23219937.792    23219943.564   124254584.883 5  96642486.196 4
      4265.412        3317.541
  22139348.046    22139348.423    22139352.784   118389076.228 6  92080421.564 5
      1748.219        1359.723
 11 10 10  4  1 30.0000000  0 16G05G09G12G15G17G18G26G28R03R05R06R14
                                R15R16R17R24
  23788219.109    23788220.4344   23788224.7154  125007940.759 5  97408803.83542
     -2965.958       -2311.147
  22446574.190    22446573.0814   22446578.6594  117957543.914 6  91914987.38543
      3108.288        2422.037
  24940802.862    24940802.6334   24940806.7004  131064791.628 4 102128431.59341
      4214.997        3284.366
  20682696.842    20682696.6154   20682701.5744  108688320.575 8  84692213.63546
      1854.651        1445.183
  22979605.867    22979606.1874   22979611.1824  120758660.016 6  94097675.25043
      2444.894        1905.108
  24003234.060    24003232.5724   24003239.5664  126137840.573 5  98289247.63241
      2493.067        1942.640
  20334316.410    20334315.9474   20334321.8924  106857569.166 8  83265655.95846
      -903.469        -704.004
  22320578.544    22320577.9694   22320583.2724  117295501.425 7  91399084.91244
     -1884.103       -1468.133
  21485828.897    21485828.420    21485835.433   114571960.511 7  89111576.548 6
     -1926.314       -1498.245
  19973854.081    19973853.591    19973858.535   106771718.716 8  83044691.394 7
       -72.339         -56.263
  22368240.847    22368240.727    22368244.238   119361227.759 6  92836536.059 5
      3678.261        2860.865
  21429276.283    21429274.934    21429275.656   114230174.799 7  88845720.514 3
     -1907.476       -1483.597
  19989898.131    19989897.971    19989902.385   106819980.512 8  83082246.215 6
       898.572         698.888
  22585707.077    22585707.506    22585710.484   120648799.722 6  93837980.321 5
      3021.110        2349.745
  23196041.131    23196039.525    23196044.161   124126699.708 5  96543019.972 4
      4260.178        3313.470
  22129605.539    22129605.455    22129610.614   118336982.873 6  92039904.561 5
      1724.654        1341.396
 11 10 10  4  2  0.0000000  0 16G05G09G12G15G17G18G26G28R03R05R06R14
                                R15R16R17R24
  23805158.350    23805156.6454   23805162.0204  125096947.280 5  97478159.57342
     -2968.017       -2312.713
  22428841.094    22428840.4944   22428847.0204  117864363.835 6  91842379.57043
      3103.520        2418.332
  24916747.605    24916742.2564   24916751.2474  130938379.677 4 102029928.88041
      4212.207        3282.254
  20672145.610    20672145.4294   20672150.3574  108632874.305 8  84649008.75846
      1841.539        1434.964
  22965682.244    22965681.7634   22965687.5374  120685488.380 6  94040658.41543
      2433.004        1895.853
  23989041.183    23989040.8124   23989045.9574  126063257.717 5  98231131.12241
      2478.954        1931.651
  20339517.652    20339517.1114   20339522.8664  106884900.923 8  83286953.42746
      -918.841        -715.980
  22331359.490    22331358.5574   22331363.4414  117352154.367 7  91443230.05644
     -1892.970       -1475.042
  21496672.277    21496671.975    21496678.869   114629783.318 7  89156549.850 6
     -1928.780       -1500.164
  19974336.053    19974335.633    19974340.377   106774295.379 8  83046695.466 7
       -99.584         -77.455
  22347609.576    22347609.612    22347612.938   119251133.011 6  92750906.838 5
      3661.155        2847.571
  21440018.455    21440017.381    21440019.222   114287434.096 7  88890255.424 3
     -1910.060       -1485.643
  19984878.884    19984878.796    19984883.136   106793159.832 8  83061385.701 6
       889.279         691.661
  22568754.886    22568755.031    22568759.275   120558245.128 6  93767548.998 5
      3015.550        2345.427
  23172168.217    23172168.878    23172173.768   123998966.686 5  96443672.085 4
      4255.117        3309.532
  22119996.131    22119995.702    22119999.496   118285589.166 6  91999931.715 5
      1701.361        1323.281
 11 10 10  4  2 30.0000000  0 16G05G09G12G15G17G18G26G28R03R05R06R14
                                R15R16R17R24
  23822108.816    23822107.8434   23822113.1904  125186024.370 5  97547570.29542
     -2970.165       -2314.420
  22411138.581    22411137.7594   22411144.1094  117771336.101 6  91769890.48643
      3098.592        2414.489
  24892708.011    24892708.4624   24892715.1294  130812062.370 4 101931499.86141
      4209.102        3279.842
  20661671.260    20661671.1284   20661676.2854  108577832.312 8  84606118.90046
      1828.150        1424.528
  22951828.130    22951828.0124   22951833.5814  120612684.620 6  93983928.23543
      2420.828        1886.357
  23974930.748    23974931.3094   23974936.5014  125989107.824 5  98173352.02041
      2464.597        1920.454
  20344807.979    20344807.6484   20344813.4644  106912703.008 8  83308617.37846
      -934.410        -728.117
  22342192.880    22342191.7874   22342196.8544  117409083.088 7  91487590.09144
     -1902.021       -1482.100
  21507531.697    21507531.458    21507537.132   114687688.606 7  89201587.290 5
     -1931.393       -1502.192
  19974972.511    19974972.014    19974976.984   106777697.750 8  83049341.759 7
      -126.980         -98.766
  22327074.739    22327075.183    22327079.051   119141563.821 6  92665686.396 5
      3643.646        2833.941
  21450775.942    21450775.053    21450775.772   114344780.926 7  88934858.636 3
     -1912.817       -1487.794
  19979912.842    19979913.071    19979917.238   106766624.924 8  83040747.470 6
       879.957         684.410
  22551836.134    22551836.565    22551840.893   120467868.990 6  93697256.463 5
      3009.695        2340.872
  23148330.038    23148329.843    23148334.214   123871398.740 5  96344452.592 4
      4249.685        3305.306
  22110518.389    22110517.894    22110520.662   118234906.301 6  91960511.733 5
      1677.700        1304.870
 11 10 10  4  3  0.0000000  0 16G05G09G12G15G17G18G26G28R03R05R06R14
                                R15R16R17R24
  23839071.593    23839071.3774   23839078.0244  125275169.521 5  97617034.04042
     -2972.411       -2316.168
  22393465.448    22393464.4794   22393471.0564  117678461.498 6  91697520.72843
      3093.471        2410.494
  24868690.830    24868688.6894   24868693.8754  130685841.869 4 101833146.31141
      4205.937        3277.358
  20651274.512    20651274.3864   20651279.5794  108523196.218 8  84563545.32846
      1814.660        1414.022
  22938044.803    22938044.6514   22938050.1094  120540251.411 6  93927486.80643
      2408.456        1876.713
  23960903.188    23960902.3194   23960907.1434  125915392.787 5  98115911.74941
      2450.097        1909.188
  20350188.188    20350187.6954   20350193.5454  106940975.259 8  83330647.69346
      -949.984        -740.244
  22353077.969    22353077.2274   22353081.7654  117466285.661 7  91532163.53044
     -1911.099       -1489.166
  21518405.694    21518405.800    21518412.108   114745675.764 7  89246688.432 5
     -1934.051       -1504.266
  19975763.342    19975762.687    19975767.681   106781925.218 8  83052629.786 7
      -154.417        -120.102
  22306641.864    22306642.031    22306645.052   119032524.350 6  92580877.949 5
      3626.038        2820.248
  21461549.062    21461548.777    21461552.280   114402214.241 7  88979528.998 3
     -1915.654       -1489.940
  19975000.428    19975000.820    19975005.280   106740374.865 8  83020330.763 6
       870.553         677.095
  22534952.682    22534952.394    22534956.115   120377671.854 6  93627103.170 5
      3003.821        2336.302
  23124523.807    23124522.095    23124527.084   123744000.288 5  96245364.941 4
      4243.926        3300.830
  22101173.216    22101173.051    22101176.614   118184936.885 6  91921646.660 5
      1653.936        1286.399
 11 10 10  4  3 30.0000000  0 16G05G09G12G15G17G18G26G28R03R05R06R14
                                R15R16R17R24
  23856047.049    23856047.8964   23856051.8444  125364374.634 5  97686544.51442
     -2974.720       -2317.943
  22375819.512    22375818.8384   22375825.6954  117585735.336 6  91625266.58943
      3088.325        2406.480
  24844690.609    24844688.3054   24844695.4154  130559715.163 5 101734865.83441
      4202.459        3274.656
  20640954.464    20640954.2584   20640959.5054  108468963.257 8  84521285.88946
      1800.931        1403.322
  22924331.025    22924331.2234   22924336.5594  120468186.689 6  93871332.49443
      2395.875        1866.914
  23946957.744    23946957.3434   23946963.7814  125842109.823 5  98058808.17241
      2435.457        1897.766
  20355656.652    20355656.1124   20355661.8924  106969712.605 8  83353040.42246
      -965.784        -752.559
  22364014.172    22364013.4264   22364018.5364  117523755.496 7  91576945.22544
     -1920.204       -1496.262
  21529295.822    21529294.718    21529300.913   114803739.235 7  89291848.896 5
     -1936.817       -1506.414
  19976707.139    19976706.874    19976711.887   106786972.144 8  83056555.184 7
      -181.967        -141.529
  22286306.285    22286306.216    22286311.274   118924013.718 6  92496480.834 5
      3608.046        2806.258
  21472340.141    21472338.768    21472350.291   114459728.523 7  89024262.214 3
     -1918.618       -1492.250
  19970140.681    19970140.923    19970144.750   106714403.740 8  83000131.005 6
       860.975         669.645
  22518098.175    22518098.317    22518103.139   120287648.531 6  93557085.046 5
      2997.748        2331.576
  23100747.626    23100747.044    23100751.568   123616771.239 5  96146409.029 4
      4237.989        3296.206
  22091959.571    22091959.857    22091964.657   118135678.447 6  91883334.571 5
      1629.977        1267.756
 11 10 10  4  4  0.0000000  0 16G05G09G12G15G17G18G26G28R03R05R06R14
                                R15R16R17R24
  23873035.035    23873033.8444   23873040.2564  125453645.038 5  97756105.86842
     -2976.536       -2319.378
  22358205.808    22358204.4354   22358210.0994  117493166.675 6  91553135.20343
      3083.193        2402.490
  24820708.222    24820708.5314   24820712.7784  130433692.618 5 101636666.47741
      4199.271        3272.155
  20630712.932    20630712.7564   20630717.7874  108415143.441 8  84479348.38446
      1787.329        1392.723
  22910689.454    22910689.4324   22910695.3424  120396500.995 6  93815473.53043
      2383.400        1857.192
  23933097.556    23933096.6124   23933100.8944  125769268.536 5  98002048.71041
      2420.918        1886.445
  20361215.076    20361214.5954   20361220.5514  106998922.660 8  83375801.49846
      -981.322        -764.666
  22375001.922    22375001.2694   22375006.0204  117581497.952 7  91621939.35444
     -1929.063       -1503.160
  21540199.334    21540198.968    21540205.942   114861886.277 7  89337074.363 6
     -1939.372       -1508.397
  19977806.168    19977805.992    19977810.583   106792845.840 8  83061123.630 7
      -209.344        -162.821
  22266072.676    22266073.052    22266075.923   118816043.624 6  92412504.116 5
      3590.200        2792.377
  21483146.701    21483145.312    21483155.413   114517330.813 7  89069063.948 3
     -1921.308       -1494.313
  19965334.416    19965334.121    19965338.007   106688718.258 8  82980153.417 6
       851.667         662.411
  22501280.022    22501280.655    22501283.910   120197807.068 6  93487208.364 5
      2991.889        2327.029
  23077007.047    23077005.230    23077009.480   123489724.397 5  96047594.823 4
      4232.041        3291.590
  22082884.481    22082883.866    22082887.579   118087141.647 6  91845583.756 5
      1606.090        1249.183
 11 10 10  4  4 30.0000000  0 16G05G09G12G15G17G18G26G28R03R05R06R14
                                R15R16R17R24
  23890032.720    23890033.8964   23890038.6874  125542974.706 5  97825713.38342
     -2978.783       -2321.137
  22340618.915    22340618.5144   22340624.6514  117400752.539 6  91481124.22243
      3077.777        2398.268
  24796745.524    24796747.6504   24796751.0554  130307772.558 5 101538546.98641
      4195.493        3269.247
  20620549.602    20620549.3584   20620554.3304  108361735.069 8  84437731.47946
      1773.252        1381.754
  22897120.459    22897120.2544   22897125.4654  120325193.448 6  93759909.23643
      2370.398        1847.060
  23919319.275    23919318.9894   23919324.0844  125696867.634 5  97945632.46941
      2405.835        1874.685
  20366862.880    20366862.5174   20366868.2364  107028601.848 8  83398928.13546
      -997.252        -777.081
  22386041.093    22386040.3844   22386045.2314  117639508.034 7  91667142.01344
     -1938.260       -1510.325
  21551117.862    21551117.671    21551124.980   114920112.303 7  89382361.253 6
     -1942.327       -1510.699
  19979058.548    19979058.339    19979063.419   106799541.908 8  83066331.699 7
      -237.057        -184.380
  22245940.687    22245940.232    22245945.061   118708614.691 6  92328948.317 5
      3571.742        2778.023
  21493968.027    21493967.095    21493973.992   114575016.601 7  89113930.612 3
     -1924.374       -1496.743
  19960580.039    19960580.016    19960584.299   106663315.517 8  82960395.749 6
       841.964         654.861
  22484495.421    22484495.128    22484498.736   120108144.016 6  93417470.454 5
      2985.634        2322.156
  23053297.840    23053297.349    23053302.546   123362861.017 5  95948923.324 4
      4225.585        3286.560
  22073944.490    22073943.668    22073945.644   118039325.427 6  91808393.395 5
      1581.696        1230.208
 11 10 10  4  5  0.0000000  0 16G05G09G12G15G17G18G26G28R03R05R06R14
                                R15R16R17R24
  23907044.459    23907043.5954   23907049.1194  125632364.777 5  97895367.98342
     -2980.732       -2322.654
  22323063.723    22323063.1004   22323068.9214  117308497.182 6  91409236.96443
      3072.422        2394.095
  24772804.748    24772805.7234   24772810.5994  130181960.755 5 101440511.85541
      4191.812        3266.323
  20610465.564    20610465.4484   20610470.4014  108308743.619 8  84396439.45646
      1759.284        1370.872
  22883623.725    22883623.4334   22883628.8804  120254270.521 6  93704644.63543
      2357.554        1837.057
  23905626.379    23905625.8734   23905631.3514  125624912.378 5  97889563.45441
      2390.936        1863.079
  20372600.726    20372600.1234   20372605.7424  107058753.292 8  83422422.76846
     -1013.011        -789.360
  22397131.300    22397130.6564   22397135.0304  117697787.216 7  91712554.36344
     -1947.186       -1517.295
  21562052.914    21562052.735    21562059.838   114978421.201 7  89427712.606 6
     -1945.106       -1512.857
  19980465.424    19980465.122    19980470.247   106807063.148 8  83072181.554 7
      -264.567        -205.772
  22225913.405    22225912.457    22225915.158   118601734.709 7  92245819.448 5
      3553.374        2763.742
  21504804.221    21504803.893    21504818.088   114632789.353 6  89158864.885 3
     -1927.319       -1498.990
  19955879.342    19955879.776    19955883.989   106638197.622 8  82940859.602 6
       832.431         647.450
  22467743.876    22467744.702    22467749.444   120018663.202 6  93347874.283 5
      2979.537        2317.420
  23029627.262    23029625.535    23029630.812   123236189.450 5  95850401.002 4
      4219.050        3281.479
  22065137.143    22065137.439    22065139.209   117992236.080 6  91771768.349 5
      1557.408        1211.320
 11 10 10  4  5 30.0000000  0 16G05G09G12G15G17G18G26G28R03R05R06R14
                                R15R16R17R24
  23924063.821    23924064.6144   23924070.7584  125721810.028 5  97965065.57942
     -2982.283       -2323.852
  22305536.879    22305537.1184   22305543.6334  117216399.316 6  91337472.41643
      3067.371        2390.153
  24748883.330    24748882.6934   24748890.4014  130056257.274 5 101342561.10341
      4188.454        3263.748
  20600461.042    20600460.8154   20600465.7254  108256168.940 8  84355472.18346
      1745.602        1360.208
  22870201.257    22870200.9714   22870205.8494  120183732.387 6  93649679.87943
      2344.932        1827.215
  23892019.324    23892019.2644   23892024.1854  125553402.626 5  97833841.58041
      2376.271        1851.626
  20378427.664    20378427.2334   20378432.6534  107089374.950 8  83446283.80046
     -1028.478        -801.412
  22408272.186    22408270.8224   22408275.9214  117756331.429 7  91758173.23244
     -1955.757       -1523.970
  21573002.634    21573002.528    21573009.241   115036809.526 7  89473125.738 5
     -1947.500       -1514.721
  19982026.291    19982026.001    19982031.013   106815406.230 8  83078670.631 7
      -291.716        -226.890
  22205985.699    22205984.929    22205988.743   118495405.449 6  92163118.937 5
      3535.156        2749.564
  21515658.557    21515657.806    21515668.865   114690645.605 7  89203864.106 3
     -1929.818       -1500.973
  19951232.305    19951232.143    19951236.305   106613362.337 8  82921543.267 6
       823.184         640.252
  22451026.832    22451027.729    22451030.697   119929362.298 6  93278418.055 5
      2973.843        2312.991
  23005992.723    23005990.987    23005996.417   123109712.694 5  95752030.214 4
      4212.675        3276.535
  22056466.042    22056466.172    22056470.057   117945873.675 6  91735708.731 5
      1533.379        1192.624
 11 10 10  4  6  0.0000000  0 16G05G09G12G15G17G18G26G28R03R05R06R14
                                R15R16R17R24
  23941094.533    23941093.4034   23941099.0834  125811297.569 5  98034796.12942
     -2983.625       -2324.896
  22288039.957    22288039.5464   22288045.9874  117124449.250 6  91265823.03843
      3062.490        2386.347
  24724981.821    24724981.0814   24724989.6854  129930653.597 4 101244688.11841
      4185.055        3261.092
  20590534.005    20590533.9324   20590538.8924  108204003.023 8  84314823.42546
      1731.979        1349.595
  22856850.074    22856849.6064   22856854.6094  120113572.147 7  93595009.57743
      2332.293        1817.371
  23878494.761    23878493.6704   23878497.0464  125482329.973 5  97778460.30141
      2361.771        1840.364
  20384342.259    20384341.8134   20384347.3774  107120456.179 9  83470502.93846
     -1043.741        -813.302
  22419460.790    22419459.5364   22419465.0224  117815128.500 7  91803989.12244
     -1964.135       -1530.484
  21583965.793    21583965.169    21583971.178   115095265.792 7  89518591.725 5
     -1949.736       -1516.460
  19983738.856    19983738.462    19983743.381   106824560.161 8  83085790.359 7
      -318.664        -247.850
  22186162.462    22186162.190    22186164.992   118389620.395 6  92080841.694 5
      3516.988        2735.439
  21526527.392    21526526.014    21526531.400   114748574.328 7  89248919.722 3
     -1932.208       -1502.804
  19946634.821    19946635.282    19946639.555   106588797.924 8  82902437.615 6
       814.279         633.330
  22434341.800    22434341.531    22434344.648   119840230.846 6  93209093.607 5
      2968.160        2308.563
  22982393.092    22982390.895    22982395.802   122983424.665 5  95653806.218 4
      4206.342        3271.604
  22047932.006    22047930.802    22047935.390   117900230.531 6  91700208.536 5
      1509.357        1173.948
 11 10 10  4  6 30.0000000  0 16G05G09G12G15G17G18G26G28R03R05R06R14
                                R15R16R17R24
  23958129.527    23958131.0654   23958135.2454  125900824.631 5  98104557.49242
     -2984.954       -2325.961
  22270570.212    22270569.8684   22270576.7244  117032647.428 6  91194289.18843
      3057.532        2382.495
  24701099.041    24701099.5894   24701106.5764  129805151.969 4 101146894.69741
      4181.576        3258.365
  20580685.163    20580685.1004   20580689.8694  108152246.866 8  84274493.96246
      1718.311        1338.943
  22843571.053    22843570.6244   22843575.9804  120043791.567 6  93540635.12743
      2319.598        1807.477
  23865053.343    23865051.0684   23865057.4284  125411695.742 5  97723420.65441
      2347.130        1828.926
  20390344.101    20390343.5914   20390349.5164  107151996.277 8  83495079.63346
     -1059.021        -825.209
  22430696.816    22430696.0294   22430700.7284  117874175.725 7  91849999.95744
     -1972.428       -1536.956
  21594940.645    21594940.183    21594945.900   115153789.684 7  89564110.323 5
     -1951.966       -1518.196
  19985602.352    19985602.121    19985607.213   106834523.358 8  83093539.526 7
      -345.604        -268.803
  22166440.524    22166440.634    22166442.938   118284383.177 6  91998990.534 5
      3498.677        2721.194
  21537406.911    21537405.482    21537410.761   114806574.587 6  89294030.996 3
     -1934.597       -1504.687
  19942088.791    19942088.846    19942093.334   106564502.614 8  82883541.278 6
       805.311         626.354
  22417687.639    22417687.995    22417691.821   119751268.881 6  93139900.981 5
      2962.510        2304.170
  22958828.347    22958827.419    22958830.889   122857330.427 5  95555732.952 4
      4199.855        3266.544
  22039532.354    22039532.008    22039534.534   117855308.450 7  91665269.166 5
      1485.328        1155.257
 11 10 10  4  7  0.0000000  0 16G05G09G12G15G17G18G26G28R03R05R06R14
                                R15R16R17R24
  23975174.042    23975173.4054   23975179.1524  125990389.189 5  98174348.05142
     -2986.288       -2326.979
  22253129.493    22253129.1434   22253135.5424  116940995.125 6  91122871.83143
      3052.364        2378.461
  24677236.128    24677236.0244   24677246.3604  129679754.868 4 101049182.71341
      4177.947        3255.581
  20570914.902    20570914.7284   20570919.5944  108100903.276 8  84234485.97646
      1704.339        1328.059
  22830365.422    22830365.2354   22830370.0904  119974394.258 7  93486559.32043
      2306.565        1797.324
  23851695.807    23851693.6274   23851700.1754  125341502.627 5  97668724.75341
      2332.197        1817.303
  20396433.409    20396432.8134   20396438.6664  107183995.571 8  83520014.14346
     -1074.523        -837.286
  22441980.246    22441979.4914   22441984.3054  117933471.818 7  91896204.70344
     -1980.917       -1543.567
  21605928.388    21605927.957    21605934.535   115212381.239 7  89609681.524 5
     -1954.429       -1520.111
  19987617.436    19987617.293    19987622.424   106845295.828 8  83101918.104 7
      -372.792        -289.945
  22146822.872    22146822.425    22146826.428   118179698.489 6  91917569.123 5
      3480.014        2706.677
  21548301.846    21548300.683    21548307.558   114864646.400 7  89339197.976 3
     -1937.101       -1506.645
  19937592.836    19937592.664    19937597.215   106540477.421 8  82864855.030 6
       796.144         619.225
  22401065.779    22401066.165    22401068.715   119662476.630 6  93070840.361 5
      2956.681        2299.642
  22935302.697    22935301.066    22935303.397   122731435.020 5  95457814.312 4
      4192.946        3261.194
  22031266.471    22031266.281    22031269.385   117811110.493 7  91630893.016 5
      1460.932        1136.281
 11 10 10  4  7 30.0000000  0 16G05G09G12G15G17G18G26G28R03R05R06R14
                                R15R16R17R24
  23992224.040    23992224.2044   23992230.0644  126079992.581 5  98244168.88041
     -2987.431       -2327.895
  22235718.355    22235718.0164   22235724.2074  116849496.992 6  91051574.62543
      3047.317        2374.535
  24653396.668    24653393.6564   24653403.1284  129554468.274 4 100951556.81041
      4174.273        3252.655
  20561224.176    20561223.9804   20561229.0014  108049977.992 8  84194803.94646
      1690.464        1317.243
  22817233.951    22817233.4494   22817238.4214  119905387.014 6  93432787.47743
      2293.672        1787.271
  23838424.100    23838423.8094   23838428.2074  125271756.216 5  97614376.93041
      2317.396        1805.740
  20402610.909    20402610.4084   20402616.1504  107216457.860 8  83545309.43546
     -1089.814        -849.206
  22453311.884    22453311.2614   22453315.7204  117993018.970 7  91942605.08144
     -1989.108       -1549.956
  21616929.023    21616929.375    21616935.122   115271044.255 7  89655308.321 5
     -1956.624       -1521.817
  19989784.832    19989784.558    19989789.531   106856880.027 8  83110928.033 7
      -399.678        -310.865
  22127310.396    22127309.952    22127312.552   118075574.280 7  91836583.672 5
      3461.387        2692.187
  21559210.071    21559208.896    21559213.351   114922792.874 7  89384422.954 3
     -1939.514       -1508.499
  19933147.709    19933147.749    19933151.978   106516724.845 8  82846380.821 6
       787.186         612.255
  22384476.200    22384475.665    22384479.661   119573858.501 6  93001915.175 5
      2951.049        2295.255
  22911814.364    22911813.075    22911814.911   122605747.656 5  95360057.506 4
      4186.021        3255.802
  22023137.007    22023136.502    22023140.351   117767643.122 6  91597085.084 5
      1436.658        1117.404
 11 10 10  4  8  0.0000000  0 16G05G09G12G15G17G18G26G28R03R05R06R14
                                R15R16R17R24
  24009280.550    24009282.4564   24009287.1114  126169629.281 5  98314015.65841
     -2988.426       -2328.639
  22218335.387    22218334.6964   22218341.6304  116758150.884 6  90980395.87043
      3042.276        2370.610
  24629576.063    24629572.7274   24629581.2654  129429291.537 4 100854016.57041
      4170.602        3249.823
  20551612.806    20551612.5974   20551617.5194  107999470.342 8  84155447.34746
      1676.599        1306.442
  22804176.249    22804175.7424   22804180.7884  119836769.453 6  93379319.26543
      2280.701        1777.173
  23825236.040    23825235.7194   23825240.1124  125202455.543 5  97560376.43141
      2302.561        1794.208
  20408875.706    20408875.1664   20408881.0734  107249379.773 8  83570962.87246
     -1105.087        -861.106
  22464690.101    22464689.1294   22464694.2154  118052812.118 7  91989197.13644
     -1997.173       -1556.233
  21627942.370    21627942.725    21627949.697   115329774.287 7  89700987.217 5
     -1958.817       -1523.526
  19992103.289    19992102.928    19992107.702   106869272.223 8  83120566.417 7
      -426.562        -331.769
  22107901.930    22107901.871    22107905.903   117972011.440 6  91756034.803 5
      3442.630        2677.604
  21570130.710    21570129.889    21570133.187   114981010.521 7  89429703.415 3
     -1941.816       -1510.304
  19928753.242    19928753.363    19928757.371   106493241.837 8  82828116.274 6
       778.282         605.331
  22367918.497    22367918.602    22367922.768   119485411.761 6  92933123.285 5
      2945.407        2290.871
  22888365.504    22888364.610    22888368.011   122480269.927 5  95262463.744 4
      4179.043        3250.376
  22015144.082    22015143.710    22015148.915   117724905.515 6  91563844.747 5
      1412.341        1098.495
 11 10 10  4  8 30.0000000  0 16G05G09G12G15G17G18G26G28R03R05R06R14
                                R15R16R17R24
  24026345.127    24026344.8844   24026351.2014  126259298.134 5  98383887.51041
     -2989.256       -2329.288
  22200982.763    22200981.7924   22200988.0114  116666959.090 6  90909337.35843
      3037.252        2366.684
  24605776.322    24605777.8314   24605782.6634  129304227.816 4 100756564.41841
      4167.044        3247.049
  20542081.888    20542081.5834   20542086.3244  107949383.526 8  84116418.66746
      1662.636        1295.562
  22791193.730    22791193.4604   22791198.9374  119768545.705 7  93326157.93144
      2267.653        1767.001
  23812134.013    23812133.7334   23812138.6134  125133603.870 5  97506725.80041
      2287.678        1782.582
  20415228.259    20415227.6404   20415233.6154  107282762.730 8  83596975.56246
     -1120.323        -872.977
  22476114.843    22476114.4274   22476119.0974  118112851.184 7  92035980.82244
     -2005.245       -1562.522
  21638970.276    21638969.413    21638975.536   115388573.012 7  89746719.571 5
     -1960.968       -1525.198
  19994572.676    19994572.411    19994577.127   106882472.874 8  83130833.595 7
      -453.333        -352.593
  22088601.739    22088601.080    22088602.755   117869015.429 7  91675926.835 5
      3423.856        2663.001
  21581065.635    21581064.794    21581069.967   115039300.099 7  89475039.779 3
     -1944.085       -1512.097
  19924409.349    19924409.212    19924413.193   106470028.632 8  82810061.569 6
       769.401         598.423
  22351392.859    22351393.250    22351396.791   119397137.851 6  92864465.829 5
      2939.692        2286.429
  22864957.214    22864956.176    22864961.115   122355008.548 5  95165038.225 4
      4171.906        3244.817
  22007289.805    22007290.037    22007294.413   117682901.642 7  91531175.078 6
      1388.015        1079.566
 11 10 10  4  9  0.0000000  0 16G05G09G12G15G17G18G26G28R03R05R06R14
                                R15R16R17R24
  24043414.203    24043414.0394   24043420.8624  126348999.872 5  98453784.97941
     -2990.427       -2330.197
  22183659.208    22183658.7244   22183664.9784  116575925.567 6  90838402.16343
      3031.889        2362.507
  24582000.452    24581999.9754   24582007.4794  129179283.270 5 100659205.06141
      4162.941        3243.858
  20532631.719    20532631.5444   20532636.1514  107899722.653 8  84077721.89046
      1648.347        1284.419
  22778286.456    22778286.5504   22778292.8014  119700721.513 6  93273307.92844
      2254.218        1756.527
  23799118.432    23799116.8264   23799122.8564  125065206.023 5  97453428.80841
      2272.497        1770.772
  20421668.981    20421668.4994   20421674.3384  107316609.532 8  83623349.68646
     -1135.835        -885.068
  22487587.074    22487585.8744   22487591.3164  118173137.166 7  92082956.91044
     -2013.553       -1569.005
  21650009.850    21650009.131    21650016.005   115447442.488 7  89792506.916 5
     -1963.369       -1527.071
  19997193.654    19997193.263    19997197.791   106896483.934 8  83141731.083 7
      -480.411        -373.656
  22069406.461    22069406.639    22069409.701   117766593.292 6  91596265.155 5
      3404.578        2648.009
  21592015.225    21592013.797    21592021.056   115097664.421 6  89520434.242 3
     -1946.621       -1514.030
  19920115.938    19920116.052    19920120.088   106447088.161 8  82792219.002 6
       760.254         591.304
  22334899.976    22334900.775    22334905.196   119309040.093 6  92795945.366 5
      2933.825        2281.864
  22841591.005    22841590.888    22841595.355   122229971.469 5  95067787.178 4
      4164.222        3238.834
  21999574.318    21999574.138    21999576.973   117641636.950 7  91499080.344 5
      1363.278        1060.317
 11 10 10  4  9 30.0000000  0 16G05G09G12G15G17G18G26G28R03R05R06R14
                                R15R16R17R24
  24060492.091    24060490.8274   24060497.0104  126438734.184 5  98523707.82441
     -2991.623       -2331.139
  22166366.886    22166365.8134   22166373.3834  116485053.565 6  90767592.84243
      3026.420        2358.251
  24558248.794    24558247.3294   24558254.3494  129054461.951 5 100561941.77141
      4158.606        3240.476
  20523263.259    20523263.2364   20523268.0214  107850492.297 8  84039360.57646
      1633.845        1273.125
  22765457.306    22765457.0374   22765462.6044  119633302.214 7  93220773.43544
      2240.601        1745.914
  23786188.792    23786188.8614   23786194.1824  124997266.676 5  97400489.10341
      2256.994        1758.692
  20428198.518    20428197.9664   20428203.8094  107350922.433 8  83650087.00346
     -1151.521        -897.285
  22499106.509    22499105.4084   22499110.4784  118233670.787 7  92130125.96544
     -2021.874       -1575.485
  21661063.251    21661063.270    21661069.141   115506385.185 7  89838351.241 5
     -1965.958       -1529.073
  19999966.664    19999966.480    19999971.056   106911306.983 8  83153260.113 7
      -507.594        -394.794
  22050322.833    22050321.914    22050324.548   117664751.910 6  91517055.241 5
      3384.981        2632.759
  21602978.091    21602977.295    21602994.781   115156105.298 7  89565888.222 3
     -1949.246       -1516.042
  19915874.805    19915874.699    19915878.510   106424422.035 8  82774589.799 6
       750.978         584.096
  22318442.160    22318442.540    22318447.106   119221120.947 6  92727563.829 5
      2927.745        2277.140
  22818269.317    22818267.592    22818272.881   122105166.670 5  94970716.807 4
      4156.268        3232.653
  21991995.098    21991995.096    21991999.115   117601116.230 6  91467564.265 5
      1338.286        1040.889
 11 10 10  4 10  0.0000000  0 16G05G09G12G15G17G18G26G28R03R05R06R14
                                R15R16R17R24
  24077573.123    24077572.5204   24077578.1054  126528496.604 5  98593652.58841
     -2992.367       -2331.706
  22149104.730    22149104.5964   22149111.1774  116394341.500 6  90696908.15743
      3021.110        2354.114
  24534517.432    24534517.6074   24534522.3584  128929764.056 5 100464774.62741
      4154.547        3237.282
  20513976.639    20513976.6294   20513981.5184  107801692.070 8  84001334.42846
      1619.542        1261.981
  22752704.988    22752705.1424   22752710.3084  119566287.964 7  93168554.56144
      2227.103        1735.406
  23773349.570    23773347.4584   23773353.2854  124929785.259 6  97347906.18441
      2241.812        1746.900
  20434816.368    20434815.7514   20434821.6154  107385698.662 8  83677185.35946
     -1166.906        -909.279
  22510671.651    22510671.2024   22510675.4674  118294447.612 7  92177484.52843
     -2029.856       -1581.704
  21672130.007    21672129.338    21672136.132   115565397.652 7  89884249.819 5
     -1968.198       -1530.824
  20002890.921    20002890.406    20002895.148   106926938.152 8  83165417.684 7
      -534.446        -415.682
  22031345.389    22031345.334    22031349.438   117563492.872 6  91438298.235 5
      3365.617        2617.700
  21613955.582    21613954.667    21613974.151   115214619.835 7  89611399.456 3
     -1951.617       -1517.912
  19911683.465    19911683.460    19911687.787   106402027.429 8  82757171.782 6
       742.006         577.118
  22302016.244    22302016.956    22302020.872   119133378.410 7  92659319.664 5
      2921.874        2272.573
  22794990.264    22794988.418    22794993.645   121980596.110 5  94873828.622 4
      4148.426        3226.558
  21984556.192    21984555.793    21984560.181   117561339.245 6  91436626.611 5
      1313.544        1021.646
 11 10 10  4 10 30.0000000  0 16G05G09G12G15G17G18G26G28R03R05R06R14
                                R15R16R17R24
  24094659.386    24094657.9814   24094663.9334  126618285.391 5  98663617.86941
     -2993.373       -2332.511
  22131873.986    22131872.8234   22131879.5674  116303791.257 6  90626349.56443
      3015.623        2349.827
  24510813.431    24510811.3074   24510817.3104  128805192.278 5 100367705.75741
      4150.312        3234.016
  20504772.946    20504772.5784   20504777.4484  107753324.733 8  83963645.59846
      1604.998        1250.645
  22740030.862    22740030.4824   22740035.5564  119499682.781 7  93116654.44044
      2213.302        1724.650
  23760594.698    23760593.7174   23760599.9374  124862764.423 5  97295682.17941
      2226.287        1734.760
  20441522.395    20441521.7294   20441527.6304  107420938.790 8  83704645.19746
     -1182.402        -921.352
  22522283.756    22522282.6944   22522287.4194  118355466.686 7  92225031.84643
     -2037.990       -1588.045
  21683209.277    21683209.146    21683216.354   115624481.307 7  89930203.762 5
     -1970.644       -1532.727
  20005965.922    20005965.823    20005970.490   106943377.219 8  83178203.615 7
      -561.428        -436.665
  22012479.248    22012479.905    22012483.638   117462820.709 7  91359997.700 5
      3345.890        2602.360
  21624945.971    21624945.199    21624958.184   115273208.446 6  89656968.319 3
     -1954.216       -1519.937
  19907543.730    19907543.658    19907547.674   106379904.740 8  82739965.254 6
       732.908         570.039
  22285624.757    22285624.962    22285629.620   119045813.233 6  92591213.432 5
      2915.947        2267.960
  22771754.284    22771754.041    22771759.431   121856266.134 5  94777127.547 4
      4140.258        3220.200
  21977257.687    21977257.306    21977260.802   117522309.334 6  91406270.013 5
      1288.487        1002.159
 11 10 10  4 11  0.0000000  0 16G05G09G12G15G17G18G26G28R03R05R06R14
                                R15R16R17R24
  24111749.181    24111748.8024   24111754.7814  126708097.515 5  98733601.34641
     -2994.283       -2333.216
  22114673.512    22114673.0554   22114679.4324  116213403.067 6  90555917.24743
      3010.071        2345.511
  24487132.131    24487131.5204   24487138.7334  128680748.538 5 100270736.64541
      4145.835        3230.498
  20495651.488    20495651.3724   20495656.0974  107705391.700 8  83926295.18846
      1590.372        1239.248
  22727433.924    22727434.0474   22727438.4274  119433488.231 6  93065074.30543
      2199.476        1713.879
  23747928.956    23747927.5904   23747932.9014  124796205.462 5  97243818.07441
      2210.770        1722.702
  20448316.309    20448315.8364   20448321.5894  107456642.181 8  83732466.01946
     -1197.974        -933.487
  22533940.832    22533940.1664   22533944.6074  118416725.877 7  92272766.28443
     -2046.050       -1594.335
  21694303.130    21694303.172    21694309.265   115683634.833 7  89976212.052 5
     -1973.105       -1534.640
  20009192.885    20009192.193    20009196.499   106960622.495 8  83191616.603 7
      -588.417        -457.657
  21993724.184    21993724.302    21993727.732   117362738.935 7  91282156.334 5
      3326.081        2586.953
  21635950.975    21635950.316    21635956.110   115331870.214 6  89702594.097 3
     -1956.737       -1521.925
  19903454.309    19903454.285    19903458.334   106358052.569 8  82722969.136 6
       723.740         562.906
  22269264.268    22269264.864    22269270.066   118958425.358 6  92523245.110 5
      2909.844        2263.212
  22748566.764    22748566.004    22748570.298   121732181.106 5  94680617.003 4
      4131.914        3213.701
  21970099.108    21970099.280    21970103.081   117484027.999 7  91376495.657 5
      1263.405         982.644
 11 10 10  4 11 30.0000000  0 16G05G09G12G15G17G18G26G28R03R05R06R14
                                R15R16R17R24
  24128844.216    24128843.5864   24128848.5444  126797930.976 5  98803601.45042
     -2994.819       -2333.609
  22097505.153    22097504.3354   22097509.8124  116123178.604 6  90485612.50143
      3004.681        2341.305
  24463477.728    24463475.6134   24463481.5964  128556435.489 5 100173869.33541
      4141.530        3227.192
  20486613.247    20486613.1414   20486618.0464  107657895.619 8  83889285.25146
      1575.876        1227.956
  22714916.395    22714916.3974   22714921.4014  119367708.058 7  93013817.04544
      2185.704        1703.147
  23735352.143    23735350.3044   23735356.4764  124730110.865 5  97192315.84441
      2195.418        1710.720
  20455198.563    20455198.0944   20455204.0344  107492809.213 8  83760648.11846
     -1213.299        -945.430
  22545643.668    22545642.6654   22545647.2634  118478223.951 7  92320686.85543
     -2053.908       -1600.442
  21705408.884    21705408.603    21705415.007   115742858.398 7  90022274.822 5
     -1975.308       -1536.350
  20012569.305    20012569.018    20012573.153   106978673.486 8  83205656.247 7
      -615.140        -478.441
  21975081.770    21975081.130    21975084.876   117263252.125 7  91204777.738 5
      3306.261        2571.537
  21646969.159    21646968.593    21646971.565   115390605.127 6  89748276.781 3
     -1959.059       -1523.702
  19899415.332    19899415.481    19899419.331   106336471.098 8  82706183.557 6
       714.862         556.004
  22252937.555    22252938.434    22252943.778   118871215.254 6  92455415.082 5
      2904.116        2258.754
  22725425.444    22725424.524    22725428.034   121608346.734 5  94584301.418 4
      4123.507        3207.168
  21963081.203    21963081.014    21963084.201   117446498.015 6  91347305.688 5
      1238.460         963.249
 11 10 10  4 12  0.0000000  0 16G05G09G12G15G17G18G26G28R03R05R06R14
                                R15R16R17R24
  24145940.843    24145943.2864   24145947.9634  126887785.086 5  98873617.64241
     -2995.157       -2333.903
  22080367.142    22080366.3724   22080371.6094  116033120.251 7  90415437.18443
      2999.475        2337.243
  24439847.041    24439846.5824   24439851.9704  128432256.970 5 100077106.88641
      4137.345        3223.915
  20477659.068    20477658.7774   20477663.8194  107610840.088 8  83852618.61246
      1561.451        1216.716
  22702478.896    22702478.3534   22702483.9174  119302346.563 7  92962886.02944
      2171.984        1692.463
  23722863.188    23722862.0074   23722867.1864  124664483.751 5  97141177.83541
      2180.012        1698.702
  20462169.189    20462168.8624   20462174.9534  107529441.001 8  83789192.36546
     -1228.533        -957.299
  22557391.625    22557390.7284   22557395.7134  118539960.466 7  92368793.22943
     -2061.533       -1606.389
  21716529.683    21716528.900    21716535.435   115802153.873 7  90068393.499 5
     -1977.342       -1537.934
  20016096.692    20016096.516    20016100.943   106997530.192 8  83220322.570 7
      -641.693        -499.095
  21956550.083    21956549.397    21956552.127   117164365.562 7  91127866.014 5
      3286.485        2556.156
  21658001.690    21658001.566    21658002.202   115449414.542 7  89794017.390 3
     -1961.227       -1525.373
  19895427.764    19895427.747    19895431.815   106315161.374 8  82689609.339 6
       706.115         549.201
  22236647.178    22236646.906    22236652.444   118784184.925 7  92387724.839 5
      2898.279        2254.220
  22702332.943    22702331.384    22702334.809   121484769.413 5  94488185.757 4
      4115.190        3200.704
  21956204.526    21956204.491    21956207.321   117409722.950 7  91318702.897 5
      1213.509         943.844
 11 10 10  4 12 30.0000000  0 16G05G09G12G15G17G18G26G28R03R05R06R14
                                R15R16R17R24
  24163044.298    24163043.7274   24163050.1074  126977656.821 5  98943647.54941
     -2996.119       -2334.647
  22063261.176    22063260.3104   22063266.5164  115943228.497 7  90345391.70743
      2993.566        2332.647
  24416242.038    24416241.0234   24416247.6494  128308214.445 5  99980450.41941
      4132.380        3220.058
  20468788.754    20468788.5764   20468793.3824  107564226.420 8  83816296.28147
      1546.333        1204.934
  22690120.773    22690120.8534   22690126.4244  119237405.932 7  92912282.96244
      2157.613        1681.261
  23710464.181    23710463.6104   23710470.7494  124599325.901 5  97090405.49141
      2164.026        1686.288
  20469228.444    20469227.9664   20469234.1044  107566537.074 8  83818098.38346
     -1244.321        -969.601
  22569184.464    22569183.4144   22569188.6944  118601933.168 7  92417083.65043
     -2069.740       -1612.782
  21727662.092    21727662.108    21727667.756   115861519.958 7  90114567.116 5
     -1980.097       -1540.078
  20019774.403    20019774.404    20019778.896   107017191.129 8  83235614.402 7
      -668.806        -520.182
  21938131.178    21938131.453    21938135.057   117066083.132 7  91051424.142 5
      3265.895        2540.138
  21669048.423    21669047.661    21669047.652   115508297.495 6  89839815.219 3
     -1964.019       -1527.581
  19891490.894    19891491.010    19891494.772   106294122.997 8  82673246.157 6
       696.742         541.910
  22220387.574    22220388.183    22220393.267   118697334.200 6  92320174.300 5
      2892.006        2249.340
  22679288.405    22679286.628    22679290.791   121361453.368 5  94392273.300 4
      4106.080        3193.616
  21949469.322    21949469.042    21949471.800   117373704.831 7  91290688.836 5
      1187.880         923.906
 11 10 10  4 13  0.0000000  0 16G05G09G12G15G17G18G26G28R03R05R06R14
                                R15R16R17R24
  24180150.741    24180150.2284   24180155.7924  127067549.702 5  99013693.95841
     -2996.835       -2335.219
  22046188.386    22046187.9774   22046193.4124  115853509.918 6  90275481.15143
      2987.696        2328.069
  24392663.929    24392663.3554   24392670.1254  128184316.572 5  99883906.65441
      4127.412        3216.187
  20460004.042    20460003.9014   20460008.8244  107518062.830 8  83780324.65647
      1531.211        1193.146
  22677844.480    22677844.7114   22677850.0094  119172894.580 7  92862014.38944
      2143.146        1669.981
  23698155.361    23698153.7394   23698159.8204  124534644.746 5  97040004.61341
      2148.048        1673.782
  20476377.137    20476376.6844   20476382.5884  107604102.941 8  83847370.47946
     -1260.062        -981.869
  22581022.662    22581022.2244   22581026.8404  118664146.189 7  92465561.31343
     -2077.786       -1619.054
  21738810.048    21738809.326    21738815.754   115920962.370 7  90160800.078 5
     -1982.728       -1542.126
  20023603.841    20023603.609    20023608.701   107037660.672 8  83251535.139 7
      -695.832        -541.203
  21919828.167    21919828.533    21919830.736   116968414.537 7  90975459.698 5
      3245.291        2524.110
  21680109.374    21680108.185    21680108.029   115567259.586 6  89885674.629 3
     -1966.791       -1529.724
  19887605.592    19887605.375    19887609.485   106273360.270 8  82657097.382 6
       687.446         534.676
  22204162.843    22204163.380    22204168.900   118610668.959 6  92252768.043 5
      2885.690        2244.420
  22656293.835    22656293.118    22656297.433   121238410.324 5  94296573.181 4
      4096.875        3186.446
  21942876.879    21942876.462    21942879.169   117338451.568 7  91263269.645 5
      1162.307         904.015
 11 10 10  4 13 30.0000000  0 16G05G09G12G15G17G18G26G28R03R05R06R14
                                R15R16R17R24
  24197258.261    24197257.8064   24197263.5504  127157453.173 5  99083748.59841
     -2996.842       -2335.201
  22029147.374    22029146.3924   22029152.1634  115763957.037 6  90205699.69543
      2982.457        2323.996
  24369111.915    24369112.2584   24369120.0384  128060557.008 4  99787470.68341
      4123.112        3212.796
  20451303.818    20451303.5904   20451308.5554  107472342.703 8  83744698.59247
      1516.735        1181.871
  22665649.660    22665648.9284   22665653.6704  119108806.764 6  92812075.84844
      2129.292        1659.188
  23685937.017    23685935.7964   23685942.7464  124470433.931 5  96989970.21641
      2132.622        1661.765
  20483613.631    20483612.9914   20483618.9014  107642129.783 8  83877001.78946
     -1275.098        -993.582
  22592905.963    22592904.4184   22592909.2044  118726589.585 7  92514218.50143
     -2085.149       -1624.792
  21749970.451    21749969.743    21749975.730   115980472.366 7  90207085.614 5
     -1984.647       -1543.611
  20027582.634    20027582.055    20027587.164   107058929.013 8  83268077.169 7
      -722.092        -561.631
  21901639.580    21901639.196    21901642.777   116871355.386 7  90899969.282 5
      3225.268        2508.535
  21691183.621    21691183.131    21691175.878   115626291.750 7  89931588.449 3
     -1968.794       -1531.285
  19883769.845    19883769.956    19883774.198   106252865.333 8  82641156.873 7
       678.848         527.991
  22187972.580    22187973.443    22187978.228   118524181.237 6  92185499.855 5
      2880.080        2240.066
  22633350.472    22633349.340    22633354.428   121115636.033 5  94201082.082 4
      4088.102        3179.631
  21936424.224    21936424.906    21936428.925   117303956.513 6  91236440.160 6
      1137.278         884.549
 11 10 10  4 14  0.0000000  0 16G05G09G12G15G17G18G26G28R03R05R06R14
                                R15R16R17R24
  24214366.855    24214367.6014   24214372.2534  127247360.345 5  99153806.12841
     -2996.961       -2335.305
  22012136.375    22012135.6344   22012142.1774  115674566.948 7  90136045.12243
      2976.959        2319.710
  24345587.881    24345588.1124   24345594.0084  127936933.306 4  99691140.55941
      4118.534        3209.258
  20442687.500    20442687.2814   20442692.1014  107427063.845 8  83709416.37047
      1501.955        1170.354
  22653534.577    22653533.7434   22653538.6374  119045141.032 7  92762466.20444
      2115.134        1648.148
  23673808.251    23673807.6104   23673809.2824  124406690.624 5  96940300.15241
      2116.961        1649.605
  20490936.735    20490936.1324   20490941.8714  107680613.036 8  83906988.74446
     -1290.380       -1005.492
  22604830.261    22604830.1104   22604835.0414  118789257.101 6  92563050.33743
     -2092.638       -1630.641
  21761141.229    21761140.726    21761148.111   116040045.614 6  90253420.325 5
     -1986.828       -1545.307
  20031709.672    20031709.225    20031714.155   107080990.245 8  83285235.896 7
      -748.532        -582.190
  21883565.043    21883564.340    21883566.872   116774905.012 7  90824952.346 5
      3204.827        2492.644
  21702269.981    21702269.861    21702253.697   115685389.449 7  89977553.364 3
     -1970.987       -1533.050
  19879983.568    19879983.533    19879987.526   106232632.559 8  82625420.286 6
       670.077         521.172
  22171814.747    22171815.040    22171820.736   118437866.278 6  92118366.031 5
      2874.314        2235.577
  22610458.570    22610456.881    22610462.409   120993131.823 5  94105801.039 4
      4078.941        3172.514
  21930114.789    21930114.880    21930119.487   117270217.551 6  91210198.778 5
      1112.021         864.905
 11 10 10  4 14 30.0000000  0 16G05G09G12G15G17G18G26G28R03R05R06R14
                                R15R16R17R24
  24231476.880    24231475.0904   24231481.6304  127337267.224 5  99223863.41641
     -2997.216       -2335.497
  21995157.649    21995156.2684   21995162.0334  115585338.368 6  90066516.41643
      2971.192        2315.221
  24322089.271    24322090.1734   24322096.5804  127813446.685 5  99594917.26241
      4113.463        3205.276
  20434155.214    20434155.0374   20434159.8604  107382226.367 8  83674478.08247
      1486.802        1158.548
  22641499.172    22641499.2194   22641504.0344  118981898.169 6  92713186.07244
      2100.653        1636.873
  23661766.144    23661763.5894   23661768.8794  124343415.562 5  96890994.90641
      2100.924        1637.063
  20498346.072    20498345.6544   20498351.4434  107719550.698 8  83937329.78046
     -1305.865       -1017.555
  22616798.310    22616797.3004   22616802.4774  118852145.223 7  92612054.05443
     -2100.325       -1636.614
  21772324.457    21772324.140    21772330.046   116099679.803 6  90299802.455 5
     -1989.177       -1547.134
  20035984.820    20035984.340    20035988.763   107103841.168 8  83303008.832 7
      -775.212        -602.945
  21865604.502    21865604.411    21865608.094   116679065.853 7  90750410.813 6
      3184.069        2476.495
  21713368.979    21713368.221    21713353.303   115744550.601 7  90023567.636 3
     -1973.491       -1534.884
  19876246.002    19876245.818    19876250.076   106212659.521 8  82609885.715 6
       661.077         514.171
  22155689.697    22155689.397    22155693.918   118351722.987 7  92051365.714 5
      2868.239        2230.847
  22587617.312    22587615.432    22587620.069   120870900.869 6  94010732.522 4
      4069.279        3164.994
  21923947.238    21923947.051    21923951.283   117237234.742 6  91184545.509 5
      1086.384         844.969
 11 10 10  4 15  0.0000000  0 16G05G09G12G15G17G18G26G28R03R05R06R14
                                R15R16R17R24
  24248583.276    24248583.6774   24248590.4814  127427173.888 5  99293920.55741
     -2996.697       -2335.083
  21978208.407    21978208.1024   21978214.0324  115496274.841 6  89997116.31744
      2966.218        2311.347
  24298619.803    24298617.9034   24298623.6104  127690101.736 5  99498804.35341
      4109.247        3202.039
  20425707.737    20425707.5814   20425712.5054  107337834.880 8  83639887.31647
      1472.451        1147.361
  22629546.004    22629545.6194   22629551.2624  118919083.608 7  92664239.68644
      2086.840        1626.114
