     2.11           OBSERVATION DATA    M (MIXED)           RINEX VERSION / TYPE
teqc  2012Jun6                          20151118 02:01:20UTCPGM / RUN BY / DATE
OSX ker:10.8.0|Core 2 Duo|gcc 4.2 -m64|OSX ker:10.8.0+|=+   COMMENT
     2              OBSERVATION DATA    M (MIXED)           COMMENT
CCRINEXO V2.3.3 UX  BKG Frankfurt       11-OCT-11 00:16     COMMENT
Concatenated RINEX hourly files (24/24)                     COMMENT
JPS2RIN 1.40 lnx    SAC                 10-OCT-11 01:01     COMMENT
build Feb  6 2004 (c) Javad Navigation Systems              COMMENT
Stazione Astronomica Cagliari                               COMMENT
/home/srv/htdocs/glonass/hdata/CAGZ.tps                     COMMENT
SE TPS 8b1daea3                                             COMMENT
CAGZ                                                        MARKER NAME
12725M004                                                   MARKER NUMBER
SAC                 SAC-DIST                                OBSERVER / AGENCY
AGNV7TGA2O0         TPS E_GGD           3.3 Jul,10,2008 p4  REC # / TYPE / VERS
RRA052              JPSREGANT_DD_E  NONE                    ANT # / TYPE
  4893378.7999   772650.4734  4004179.0402                  APPROX POSITION XYZ
        0.0945        0.0000        0.0000                  ANTENNA: DELTA H/E/N
     1     1                                                WAVELENGTH FACT L1/2
     7    C1    P1    P2    L1    L2    D1    D2            # / TYPES OF OBSERV
    30.0000                                                 INTERVAL
teqc windowed: start @ 2011 Oct 10 08:00:00.000             COMMENT
teqc windowed: delta = 14400.000 sec                        COMMENT
  2011    10    10     8     0    0.0000000     GPS         TIME OF FIRST OBS
    15                                                      LEAP SECONDS
                                                            END OF HEADER
 11 10 10  8  0  0.0000000  1 16G02G04G09G12G14G25G29G30R08R09R10R15
                                R16R18R19R20
  23054601.328    23054600.4824   23054606.9614  121152797.099 7  94404797.80543
      1769.417        1378.767
  23924252.527    23924252.5794   23924262.0944  125722824.027 5  97965856.24241
      -640.054        -498.720
  21530604.382    21530603.5184   21530611.5354  113144064.730 7  88164217.02645
     -2244.262       -1748.770
  20822247.721    20822247.4234   20822253.3214  109421637.515 8  85263634.56746
      -321.285        -250.348
  22223274.941    22223274.3604   22223280.8434  116784092.821 6  91000605.76343
       923.253         719.419
  21042087.791    21042087.0054   21042096.1164  110576903.868 8  86163831.55946
      1562.274        1217.364
  22231710.879    22231710.3394   22231718.9834  116828456.557 7  91035182.74844
      3458.369        2694.834
  24075751.798    24075751.0684   24075758.1094  126518926.902 5  98586201.55441
      3383.814        2636.732
  24280441.233    24280441.941    24280446.911   130020660.840 4 101127210.746 4
     -1065.033        -828.348
  19938887.891    19938888.067    19938893.266   106472544.704 8  82812000.102 7
      2208.061        1717.385
  23375412.271    23375411.194    23375422.271   124604144.187 6  96914344.679 4
      4160.186        3235.692
  24095105.658    24095104.058    24095115.610   128756839.837 5 100144217.699 4
     -2915.808       -2267.833
  20399632.135    20399632.392    20399638.634   108971164.427 8  84755370.114 6
     -1245.520        -968.735
  20792668.259    20792668.199    20792674.739   110992680.770 8  86327659.892 6
     -2421.223       -1883.170
  19519042.701    19519041.962    19519046.209   104413766.245 8  81210743.018 7
      1746.160        1358.126
  22757869.754    22757868.173    22757876.623   121696554.023 5  94652918.206 5
      4731.730        3680.223
 11 10 10  8  0 30.0000000  0 16G02G04G09G12G14G25G29G30R08R09R10R15
                                R16R18R19R20
  23044542.032    23044541.1674   23044547.6964  121099934.129 7  94363605.92643
      1754.802        1367.377
  23927960.827    23927961.3034   23927970.7404  125742306.599 5  97981037.45141
      -658.695        -513.300
  21543453.591    21543452.4184   21543460.4814  113211586.734 7  88216831.52645
     -2257.169       -1758.836
  20824103.446    20824103.3314   20824109.3214  109431390.723 8  85271234.45146
      -328.914        -256.296
  22218061.653    22218060.3884   22218067.1844  116756694.748 6  90979256.57943
       903.312         703.877
  21033191.333    21033190.6524   21033199.6174  110530152.746 8  86127402.10246
      1554.480        1211.286
  22211999.278    22211998.7374   22212006.8454  116724870.112 7  90954466.06744
      3447.404        2686.287
  24056439.529    24056438.3354   24056447.2084  126417446.291 5  98507125.78441
      3381.584        2635.003
  24286462.857    24286462.113    24286467.304   130052896.478 4 101152282.956 4
     -1083.994        -843.109
  19926518.825    19926518.857    19926524.065   106406494.424 8  82760627.665 7
      2195.308        1707.462
  23351995.804    23351995.525    23352006.366   124479323.358 6  96817261.840 4
      4161.183        3236.477
  24111493.924    24111492.760    24111504.844   128844417.844 5 100212333.630 4
     -2922.713       -2273.208
  20406672.328    20406672.843    20406679.214   109008772.974 8  84784621.158 6
     -1261.666        -981.292
  20806324.443    20806324.271    20806330.379   111065576.040 8  86384356.183 6
     -2438.427       -1896.552
  19509321.251    19509320.568    19509324.728   104361762.549 8  81170295.713 7
      1720.778        1338.382
  22731347.934    22731347.033    22731354.654   121554731.778 5  94542612.159 5
      4723.141        3673.549
 11 10 10  8  1  0.0000000  0 16G02G04G09G12G14G25G29G30R08R09R10R15
                                R16R18R19R20
  23034565.415    23034564.9114   23034570.9934  121047508.531 6  94322754.84843
      1740.379        1356.136
  23931774.529    23931774.3144   23931783.8774  125762348.250 5  97996654.25941
      -677.143        -527.638
  21556375.385    21556374.5284   21556382.7784  113279493.447 7  88269745.78945
     -2269.700       -1768.592
  20826002.801    20826002.5394   20826008.2464  109441370.458 8  85279010.84746
      -336.209        -261.981
  22212961.628    22212960.4624   22212966.5534  116729892.413 6  90958371.62443
       883.677         688.574
  21024339.229    21024338.3944   21024347.2864  110483634.488 8  86091154.09546
      1546.942        1205.408
  22192349.630    22192349.4454   22192357.9854  116621612.519 7  90874005.65144
      3436.664        2677.919
  24037141.263    24037140.8564   24037147.4324  126316030.998 5  98428100.94241
      3379.664        2633.533
  24292588.083    24292589.523    24292594.410   130085703.529 4 101177799.515 4
     -1102.786        -857.714
  19914221.164    19914221.323    19914226.850   106340826.974 8  82709552.983 7
      2182.713        1697.665
  23328575.490    23328574.106    23328584.771   124354472.250 6  96720155.433 4
      4162.400        3237.432
  24127922.234    24127921.076    24127932.885   128932200.474 4 100280608.716 4
     -2929.270       -2278.316
  20413803.354    20413803.847    20413810.012   109046863.674 8  84814247.203 6
     -1277.481        -993.598
  20820076.195    20820076.069    20820082.536   111138984.314 8  86441451.477 6
     -2455.274       -1909.652
  19499741.616    19499740.996    19499745.157   104310518.337 8  81130439.116 7
      1695.681        1318.862
  22704874.177    22704873.717    22704881.327   121413168.078 5  94432507.192 5
      4714.643        3666.947
 11 10 10  8  1 30.0000000  0 16G02G04G09G12G14G25G29G30R08R09R10R15
                                R16R18R19R20
  23024671.866    23024671.0514   23024677.5144  120995514.873 6  94282240.35643
      1726.023        1344.953
  23935691.810    23935690.9114   23935704.2174  125782940.347 5  98012700.00141
      -695.361        -541.830
  21569368.967    21569368.4454   21569376.7734  113347775.851 7  88322952.81345
     -2282.186       -1778.323
  20827943.478    20827943.1774   20827948.9434  109451568.411 8  85286957.29046
      -343.439        -267.615
  22207972.766    22207971.9974   22207978.3744  116703678.846 7  90937945.43943
       864.078         673.309
  21015530.006    21015529.2244   21015538.2084  110437341.721 8  86055081.79346
      1539.454        1199.573
  22172761.822    22172761.7924   22172769.8414  116518678.085 7  90793797.04444
      3425.864        2669.502
  24017853.344    24017851.2424   24017862.9714  126214674.037 5  98349121.53241
      3377.729        2631.984
  24298820.203    24298820.350    24298825.671   130119071.496 5 101203752.360 4
     -1121.443        -872.229
  19901994.848    19901994.779    19902000.020   106275537.423 8  82658772.218 7
      2170.100        1687.855
  23305146.414    23305145.547    23305155.924   124229585.227 6  96623021.094 4
      4163.500        3238.274
  24144384.310    24144385.616    24144397.157   129020179.245 5 100349036.294 4
     -2935.908       -2283.478
  20421022.981    20421023.215    20421029.060   109085429.003 8  84844242.410 6
     -1293.313       -1005.909
  20833922.725    20833922.284    20833928.380   111212894.517 8  86498937.156 6
     -2471.829       -1922.533
  19490302.850    19490301.914    19490306.145   104260026.837 8  81091167.967 7
      1670.617        1299.368
  22678449.221    22678448.065    22678456.114   121271858.984 5  94322600.261 5
      4706.236        3660.393
 11 10 10  8  2  0.0000000  0 16G02G04G09G12G14G25G29G30R08R09R10R15
                                R16R18R19R20
  23014860.673    23014859.3054   23014866.2624  120943957.447 6  94242065.76943
      1711.230        1333.425
  23939717.432    23939717.3914   23939725.9494  125804084.935 5  98029176.25641
      -714.060        -556.415
  21582434.751    21582433.6244   21582442.2164  113416435.121 7  88376453.48745
     -2294.940       -1788.261
  20829925.884    20829925.7054   20829931.5844  109461986.598 8  85295075.33946
      -350.951        -273.466
  22203097.090    22203096.0654   22203102.5704  116678056.741 7  90917980.13843
       844.191         657.822
  21006764.085    21006763.3004   21006772.3284  110391277.053 9  86019187.23546
      1531.670        1193.515
  22153236.348    22153236.3024   22153244.3344  116416070.959 7  90713843.49144
      3414.750        2660.840
  23998578.524    23998576.3284   23998584.7544  126113378.435 5  98270189.93141
      3375.507        2630.269
  24305155.791    24305156.280    24305161.617   130152999.914 5 101230141.089 4
     -1140.335        -886.934
  19889839.598    19889839.679    19889845.260   106210630.913 8  82608289.374 7
      2157.121        1677.763
  23281711.645    23281710.817    23281721.936   124104667.145 6  96525862.599 4
      4164.434        3239.020
  24160885.820    24160887.008    24160898.179   129108356.007 4 100417617.844 4
     -2942.584       -2288.656
  20428332.121    20428332.511    20428338.311   109124471.629 8  84874608.856 6
     -1309.382       -1018.405
  20847862.074    20847861.730    20847868.334   111287304.282 8  86556811.362 6
     -2488.674       -1935.630
  19481005.047    19481004.478    19481008.802   104210291.294 8  81052484.779 7
      1645.252        1279.643
  22652072.853    22652071.612    22652079.122   121130809.956 5  94212895.591 5
      4697.239        3653.398
 11 10 10  8  2 30.0000000  0 16G02G04G09G12G14G25G29G30R08R09R10R15
                                R16R18R19R20
  23005132.028    23005131.6074   23005138.1084  120892835.888 6  94202230.81743
      1696.739        1322.127
  23943845.337    23943844.9164   23943853.1594  125825778.567 5  98046080.34741
      -732.293        -570.617
  21595571.090    21595570.2714   21595578.8274  113485467.441 7  88430244.86045
     -2307.304       -1797.898
  20831949.816    20831949.5504   20831955.5234  109472622.543 8  85303363.07446
      -358.156        -279.088
  22198333.620    22198332.2414   22198339.2234  116653023.678 7  90898473.83543
       824.642         642.582
  20998040.956    20998040.3554   20998049.6134  110345438.118 8  85983468.56746
      1524.210        1187.700
  22133773.383    22133772.9584   22133781.2334  116313790.364 7  90634144.36244
      3403.873        2652.365
  23979312.944    23979310.5364   23979319.7854  126012142.169 5  98191304.56241
      3373.484        2628.680
  24311593.215    24311594.908    24311600.553   130187483.231 5 101256961.421 4
     -1158.671        -901.189
  19877756.555    19877756.615    19877761.789   106146107.907 8  82558104.814 6
      2144.317        1667.803
  23258271.874    23258270.844    23258280.487   123979717.248 6  96428679.377 4
      4165.481        3239.812
  24177423.748    24177424.002    24177435.483   129196725.369 4 100486349.157 4
     -2948.961       -2293.625
  20435729.414    20435730.071    20435736.172   109163989.174 8  84905344.690 6
     -1325.146       -1030.668
  20861894.553    20861893.953    20861900.120   111362208.686 8  86615070.291 6
     -2505.021       -1948.351
  19471848.366    19471847.857    19471851.935   104161309.912 8  81014388.166 7
      1620.135        1260.103
  22625743.133    22625743.036    22625751.067   120990022.146 5  94103394.065 5
      4688.549        3646.637
 11 10 10  8  3  0.0000000  0 16G02G04G09G12G14G25G29G30R08R09R10R15
                                R16R18R19R20
  22995488.178    22995487.0244   22995493.7244  120842154.480 7  94162738.84343
      1682.155        1310.781
  23948078.135    23948078.4954   23948087.8544  125848022.736 5  98063413.38041
      -750.484        -584.801
  21608778.632    21608777.7084   21608786.0434  113554873.822 7  88484327.71145
     -2319.612       -1807.490
  20834015.364    20834015.3504   20834021.3164  109483477.854 8  85311821.75146
      -365.377        -284.711
  22193682.973    22193681.2004   22193688.2714  116628582.366 6  90879428.63643
       804.979         627.255
  20989361.769    20989361.0264   20989370.2554  110299827.432 8  85947927.76746
      1516.681        1181.830
  22114373.177    22114372.8104   22114380.8204  116211840.766 7  90554703.13644
      3392.917        2643.832
  23960058.798    23960059.5114   23960068.1664  125910968.103 5  98112467.66541
      3371.557        2627.189
  24318138.920    24318137.990    24318144.396   130222521.052 4 101284213.042 4
     -1177.083        -915.498
  19865746.093    19865746.247    19865751.916   106081973.500 9  82508222.495 7
      2131.449        1657.794
  23234826.644    23234824.971    23234835.404   123854740.211 6  96331475.062 4
      4166.453        3240.568
  24193997.979    24193997.748    24194009.453   129285290.240 4 100555232.514 4
     -2955.327       -2298.573
  20443216.885    20443217.075    20443223.550   109203984.137 8  84936451.851 6
     -1341.010       -1043.003
  20876018.535    20876018.256    20876024.523   111437605.859 8  86673712.486 6
     -2521.239       -1960.964
  19462833.348    19462832.738    19462837.001   104113085.846 8  80976880.581 7
      1594.954        1240.516
  22599466.913    22599464.997    22599473.022   120849501.243 5  93994100.133 5
      4679.682        3639.753
 11 10 10  8  3 30.0000000  0 16G02G04G09G12G14G25G29G30R08R09R10R15
                                R16R18R19R20
  22985927.105    22985926.1854   22985932.3554  120791911.113 7  94123588.21843
      1667.383        1299.253
  23952414.300    23952414.3504   23952424.2664  125870812.604 5  98081171.66141
      -768.802        -599.081
  21622056.246    21622055.6554   21622063.7384  113624649.049 7  88538697.97344
     -2332.128       -1817.242
  20836122.310    20836121.9894   20836128.0774  109494548.564 8  85320448.26646
      -372.740        -290.446
  22189142.411    22189142.5724   22189148.7364  116604729.203 7  90860841.72243
       785.158         611.816
  20980725.105    20980724.2544   20980733.7114  110254441.247 9  85912561.89246
      1509.002        1175.846
  22095035.475    22095035.0034   22095042.5644  116110220.020 7  90475518.16644
      3381.735        2635.113
  23940818.814    23940818.1894   23940826.9084  125809852.904 5  98033676.65941
      3369.454        2625.549
  24324782.047    24324783.216    24324789.150   130258106.391 4 101311890.485 4
     -1195.277        -929.658
  19853808.733    19853808.653    19853814.083   106018226.583 8  82458641.559 7
      2118.252        1647.527
  23211375.201    23211374.402    23211385.955   123729734.246 6  96234248.210 4
      4167.166        3241.121
  24210608.715    24210607.435    24210619.810   129374045.553 4 100624263.975 4
     -2961.817       -2303.622
  20450792.654    20450792.919    20450799.347   109244452.569 8  84967927.263 6
     -1356.990       -1055.431
  20890233.973    20890233.597    20890239.879   111513487.523 8  86732731.485 6
     -2537.551       -1973.649
  19453959.418    19453958.811    19453962.938   104065615.661 8  80939959.340 7
      1569.597        1220.796
  22573235.665    22573236.525    22573244.170   120709246.671 5  93885013.353 5
      4670.502        3632.607
 11 10 10  8  4  0.0000000  0 17G02G04G09G12G14G25G27G29G30R08R09R10
                                R15R16R18R19R20
  22976450.326    22976449.6854   22976456.3414  120742113.637 7  94084785.02743
      1652.518        1287.661
  23956855.191    23956854.3644   23956862.3324  125894153.219 5  98099359.08341
      -787.144        -613.393
  21635405.021    21635404.6534   21635412.5514  113694797.539 7  88593359.08444
     -2344.405       -1826.807
  20838271.087    20838270.7284   20838276.8394  109505839.774 8  85329246.60646
      -380.000        -296.101
  22184717.320    22184716.3224   22184723.1844  116581470.440 7  90842718.00143
       765.422         596.423
  20972132.234    20972131.5094   20972140.7244  110209285.401 8  85877375.50346
      1501.406        1169.928
  22903272.051    22903271.3414   22903280.7064  120357507.081 6  93785086.68043
     -2044.057       -1592.761
  22075761.492    22075761.4084   22075768.7454  116008935.535 7  90396595.21944
      3370.586        2626.423
  23921588.848    23921587.4014   23921597.6524  125708802.807 4  97954936.32141
      3367.263        2623.860
  24331531.949    24331530.987    24331538.277   130294242.154 4 101339996.067 4
     -1213.605        -943.921
  19841944.748    19841944.898    19841950.561   105954875.470 8  82409368.470 7
      2105.131        1637.324
  23187920.020    23187919.751    23187929.798   123604707.259 6  96137005.021 4
      4167.963        3241.739
  24227249.597    24227253.800    24227266.543   129462994.282 4 100693445.821 4
     -2968.057       -2308.474
  20458458.286    20458458.359    20458464.589   109285400.299 8  84999775.456 6
     -1372.882       -1067.797
  20904539.726    20904539.891    20904546.269   111589855.628 8  86792128.844 6
     -2553.618       -1986.144
  19445227.751    19445227.050    19445230.901   104018905.997 8  80903629.618 7
      1544.348        1201.158
  22547060.778    22547059.240    22547067.206   120569266.810 5  93776140.242 5
      4661.458        3625.577
 11 10 10  8  4 30.0000000  0 18G02G04G09G12G14G25G27G29G30G31R08R09
                                R10R15R16R18R19R20
  22967059.233    22967058.8154   22967065.4984  120692765.318 7  94046331.81443
      1637.377        1275.876
  23961402.783    23961403.3774   23961411.1864  125918044.974 5  98117975.93741
      -805.633        -627.763
  21648825.352    21648824.7914   21648832.6854  113765319.514 7  88648311.22744
     -2356.948       -1836.584
  20840461.817    20840461.5234   20840467.5004  109517352.348 8  85338217.43846
      -387.461        -301.917
  22180404.588    22180403.6374   22180410.8974  116558807.473 6  90825058.53044
       745.451         580.867
  20963583.520    20963582.7164   20963592.1024  110164361.511 8  85842369.86346
      1493.563        1163.816
  22914968.016    22914967.3894   22914976.9144  120418969.493 6  93832979.38243
     -2053.409       -1600.046
  22056552.322    22056552.1084   22056559.2054  115907990.540 7  90317936.80544
      3359.137        2617.513
  23902372.901    23902371.0924   23902382.7664  125607819.723 5  97876248.27641
      3364.934        2622.018
  25447682.217                                   133728466.644 4
      3790.131
  24338384.526    24338383.225    24338388.991   130330926.734 4 101368528.492 4
     -1231.912        -958.170
  19830156.326    19830156.354    19830161.764   105891924.570 8  82360406.656 7
      2091.651        1626.839
  23164463.615    23164462.747    23164472.138   123479662.903 6  96039748.331 4
      4168.380        3242.055
  24243934.081    24243935.631    24243947.708   129552138.210 4 100762779.485 4
     -2974.701       -2313.633
  20466213.687    20466214.212    20466220.059   109326829.034 8  85031997.750 6
     -1389.006       -1080.334
  20918937.460    20918937.259    20918943.210   111666707.756 8  86851902.645 6
     -2569.802       -1998.729
  19436638.410    19436637.814    19436641.619   103972958.853 8  80867892.959 7
      1518.838        1181.318
  22520934.037    22520934.317    22520942.917   120429567.050 5  93667484.996 5
      4651.941        3618.173
 11 10 10  8  5  0.0000000  0 18G02G04G09G12G14G25G27G29G30G31R08R09
                                R10R15R16R18R19R20
  22957754.548    22957753.6454   22957760.4954  120643865.327 7  94008227.95443
      1622.346        1264.172
  23966053.125    23966053.3894   23966062.2174  125942484.277 5  98137019.45741
      -823.896        -641.998
  21662315.870    21662314.9854   21662322.8294  113836210.785 7  88703551.12945
     -2369.333       -1846.232
  20842694.052    20842693.8464   20842699.7754  109529083.334 8  85347358.45946
      -394.833        -307.661
  22176204.525    22176204.3314   22176211.3544  116536737.688 6  90807861.28444
       725.613         565.417
  20955078.264    20955077.6184   20955086.9904  110119667.011 8  85807542.97046
      1485.821        1157.783
  22926716.398    22926715.5954   22926724.8364  120480706.689 6  93881086.19043
     -2062.634       -1607.241
  22037407.572    22037407.2204   22037414.5994  115807384.264 7  90239542.33544
      3347.686        2608.584
  23883168.306    23883166.2244   23883175.4284  125506901.492 5  97797610.76241
      3362.708        2620.286
  25426043.641    25426042.4184   25426050.5434  133614750.475 4 104115409.48241
      3790.760        2953.818
  24345335.381    24345334.973    24345340.837   130368154.827 3 101397483.695 4
     -1250.241        -972.391
  19818442.182    19818442.576    19818447.800   105829373.661 8  82311755.947 7
      2078.141        1616.330
  23141002.654    23141001.080    23141010.384   123354600.522 6  95942477.610 4
      4168.877        3242.467
  24260652.602    24260654.826    24260666.315   129641474.182 4 100832262.532 4
     -2981.180       -2318.690
  20474058.601    20474058.864    20474065.333   109368735.854 8  85064591.901 6
     -1405.031       -1092.801
  20933423.787    20933423.454    20933429.992   111744037.896 8  86912048.252 6
     -2585.764       -2011.148
  19428191.183    19428190.448    19428194.592   103927772.009 8  80832747.652 7
      1493.392        1161.527
  22494863.242    22494862.246    22494870.946   120290148.250 5  93559048.282 5
      4642.322        3610.691
 11 10 10  8  5 30.0000000  0 17G02G04G09G12G14G25G27G29G30G31R09R10
                                R15R16R18R19R20
  22948535.052    22948534.0674   22948541.1364  120595417.649 7  93970476.57043
      1607.375        1252.492
  23970808.903    23970808.6954   23970818.9284  125967472.490 5  98156490.65741
      -842.097        -656.185
  21675875.786    21675875.3814   21675883.3704  113907471.981 7  88759079.27744
     -2381.486       -1855.705
  20844968.414    20844968.1474   20844974.0004  109541034.781 8  85356671.26446
      -402.014        -313.259
  22172118.161    22172117.3514   22172124.5444  116515263.431 6  90791128.08043
       705.918         550.066
  20946617.426    20946616.5644   20946625.9464  110075204.319 8  85772896.71146
      1478.272        1151.900
  22938517.348    22938516.4534   22938525.6724  120542720.292 6  93929408.39543
     -2071.668       -1614.291
  22018327.646    22018327.6204   22018335.2344  115707120.659 7  90161414.87944
      3336.421        2599.806
  23863978.667    23863976.0004   23863985.5614  125406050.852 5  97719025.87041
      3360.565        2618.614
  25404400.204    25404401.0664   25404408.3114  133501014.098 4 104026783.69841
      3791.685        2954.571
  19806804.260    19806804.546    19806809.905   105767228.095 8  82263420.499 7
      2064.771        1605.935
  23117537.349    23117535.512    23117545.874   123229524.717 6  95845196.452 4
      4169.438        3242.897
  24277408.488    24277407.817    24277419.951   129731001.139 3 100901894.070 4
     -2987.587       -2323.660
  20481993.847    20481994.342    20482000.235   109411123.107 8  85097559.714 6
     -1420.918       -1105.158
  20947999.116    20947999.058    20948005.497   111821843.409 7  86972563.570 6
     -2601.382       -2023.296
  19419886.571    19419885.916    19419889.986   103883348.293 8  80798195.888 7
      1468.118        1141.865
  22468843.073    22468843.920    22468852.836   120151016.115 5  93450834.533 5
      4632.914        3603.373
 11 10 10  8  6  0.0000000  0 17G02G04G09G12G14G25G27G29G30G31R09R10
                                R15R16R18R19R20
  22939401.086    22939400.7174   22939407.4144  120547419.727 6  93933075.63143
      1592.422        1240.843
  23975666.651    23975667.0764   23975676.6664  125993003.933 5  98176385.19541
      -860.125        -670.213
  21689506.096    21689505.0574   21689513.5634  113979097.023 7  88814890.93644
     -2393.603       -1865.142
  20847283.698    20847283.2934   20847289.2934  109553201.238 8  85366151.60746
      -409.202        -318.861
  22168144.643    22168143.4134   22168150.6744  116494380.334 7  90774855.51843
       686.192         534.692
  20938199.795    20938199.0294   20938208.3144  110030968.898 8  85738427.54046
      1470.670        1145.976
  22950369.726    22950368.5154   22950378.4014  120605004.814 6  93977941.70243
     -2080.698       -1621.315
  21999313.115    21999312.5584   21999320.4944  115607196.644 7  90083552.05144
      3325.071        2590.965
  23844798.272    23844797.5554   23844805.6314  125305263.685 5  97640490.43041
      3358.538        2617.033
  25382750.907    25382751.4724   25382760.1444  133387254.500 4 103938139.88441
      3792.270        2955.031
  19795242.050    19795242.252    19795247.838   105705485.751 8  82215398.666 7
      2051.278        1595.439
  23094070.338    23094069.360    23094080.076   123104433.184 6  95747903.080 4
      4169.899        3243.260
  24294199.828    24294197.721    24294211.191   129820712.248 3 100971669.412 4
     -2993.590       -2328.329
  20490017.907    20490018.257    20490024.329   109453986.111 8  85130897.567 6
     -1436.729       -1117.454
  20962662.306    20962662.155    20962668.615   111900115.681 7  87033441.942 6
     -2616.868       -2035.340
  19411723.665    19411722.994    19411726.882   103839683.203 8  80764234.174 7
      1442.811        1122.186
  22442879.952    22442878.823    22442887.463   120012168.861 5  93342842.360 5
      4623.359        3595.943
 11 10 10  8  6 30.0000000  0 17G02G04G09G12G14G25G27G29G30G31R09R10
                                R15R16R18R19R20
  22930354.057    22930353.8314   22930360.4364  120499878.368 6  93896030.45843
      1577.189        1228.979
  23980630.248    23980630.9824   23980640.2064  126019082.522 5  98196706.03641
      -878.244        -684.329
  21703205.714    21703205.3384   21703213.0844  114051089.650 7  88870989.01944
     -2405.741       -1874.602
  20849640.965    20849640.4264   20849646.4194  109565587.696 8  85375803.38446
      -416.391        -324.461
  22164284.130    22164283.2114   22164290.5644  116474093.325 6  90759047.44843
       666.463         519.319
  20929826.141    20929825.4904   20929834.6474  109986965.956 8  85704139.52946
      1463.037        1140.031
  22962274.061    22962273.9724   22962283.8294  120667564.448 6  94026689.36843
     -2089.750       -1628.380
  21980363.840    21980363.6234   21980371.6684  115507619.444 7  90005959.46144
      3313.601        2582.021
  23825633.456    23825631.6834   23825641.1004  125204545.574 5  97562008.85441
      3356.238        2615.271
  25361101.466    25361101.4714   25361109.8574  133273478.837 4 103849483.51241
      3792.918        2955.521
  19783756.862    19783756.867    19783762.110   105644154.260 9  82167696.395 7
      2037.674        1584.858
  23070601.358    23070601.202    23070610.387   122979332.884 6  95650602.849 4
      4170.311        3243.573
  24311025.047    24311023.821    24311034.445   129910615.579 3 101041593.685 4
     -2999.781       -2333.146
  20498131.825    20498132.451    20498138.358   109497329.943 8  85164609.396 6
     -1452.643       -1129.830
  20977413.238    20977413.026    20977419.784   111978856.679 8  87094684.867 6
     -2632.266       -2047.315
  19403703.828    19403703.336    19403707.178   103796782.606 8  80730867.055 7
      1417.411        1102.431
  22416967.057    22416967.567    22416976.898   119873614.962 5  93235078.363 5
      4613.725        3588.446
 11 10 10  8  7  0.0000000  0 17G02G04G09G12G14G25G27G29G30G31R09R10
                                R15R16R18R19R20
  22921395.614    22921395.1534   22921401.6224  120452797.255 7  93859343.90843
      1561.768        1216.978
  23985695.769    23985696.2214   23985706.7714  126045709.040 5  98217453.89241
      -896.570        -698.636
  21716975.422    21716975.0024   21716983.3834  114123450.364 7  88927373.93444
     -2418.041       -1884.186
  20852039.800    20852039.5584   20852045.6914  109578195.377 8  85385627.53446
      -423.854        -330.272
  22160536.653    22160536.9204   22160543.6194  116454404.632 6  90743705.58443
       646.396         503.681
  20921497.287    20921496.5224   20921505.7084  109943197.488 9  85670034.22446
      1455.125        1133.867
  22974231.800    22974230.7444   22974241.5724  120730400.089 6  94075652.11543
     -2099.035       -1635.609
  21961481.529    21961481.2624   21961489.6224  115408392.335 7  89928639.67345
      3301.777        2572.818
  23806480.456    23806478.7354   23806486.9284  125103898.834 5  97483582.85741
      3353.771        2613.339
  25339447.734    25339448.2564   25339457.0474  133159689.830 4 103760816.75841
      3793.190        2955.753
  19772349.335    19772349.368    19772354.876   105583238.580 8  82120317.524 7
      2023.626        1573.933
  23047133.013    23047131.759    23047141.681   122854228.083 6  95553299.151 4
      4170.285        3243.554
  24327881.081    24327882.297    24327894.460   130000709.709 3 101111666.368 4
     -3006.260       -2338.181
  20506336.500    20506336.956    20506343.166   109541156.232 8  85198696.469 6
     -1468.808       -1142.405
  20992251.168    20992250.976    20992257.425   112058063.414 8  87156290.041 6
     -2647.943       -2059.505
  19395827.603    19395826.850    19395830.962   103754648.580 8  80698096.159 7
      1391.762        1082.482
  22391112.056    22391113.295    22391121.708   119735359.726 5  93127546.629 5
      4603.538        3580.527
 11 10 10  8  7 30.0000000  0 17G02G04G09G12G14G25G27G29G30G31R09R10
                                R15R16R18R19R20
  22912524.410    22912523.7364   22912530.3504  120406179.398 7  93823018.33443
      1546.380        1204.966
  23990869.296    23990867.9764   23990880.3754  126072883.999 5  98238629.06841
      -914.826        -712.814
  21730815.698    21730814.8804   21730822.6434  114196178.804 7  88984045.38644
     -2430.189       -1893.652
  20854481.267    20854480.9064   20854487.1634  109591025.151 8  85395624.74946
      -431.174        -335.980
  22156903.905    22156904.0894   22156911.0824  116435315.332 6  90728830.79043
       626.486         488.165
  20913213.444    20913212.5854   20913221.8274  109899664.915 9  85636112.73946
      1447.335        1127.792
  22986241.545    22986240.5254   22986250.6194  120793512.155 6  94124830.24943
     -2108.147       -1642.702
  21942666.698    21942666.0344   21942674.4594  115309518.261 7  89851594.97444
      3290.100        2563.712
  23787341.298    23787340.2714   23787348.3624  125003325.391 5  97405213.99741
      3351.448        2611.531
  25317792.814    25317791.5124   25317799.8314  133045890.379 4 103672141.90641
      3793.625        2956.061
  19761020.049    19761020.325    19761025.861   105522742.388 8  82073264.927 7
      2009.682        1563.085
  23023662.014    23023660.808    23023672.863   122729122.244 6  95455994.638 4
      4170.361        3243.602
  24344773.072    24344778.282    24344791.344   130090995.912 3 101181888.197 4
     -3012.495       -2343.014
  20514631.291    20514631.723    20514638.203   109585466.286 8  85233159.805 6
     -1484.889       -1154.910
  21007176.297    21007175.991    21007182.821   112137733.861 7  87218255.891 6
     -2663.124       -2071.320
  19388094.501    19388093.796    19388097.638   103713282.941 8  80665922.897 7
      1366.251        1062.640
  22365316.642    22365315.535    22365324.428   119597407.995 5  93020250.966 5
      4593.556        3572.755
 11 10 10  8  8  0.0000000  0 17G02G04G09G12G14G25G27G29G30G31R09R10
                                R15R16R18R19R20
  22903741.515    22903740.8834   22903747.0644  120360025.320 6  93787054.15243
      1530.496        1192.593
  23996142.731    23996142.3084   23996152.7674  126100605.079 5  98260229.82041
      -933.344        -727.270
  21744724.718    21744724.0444   21744731.9454  114269272.441 7  89041001.40544
     -2442.734       -1903.428
  20856964.709    20856964.3744   20856970.4784  109604075.556 8  85405793.87846
      -438.891        -341.997
  22153385.847    22153385.1304   22153392.6504  116416824.427 7  90714422.28143
       606.196         472.358
  20904973.971    20904973.2894   20904982.4984  109856367.260 8  85602374.30346
      1439.112        1121.383
  22998304.723    22998303.2174   22998312.9594  120856898.746 6  94174222.29743
     -2117.639       -1650.094
  21923918.474    21923918.3304   21923926.3854  115210997.834 7  89774825.83545
      3277.893        2554.201
  23768214.695    23768214.4044   23768223.5884  124902824.404 5  97326901.57541
      3348.597        2609.297
  25296136.420    25296134.3764   25296142.7974  132932081.294 4 103583459.53941
      3793.617        2956.085
  19749770.116    19749770.247    19749775.648   105462667.745 8  82026540.208 7
      1995.244        1551.855
  23000193.394    23000192.194    23000202.832   122604016.618 6  95358690.286 4
      4169.974        3243.324
  24361704.555    24361707.806    24361722.581   130181468.598 3 101252254.869 4
     -3019.088       -2348.163
  20523016.312    20523016.942    20523023.284   109630259.067 8  85267998.588 6
     -1501.316       -1167.688
  21022187.201    21022186.825    21022193.457   112217863.264 7  87280578.703 6
     -2678.701       -2083.433
  19380505.132    19380504.588    19380508.378   103672684.490 8  80634346.338 7
      1340.286        1042.441
  22339574.328    22339574.561    22339583.215   119459761.117 5  92913192.412 5
      4582.855        3564.441
 11 10 10  8  8 30.0000000  0 16G02G04G09G12G14G25G27G29G30G31R09R10
                                R16R18R19R20
  22895048.247    22895048.0554   22895053.9284  120314343.828 6  93751458.22343
      1514.803        1180.366
  24001523.791    24001523.4444   24001532.5274  126128878.089 5  98282260.64041
      -951.613        -741.482
  21758704.590    21758703.5824   21758711.8224  114342736.718 7  89098246.24444
     -2454.991       -1912.980
  20859491.367    20859491.0534   20859497.1414  109617353.167 8  85416140.05246
      -446.389        -347.838
  22149982.529    22149982.0844   22149989.2624  116398938.445 7  90700485.14943
       586.089         456.690
  20896781.016    20896780.2074   20896789.3724  109813311.600 8  85568824.43146
      1431.145        1115.179
  23010419.529    23010418.5494   23010428.0444  120920565.983 6  94223833.03443
     -2126.942       -1657.347
  21905239.664    21905239.5204   21905247.4864  115112839.554 7  89698338.90245
      3265.887        2544.835
  23749106.528    23749105.1324   23749114.5594  124802403.607 5  97248651.65741
      3345.936        2607.207
  25274477.633    25274478.0194   25274487.1694  132818271.060 4 103494776.20341
      3793.583        2956.028
  19738600.591    19738600.859    19738606.404   105403024.103 8  81980150.707 7
      1980.893        1540.692
  22976725.797    22976724.837    22976735.587   122478920.505 6  95261393.335 4
      4169.642        3243.054
  20531492.980    20531493.472    20531500.442   109675541.395 8  85303218.121 6
     -1517.558       -1180.320
  21037284.718    21037284.599    21037290.794   112298454.088 7  87343260.402 6
     -2693.991       -2095.330
  19373060.266    19373059.818    19373063.856   103632860.818 8  80603372.378 7
      1314.512        1022.395
  22313893.047    22313892.756    22313901.938   119322429.721 5  92806379.232 5
      4572.430        3556.330
 11 10 10  8  9  0.0000000  0 16G02G04G09G12G14G25G27G29G30G31R09R10
                                R16R18R19R20
  22886444.355    22886443.6484   22886449.6454  120269129.808 6  93716226.54543
      1499.404        1168.369
  24007007.243    24007007.3114   24007017.4064  126157694.984 5  98304715.24441
      -969.533        -755.450
  21772753.224    21772752.6534   21772760.7904  114416563.490 7  89155773.53844
     -2466.813       -1922.189
  20862059.673    20862059.4784   20862065.6544  109630850.779 8  85426657.64746
      -453.492        -353.371
  22146693.203    22146692.2894   22146698.8184  116381650.892 6  90687014.31143
       566.415         441.363
  20888632.350    20888631.6534   20888640.9094  109770491.181 8  85535457.86546
      1423.523        1109.240
  23022586.261    23022586.4104   23022595.5644  120984505.999 6  94273656.33143
     -2135.760       -1664.232
  21886628.522    21886628.5054   21886636.4664  115015038.658 7  89622130.43245
      3254.155        2535.708
  23730011.135    23730010.2444   23730019.8164  124702056.517 5  97170459.15641
      3343.724        2605.462
  25252819.833    25252818.4474   25252825.7964  132704454.535 4 103406087.97341
      3794.093        2956.442
  19727511.324    19727511.477    19727516.839   105343806.987 8  81934092.942 7
      1966.848        1529.771
  22953260.675    22953258.776    22953267.860   122353829.122 6  95164100.076 4
      4169.715        3243.111
  20540060.207    20540060.838    20540067.633   109721305.856 8  85338812.644 6
     -1533.428       -1192.668
  21052466.509    21052466.263    21052472.970   112379495.441 8  87406292.518 6
     -2708.696       -2106.760
  19365759.281    19365758.590    19365762.916   103593804.873 8  80572995.540 7
      1289.160        1002.680
  22288271.112    22288270.200    22288278.581   119185410.189 5  92699808.589 5
      4562.221        3548.396
 11 10 10  8  9 30.0000000  0 16G02G04G09G12G14G25G27G29G30G31R09R10
                                R16R18R19R20
  22877929.337    22877928.3924   22877933.9804  120224380.998 7  93681357.36943
      1483.591        1156.040
  24012592.281    24012592.6604   24012603.4704  126187050.591 5  98327589.65841
      -987.829        -769.728
  21786870.021    21786869.4444   21786877.7464  114490746.955 7  89213578.76544
     -2479.012       -1931.693
  20864669.281    20864669.0704   20864675.1454  109644563.703 8  85437343.02046
      -460.980        -359.201
  22143516.170    22143515.3104   22143522.8764  116364957.463 7  90674006.42743
       546.302         425.697
  20880528.108    20880527.3124   20880536.5574  109727902.142 9  85502271.60346
      1415.490        1102.979
  23034805.277    23034804.4834   23034813.7654  121048713.851 6  94323688.32143
     -2145.004       -1671.422
  21868085.326    21868084.9784   21868092.7974  114917592.596 7  89546198.47445
      3241.999        2526.242
  23710928.547    23710927.9984   23710937.6604  124601779.544 5  97092321.29841
      3341.086        2603.463
  25231158.595    25231158.9454   25231167.2044  132590629.365 4 103317393.01641
      3794.041        2956.397
  19716501.439    19716501.691    19716506.793   105285015.381 9  81888366.126 7
      1952.288        1518.449
  22929792.870    22929791.529    22929802.351   122228740.675 6  95066809.081 4
      4169.288        3242.776
  20548716.982    20548717.560    20548724.520   109767548.407 8  85374779.011 6
     -1549.630       -1205.266
  21067731.101    21067730.957    21067737.731   112460979.792 7  87469669.164 6
     -2723.743       -2118.457
  19358601.280    19358600.634    19358604.626   103555513.185 8  80543213.122 7
      1263.365         982.620
  22262704.986    22262704.747    22262713.057   119048701.895 5  92593480.038 5
      4551.407        3539.984
 11 10 10  8 10  0.0000000  0 16G02G04G09G12G14G25G27G29G30G31R09R10
                                R16R18R19R20
  22869503.630    22869503.1464   22869508.7994  120180105.014 7  93646856.63643
      1468.034        1143.924
  24018283.319    24018283.4474   24018292.7694  126216949.749 5  98350887.66141
     -1005.619        -783.597
  21801055.552    21801054.6794   21801063.1484  114565291.662 7  89271665.48044
     -2490.804       -1940.881
  20867320.980    20867320.7644   20867326.5804  109658497.906 8  85448200.81346
      -468.095        -364.748
  22140454.005    22140452.8374   22140460.3234  116348864.258 6  90661466.23743
       526.525         410.277
  20872468.988    20872468.1584   20872477.3814  109685550.769 8  85469270.52846
      1407.804        1096.991
  23047074.932    23047074.1544   23047085.0014  121113194.541 6  94373932.92643
     -2153.824       -1678.300
  21849610.687    21849610.5474   21849618.3534  114820509.085 7  89470549.02244
      3230.117        2516.972
  23691862.469    23691860.7074   23691870.5014  124501579.478 5  97014243.38141
      3338.800        2601.668
  25209498.527    25209499.8614   25209509.7294  132476802.822 4 103228697.02541
      3794.255        2956.556
  19705573.174    19705573.411    19705578.516   105226657.832 9  81842976.915 7
      1938.006        1507.335
  22906328.961    22906327.514    22906337.607   122103663.711 6  94969527.052 4
      4169.109        3242.632
  20557465.063    20557465.447    20557471.558   109814275.217 8  85411122.034 6
     -1565.557       -1217.654
  21083078.861    21083079.011    21083085.592   112542908.989 7  87533391.835 6
     -2738.217       -2129.721
  19351586.618    19351586.025    19351590.121   103517991.608 8  80514029.681 7
      1237.941         962.842
  22237200.591    22237199.866    22237207.688   118912314.875 5  92487401.356 5
      4540.863        3531.773
 11 10 10  8 10 30.0000000  0 16G02G04G09G12G14G25G27G29G30G31R09R10
                                R16R18R19R20
  22861168.049    22861166.7684   22861172.4434  120136298.139 7  93612721.43943
      1452.463        1131.782
  24024074.563    24024073.6634   24024085.2184  126247386.089 5  98374604.20541
     -1023.479        -797.532
  21815308.166    21815307.5554   21815315.9444  114640191.053 7  89330028.58944
     -2502.508       -1950.009
  20870013.633    20870013.3424   20870019.2454  109672647.577 8  85459226.50946
      -475.182        -370.270
  22137504.238    22137503.6234   22137510.9354  116333365.502 6  90649389.25143
       506.797         394.904
  20864454.378    20864453.3344   20864462.5524  109643431.795 9  85436450.54346
      1400.141        1091.021
  23059395.653    23059395.8584   23059405.7024  121177941.970 6  94424385.38643
     -2162.637       -1685.172
  21831204.993    21831204.4354   21831211.9464  114723784.425 7  89395179.19245
      3218.219        2507.697
  23672808.073    23672808.7154   23672818.1024  124401451.387 5  96936221.58041
      3336.430        2599.806
  25187836.928    25187837.1824   25187844.8684  132362971.475 5 103139997.24941
      3794.441        2956.689
  19694725.862    19694725.775    19694731.053   105168731.857 9  81797923.369 7
      1923.691        1496.206
  22882867.092    22882865.672    22882875.293   121978595.363 6  94872251.693 4
      4168.828        3242.416
  20566302.054    20566302.360    20566308.244   109861480.358 8  85447837.083 6
     -1581.414       -1229.984
  21098508.864    21098509.025    21098515.768   112625273.821 7  87597453.324 6
     -2752.648       -2140.951
  19344715.776    19344714.904    19344719.023   103481234.862 8  80485441.106 7
      1212.542         943.088
  22211753.884    22211753.754    22211761.579   118776245.447 5  92381569.678 5
      4530.350        3523.602
 11 10 10  8 11  0.0000000  0 16G02G04G09G12G14G25G27G29G30G31R09R10
                                R16R18R19R20
  22852920.970    22852920.4984   22852925.9984  120092961.278 6  93578952.48643
      1436.605        1119.431
  24029969.256    24029968.6324   24029976.6674  126278357.303 5  98398737.56041
     -1041.331        -811.446
  21829628.391    21829627.7654   21829635.8034  114715442.396 7  89388665.93544
     -2514.312       -1959.207
  20872746.913    20872746.6744   20872752.6784  109687011.312 8  85470419.00446
      -482.435        -375.922
  22134667.889    22134667.4574   22134674.5244  116318460.324 6  90637774.80843
       486.855         379.365
  20856483.221    20856482.3904   20856491.6514  109601544.381 8  85403810.99346
      1392.328        1084.932
  23071767.221    23071767.6174   23071777.4544  121242954.402 6  94475044.32943
     -2171.562       -1692.127
  21812866.952    21812867.0234   21812874.6124  114627419.103 7  89320089.36145
      3206.096        2498.253
  23653767.695    23653766.6604   23653777.3584  124301394.808 5  96858255.45941
      3334.025        2597.945
  25166175.241    25166174.8534   25166182.5784  132249135.873 4 103051294.18341
      3794.491        2956.743
  19683958.817    19683959.120    19683964.647   105111239.107 9  81753206.777 7
      1909.073        1484.835
  22859405.875    22859404.127    22859414.128   121853536.880 6  94774984.005 4
      4168.354        3242.041
  20575228.028    20575228.650    20575234.447   109909162.776 8  85484923.361 6
     -1597.480       -1242.485
  21114020.267    21114019.827    21114026.181   112708069.654 7  87661850.040 6
     -2767.082       -2152.175
  19337987.176    19337986.478    19337990.416   103445242.411 8  80457446.984 7
      1186.943         923.177
  22186368.848    22186367.796    22186375.169   118640496.341 5  92275987.145 5
      4519.610        3515.245
 11 10 10  8 11 30.0000000  0 16G02G04G09G12G14G25G27G29G30G31R09R10
                                R16R18R19R20
  22844764.548    22844763.7354   22844770.4774  120050100.603 7  93545554.57644
      1420.968        1107.245
  24035965.572    24035964.4734   24035975.1034  126309866.674 5  98423290.27241
     -1059.011        -825.191
  21844015.720    21844014.9084   21844023.4134  114791048.904 7  89447580.02644
     -2525.913       -1968.233
  20875522.050    20875521.6384   20875527.5654  109701593.482 8  85481781.70846
      -489.497        -381.425
  22131946.147    22131945.2824   22131951.7514  116304153.060 7  90626626.26943
       467.129         364.004
  20848556.996    20848556.1834   20848565.4054  109559893.412 8  85371355.68746
      1384.618        1078.926
  23084190.403    23084190.2684   23084200.6464  121308235.350 6  94525912.50642
     -2180.293       -1698.924
  21794598.805    21794598.7704   21794606.4724  114531419.633 7  89245284.61745
      3194.069        2488.889
  23634742.230    23634741.1444   23634748.8444  124201414.994 5  96780349.14841
      3331.551        2596.041
  25144513.005    25144515.1294   25144519.8154  132135302.474 4 102962592.81141
      3794.554        2956.786
  19673275.222    19673275.249    19673280.678   105054186.943 9  81708832.856 7
      1894.529        1473.524
  22835948.066    22835946.751    22835956.983   121728495.084 6  94677729.316 4
      4167.961        3241.753
  20584244.603    20584245.135    20584251.554   109957326.828 8  85522384.242 6
     -1613.255       -1254.753
  21129610.995    21129610.711    21129617.622   112791296.562 7  87726582.033 6
     -2781.200       -2163.149
  19331402.485    19331401.770    19331405.793   103410018.719 8  80430050.782 7
      1161.523         903.409
  22161043.819    22161043.343    22161050.917   118505076.222 5  92170660.475 5
      4508.666        3506.737
 11 10 10  8 12  0.0000000  0 16G02G04G09G12G14G25G27G29G30G31R09R10
                                R16R18R19R20
  22836698.015    22836697.6764   22836704.3584  120007712.074 6  93512524.58243
      1404.909        1094.730
  24042061.977    24042062.7004   24042069.6794  126341907.616 5  98448257.19141
     -1076.941        -839.115
  21858469.436    21858468.6484   21858477.2914  114867003.334 7  89506765.23644
     -2537.700       -1977.425
  20878337.267    20878336.9604   20878342.8214  109716387.813 8  85493309.72746
      -496.790        -387.109
  22129335.999    22129334.8234   22129341.6924  116290437.694 7  90615938.96044
       447.178         348.448
  20840675.048    20840674.3204   20840683.4604  109518473.298 9  85339080.26846
      1376.719        1072.772
  23096663.022    23096662.6984   23096672.3754  121373778.166 6  94576984.72142
     -2189.229       -1705.885
  21776399.387    21776399.2904   21776407.1954  114435781.697 7  89170761.58745
      3181.785        2479.313
  23615730.832    23615729.1024   23615738.2454  124101506.834 5  96702498.71441
      3328.951        2593.978
  25122852.310    25122851.8704   25122858.5174  132021467.393 4 102873890.12941
      3794.477        2956.737
  19662673.062    19662673.205    19662678.275   104997572.255 9  81664799.212 7
      1879.750        1462.026
  22812493.454    22812492.295    22812502.800   121603466.762 6  94580485.084 4
      4167.239        3241.186
  20593350.358    20593350.764    20593356.710   110005966.376 8  85560214.950 6
     -1629.394       -1267.307
  21145280.859    21145280.682    21145287.493   112874945.385 7  87791642.171 6
     -2795.400       -2174.198
  19324960.350    19324959.612    19324963.681   103375557.694 8  80403247.769 7
      1135.913         883.485
  22135780.170    22135779.656    22135787.908   118369981.883 5  92065587.193 5
      4497.473        3498.029
 11 10 10  8 12 30.0000000  0 16G02G04G09G12G14G25G27G29G30G31R09R10
                                R16R18R19R20
  22828721.762    22828721.1754   22828728.0404  119965795.849 6  93479862.60843
      1389.178        1082.473
  24048260.491    24048261.5594   24048269.8524  126374476.960 5  98473635.85341
     -1094.540        -852.895
  21872988.665    21872988.0644   21872996.3214  114943302.537 7  89566219.10344
     -2549.121       -1986.331
  20881192.392    20881192.3724   20881198.1754  109731392.609 8  85505001.74646
      -503.720        -392.510
  22126838.386    22126837.7714   22126844.3134  116277312.691 7  90605711.66243
       427.575         333.179
  20832836.742    20832836.1094   20832845.3504  109477282.712 8  85306983.70246
      1369.127        1066.856
  23109184.331    23109183.7764   23109194.3774  121439580.219 6  94628258.94042
     -2197.767       -1712.540
  21758269.616    21758268.9184   21758276.7894  114340505.464 7  89096520.41245
      3169.751        2469.932
  23596732.436    23596731.4064   23596740.1934  124001669.186 5  96624703.19741
      3326.612        2592.168
  25101189.485    25101188.1014   25101196.2104  131907630.720 4 102785186.23241
      3794.522        2956.746
  19652152.909    19652153.087    19652158.234   104941396.131 9  81621106.669 7
      1865.122        1450.650
  22789039.444    22789038.807    22789049.591   121478452.710 6  94483251.943 4
      4166.786        3240.841
  20602544.341    20602544.726    20602551.185   110055079.940 8  85598414.330 6
     -1645.105       -1279.528
  21161029.436    21161029.052    21161035.654   112959009.566 7  87857025.369 6
     -2809.068       -2184.833
  19318660.527    19318659.989    19318663.810   103341858.093 8  80377036.975 7
      1110.557         863.763
  22110577.490    22110577.485    22110586.121   118235215.056 5  91960768.639 5
      4486.641        3489.602
 11 10 10  8 13  0.0000000  0 16G02G04G09G12G14G25G27G29G30G31R09R10
                                R16R18R19R20
  22820835.622    22820834.8994   22820841.6604  119924354.778 6  93447570.89543
      1373.502        1070.254
  24054558.051    24054558.5604   24054568.2244  126407574.972 5  98499426.47841
     -1111.999        -866.509
  21887573.454    21887572.8934   21887581.0524  115019946.255 7  89625941.41644
     -2560.479       -1995.177
  20884088.019    20884087.7424   20884093.6084  109746608.874 8  85516858.55346
      -510.683        -397.932
  22124453.411    22124452.3274   22124459.2094  116264779.121 7  90595945.21344
       407.998         317.927
  20825042.643    20825041.8724   20825051.0884  109436323.221 8  85275067.21846
      1361.541        1060.936
  23121755.766    23121755.6214   23121765.2604  121505642.037 6  94679735.58842
     -2206.299       -1719.202
  21740208.051    21740207.9374   21740215.7574  114245594.106 7  89022563.54245
      3157.682        2460.529
  23577746.966    23577745.5624   23577755.2434  123901904.140 5  96546964.23041
      3324.356        2590.412
  25079526.150    25079525.5694   25079532.8984  131793795.504 4 102696483.41841
      3794.506        2956.739
  19641715.919    19641716.067    19641721.454   104885662.803 9  81577758.521 7
      1850.433        1439.224
  22765590.661    22765590.121    22765600.241   121353456.738 6  94386032.898 4
      4166.243        3240.410
  20611827.673    20611827.807    20611833.959   110104668.365 8  85636983.049 6
     -1660.802       -1291.738
  21176854.651    21176854.474    21176860.943   113043487.438 7  87922730.327 6
     -2822.708       -2195.438
  19312502.966    19312502.372    19312506.847   103308921.278 8  80351419.456 7
      1085.249         844.082
  22085438.570    22085437.838    22085446.016   118100780.721 5  91856208.668 5
      4475.729        3481.121
 11 10 10  8 13 30.0000000  0 16G02G04G09G12G14G25G27G29G30G31R09R10
                                R16R18R19R20
  22813039.947    22813038.9114   22813045.4254  119883386.222 7  93415647.36243
      1357.794        1058.024
  24060957.025    24060956.8644   24060963.9894  126441196.070 5  98525624.67241
     -1129.350        -880.011
  21902222.672    21902222.4624   21902230.6474  115096928.948 7  89685927.87544
     -2571.681       -2003.907
  20887022.983    20887022.7354   20887028.5944  109762032.101 8  85528876.63446
      -517.506        -403.251
  22122179.584    22122179.3404   22122185.5724  116252832.244 7  90586635.92543
       388.460         302.696
  20817291.270    20817290.5544   20817299.7504  109395590.863 8  85243327.71446
      1353.997        1055.060
  23134375.830    23134375.2444   23134385.0314  121571958.698 6  94731410.81142
     -2214.742       -1725.758
  21722216.233    21722215.7874   21722223.4904  114151044.946 7  88948888.90845
      3145.628        2451.136
  23558774.707    23558772.8114   23558781.3924  123802208.077 5  96469279.00341
      3322.057        2588.628
  25057865.310    25057865.0314   25057873.3874  131679959.421 4 102607779.94441
      3794.593        2956.848
  19631361.176    19631361.301    19631366.827   104830370.613 9  81534753.482 7
      1835.736        1427.792
  22742145.809    22742145.016    22742155.073   121228477.626 6  94288826.978 4
      4165.709        3239.997
  20621198.682    20621199.007    20621205.493   110154727.251 8  85675917.684 6
     -1676.444       -1303.898
  21192755.883    21192755.952    21192762.431   113128370.648 7  87988750.559 6
     -2836.081       -2205.840
  19306487.902    19306487.186    19306491.511   103276742.562 8  80326391.565 7
      1060.041         824.476
  22060359.931    22060359.716    22060368.092   117966677.160 5  91751905.988 5
      4464.562        3472.430
 11 10 10  8 14  0.0000000  0 16G02G04G09G12G14G25G27G29G30G31R09R10
                                R16R18R19R20
  22805335.713    22805335.3474   22805341.9914  119842904.490 7  93384103.18643
      1341.217        1045.099
  24067456.324    24067456.0744   24067465.4444  126475351.511 5  98552239.25141
     -1147.477        -894.170
  21916939.237    21916938.1574   21916946.8184  115174261.441 7  89746186.90044
     -2583.637       -2013.226
  20889999.930    20889999.6214   20890005.2074  109777674.389 8  85541065.40046
      -525.146        -409.202
  22120020.790    22120019.6394   22120026.4724  116241484.526 7  90577793.52143
       368.212         286.914
  20809585.901    20809585.1064   20809594.2924  109355098.173 8  85211774.96046
      1345.694        1048.594
  23147045.432    23147045.6184   23147056.1304  121638541.590 6  94783293.47143
     -2223.933       -1732.931
  21704295.319    21704295.0634   21704302.9764  114056871.674 7  88875507.16745
      3132.763        2441.114
  23539819.664    23539817.9464   23539827.1244  123702593.917 5  96391657.61841
      3319.062        2586.259
  25036204.229    25036205.1214   25036214.6714  131566136.569 4 102519086.80741
      3793.854        2956.278
  19621092.412    19621092.401    19621098.055   104775534.958 9  81492103.518 7
      1820.095        1415.629
  22718707.035    22718705.653    22718714.398   121103529.820 6  94191645.369 4
      4164.308        3238.908
  20630659.716    20630660.256    20630666.550   110205268.908 8  85715227.798 6
     -1692.840       -1316.650
  21208735.170    21208735.022    21208741.971   113213668.095 7  88055092.959 6
     -2850.151       -2216.782
  19300616.312    19300615.708    19300619.729   103245334.543 8  80301963.103 7
      1034.033         804.246
  22035346.457    22035346.131    22035354.304   117832920.602 5  91647873.189 5
      4452.679        3463.192
 11 10 10  8 14 30.0000000  0 16G02G04G09G12G14G25G27G29G30G31R09R10
                                R16R18R19R20
  22797725.754    22797724.5624   22797731.9794  119802910.771 6  93352939.29043
      1324.968        1032.430
  24074056.382    24074057.7514   24074066.8974  126510039.755 5  98579269.00641
     -1165.032        -907.797
  21931721.424    21931720.1654   21931728.8214  115251941.855 7  89806717.02044
     -2595.123       -2022.172
  20893018.077    20893017.7174   20893023.5904  109793535.244 8  85553424.47546
      -532.301        -414.779
  22117975.351    22117974.3344   22117980.7554  116230735.494 6  90569417.63543
       348.342         271.432
  20801925.962    20801925.1664   20801934.3564  109314845.302 8  85180409.08446
      1337.795        1042.437
  23159766.793    23159766.1744   23159776.4514  121705389.722 6  94835382.81942
     -2232.677       -1739.741
  21686446.744    21686446.2334   21686454.2504  113963076.098 7  88802419.74345
      3120.202        2431.322
  23520879.815    23520878.1824   23520887.1704  123603062.334 5  96314100.55941
      3316.387        2584.191
  25014548.074    25014546.7154   25014556.8074  131452328.422 4 102430405.08841
      3793.335        2955.835
  19610909.372    19610909.500    19610914.939   104721158.254 9  81449810.527 7
      1804.874        1403.790
  22695273.474    22695272.407    22695280.822   120978615.924 6  94094490.138 4
      4163.216        3238.059
  20640211.757    20640212.188    20640218.443   110256292.983 8  85754913.124 6
     -1708.801       -1329.068
