     2.11           OBSERVATION DATA    G (GPS)             RINEX VERSION / TYPE
teqc  2013Mar15     IG&GA WUT           20150120 00:05:01UTCPGM / RUN BY / DATE
Linux 2.4.21-27.ELsmp|Opteron|gcc -static|Linux x86_64|=+   COMMENT
BIT 2 OF LLI FLAGS DATA COLLECTED UNDER A/S CONDITION       COMMENT
JOZE                                                        MARKER NAME
12204M001                                                   MARKER NUMBER
Automatic           IG&GA WUT                               OBSERVER / AGENCY
4002A27500          TRIMBLE 4000SSI     7.29                REC # / TYPE / VERS
23525               TRM14532.00     NONE                    ANT # / TYPE
  3664938.4340  1409153.9645  5009572.3074                  APPROX POSITION XYZ
        0.1980        0.0000        0.0000                  ANTENNA: DELTA H/E/N
     1     1                                                WAVELENGTH FACT L1/2
     4    L1    L2    C1    P2                              # / TYPES OF OBSERV
    16                                                      LEAP SECONDS
 SNR is mapped to RINEX snr flag value [1-9]                COMMENT
  L1: 3 -> 1; 8 -> 5; 40 -> 9                               COMMENT
  L2: 1 -> 1; 5 -> 5; 60 -> 9                               COMMENT
  2015     1    19     0     0    0.0000000     GPS         TIME OF FIRST OBS
                                                            END OF HEADER
 15  1 19  0  0  0.0000000  0  7G02G29G10G31G05G12G25
    111049.72347    194474.82046  22528844.4724   22528845.5154
 -12043529.28347  -9241649.73747  20323316.6004   20323320.5514
    340909.42345    285730.94545  24204951.9124   24204955.3934
  -7715411.48546  -5780746.92646  21784745.9024   21784749.0904
  -2601505.20045  -1921461.44045  24683688.9154   24683693.3934
   9999136.27147   7898814.61746  22638811.2234   22638814.5754
  -9732395.46847  -4620120.46046  20483110.9564   20483117.3454
 15  1 19  0  0 30.0000000  0  7G02G29G10G31G05G12G25
    197056.06647    261492.75246  22545210.9774   22545212.1844
 -12037901.25347  -9237264.25047  20324387.1984   20324391.2074
    367476.71145    306432.74145  24210007.8574   24210015.1374
  -7708469.12547  -5775337.30246  21786067.1714   21786070.4534
  -2650870.06545  -1959927.50245  24674294.9314   24674300.1944
  10120883.28047   7993682.36546  22661978.8234   22661982.7034
  -9669366.72047  -4571007.16246  20495104.7414   20495111.1884
 15  1 19  0  1  0.0000000  0  7G02G29G10G31G05G12G25
    283494.36947    328847.26146  22561659.5574   22561660.8474
 -12031838.48847  -9232540.01647  20325541.1154   20325545.2414
    394659.02745    327613.72745  24215180.1034   24215184.2174
  -7700958.20247  -5769484.64146  21787496.4364   21787499.7884
  -2699974.61946  -1998190.73845  24664951.4634   24664954.8864
  10242863.30547   8088731.68946  22685191.0404   22685194.8264
  -9605888.36847  -4521543.54046  20507184.4804   20507191.0924
 15  1 19  0  1 30.0000000  0  7G02G29G10G31G05G12G25
    370363.93647    396537.82846  22578190.3614   22578191.5804
 -12025340.47747  -9227476.61847  20326777.9994   20326781.6334
    422457.82345    349275.12245  24220470.7394   24220472.5324
  -7692876.55647  -5763187.27146  21789034.3564   21789037.5564
  -2748815.07345  -2036248.21645  24655657.2084   24655661.4164
  10365076.37947   8183962.61646  22708447.3714   22708450.6534
  -9541959.76547  -4471729.06246  20519349.4594   20519356.0354
 15  1 19  0  2  0.0000000  0  7G02G29G10G31G05G12G25
    457661.84047    464562.17146  22594802.8184   22594803.8734
 -12018407.63847  -9222074.38847  20328097.1254   20328100.6774
    450872.88545    371416.82145  24225877.6724   24225880.0524
  -7684223.97547  -5756444.99346  21790680.9354   21790684.3814
  -2797389.26145  -2074098.21045  24646413.5684   24646418.5744
  10487520.37447   8279373.47846  22731747.7204   22731751.5644
  -9477581.83947  -4421564.46746  20531600.2304   20531606.3024
 15  1 19  0  2 30.0000000  0  7G02G29G10G31G05G12G25
    545389.56647    532921.44746  22611496.3464   22611497.3424
 -12011036.87947  -9216330.92647  20329499.7144   20329503.6174
    479907.79345    394041.38845  24231403.4554   24231408.0734
  -7674996.39647  -5749254.67646  21792436.7524   21792439.9874
  -2845690.88945  -2111735.79645  24637222.2914   24637227.7064
  10610197.81147   8374966.23346  22755092.5164   22755096.0924
  -9412751.70847  -4371047.52046  20543936.8944   20543942.8024
 15  1 19  0  3  0.0000000  0  7G02G29G10G31G05G12G25
    633541.34247    601611.14746  22628271.3774   22628272.5964
 -12003232.06447  -9210249.23447  20330984.6754   20330989.0474
    509558.86745    417146.15445  24237044.9744   24237050.9524
  -7665196.90647  -5741618.72246  21794301.5664   21794304.9774
  -2893720.45545  -2149161.37145  24628081.9534   24628087.3924
  10733103.60147   8470736.92746  22778480.9264   22778484.3264
  -9347473.59147  -4320181.45946  20556359.0204   20556365.7484
 15  1 19  0  3 30.0000000  0  7G02G29G10G31G05G12G25
    722114.40847    670629.13246  22645126.0814   22645127.3354
 -11994994.34647  -9203830.21647  20332552.1974   20332556.6164
    539825.54544    440730.62045  24242805.0504   24242811.8134
  -7654825.38046  -5733537.00646  21796274.9114   21796278.8964
  -2941476.20845  -2186373.61945  24618994.9884   24619000.3694
  10856234.94046   8566683.39646  22801911.7854   22801915.4894
  -9281748.88547  -4268967.41246  20568866.0784   20568872.5724
 15  1 19  0  4  0.0000000  0  7G02G29G10G31G05G12G25
    811106.73047    739973.79946  22662060.4954   22662061.8794
 -11986324.22847  -9197074.27547  20334202.2564   20334206.3474
    570707.98244    464794.82845  24248680.8064   24248688.0744
  -7643881.77447  -5725009.52646  21798357.6504   21798361.4254
  -2988955.59146  -2223370.50945  24609960.2644   24609964.6954
  10979590.25646   8662804.37646  22825385.2514   22825389.9054
  -9215578.12447  -4217405.77646  20581457.6594   20581463.8144
 15  1 19  0  4 30.0000000  0  7G02G29G10G31G05G12G25
    900521.96647    809648.02346  22679075.7434   22679076.8684
 -11977216.06447  -9189977.01147  20335935.5444   20335939.5534
    602212.29645    489343.59845  24254676.7424   24254681.1144
  -7632358.92647  -5716030.69446  21800550.4874   21800553.9104
  -3036149.94745  -2260145.28445  24600979.0764   24600983.4014
  11103175.32547   8759104.37646  22848903.1594   22848907.1684
  -9148955.82647  -4165492.27946  20594135.8104   20594142.2454
 15  1 19  0  5  0.0000000  0  7G02G29G10G31G05G12G25
    990355.96847    879648.54646  22696170.9784   22696172.2094
 -11967672.12747  -9182540.16047  20337751.6394   20337755.6714
    634336.52545    514375.50645  24260789.5474   24260794.6354
  -7620258.87246  -5706602.08746  21802852.9914   21802856.2734
  -3083058.15745  -2296697.09145  24592052.3124   24592056.4504
  11226985.70246   8855579.95546  22872463.1974   22872466.9484
  -9081884.90147  -4113229.22946  20606898.8984   20606905.6154
 15  1 19  0  5 30.0000000  0  7G02G29G10G31G05G12G25
   1080606.74047    949973.81446  22713344.8024   22713346.1264
 -11957692.59447  -9174763.89847  20339650.4854   20339654.8344
    667080.84345    539890.60645  24267020.9414   24267026.8844
  -7607580.21747  -5696722.61746  21805265.9214   21805269.5544
  -3129677.39545  -2333023.74945  24583181.2324   24583185.0654
  11351020.33746   8952230.26146  22896066.6094   22896070.8644
  -9014365.67047  -4060616.86246  20619747.3704   20619754.2154
 15  1 19  0  6  0.0000000  0  7G02G29G10G31G05G12G25
   1171270.69347   1020621.04046  22730597.7664   22730598.6224
 -11947279.64647  -9166649.90547  20341632.3004   20341636.1804
    700443.50345    565887.47845  24273369.2444   24273374.6484
  -7594324.78447  -5686393.71746  21807788.0424   21807791.3594
  -3176007.16445  -2369124.81245  24574364.6964   24574370.0764
  11475275.91246   9049052.74246  22919711.7914   22919715.6244
  -8946400.39647  -4007656.91446  20632680.6444   20632687.1854
 15  1 19  0  6 30.0000000  0  7G02G29G10G31G05G12G25
   1262347.64247   1091590.09746  22747929.3844   22747930.1694
 -11936431.81348  -9158197.05947  20343696.6064   20343700.1344
    734426.67845    592367.90845  24279835.7104   24279840.5044
  -7580489.87246  -5675613.26246  21810420.7434   21810424.4474
  -3222042.13545  -2404996.15945  24565604.8554   24565606.5204
  11599753.24247   9146047.99846  22943398.8794   22943402.1614
  -8877987.63047  -3954348.28646  20645699.1804   20645705.7804
 15  1 19  0  7  0.0000000  0  7G02G29G10G31G05G12G25
   1353834.78847   1162878.79646  22765338.4414   22765339.3794
 -11925149.54847  -9149405.67247  20345843.2954   20345847.2344
    769029.62945    619331.25745  24286420.6704   24286425.4294
  -7566075.61846  -5664381.36046  21813163.8084   21813167.3834
  -3267780.24745  -2440636.20145  24556900.7744   24556906.7174
  11724450.20647   9243214.40246  22967127.9664   22967131.6354
  -8809128.60347  -3900691.90446  20658802.6344   20658809.2224
 15  1 19  0  7 30.0000000  0  7G02G29G10G31G05G12G25
   1445728.71147   1234484.44746  22782825.4464   22782825.9154
 -11913434.70747  -9140277.21347  20348072.6554   20348076.7234
    804251.05645    646776.48445  24293123.2724   24293127.3404
  -7551082.79247  -5652698.64746  21816017.0384   21816020.3554
  -3313220.15045  -2476043.87145  24548253.6784   24548258.5314
  11849364.30146   9340550.01046  22990898.4354   22990901.8464
  -8739825.19347  -3846689.25546  20671990.8674   20671997.1504
 15  1 19  0  8  0.0000000  0  7G02G29G10G31G05G12G25
   1538027.67247   1306405.73546  22800389.5744   22800391.0634
 -11901287.17348  -9130811.58947  20350384.3924   20350387.5334
    840091.30244    674703.96045  24299942.9534   24299947.8414
  -7535510.53947  -5640564.43046  21818979.9214   21818983.0864
  -3358358.72845  -2511216.75845  24539664.4004   24539667.2494
  11974494.45046   9438053.98646  23014709.7774   23014713.5984
  -8670077.65247  -3792340.53246  20685263.2874   20685269.4414
 15  1 19  0  8 30.0000000  0  7G02G29G10G31G05G12G25
   1630736.11447   1378646.08746  22818031.1004   22818032.7884
 -11888701.11647  -9121004.26247  20352779.1354   20352782.7814
    876556.87944    703118.65845  24306882.3994   24306887.3704
  -7519351.75847  -5627973.16546  21822055.1644   21822058.7744
  -3403186.94045  -2546147.79445  24531132.9494   24531139.9244
  12099845.77946   9535730.28446  23038563.7614   23038567.7824
  -8599880.10747  -3737641.15846  20698621.4104   20698627.6354
 15  1 19  0  9  0.0000000  0  7G02G29G10G31G05G12G25
   1723847.54546   1451200.45146  22835749.7654   22835751.1954
 -11875681.30747  -9110858.95247  20355256.6824   20355260.9964
    913643.11044    732017.01945  24313938.9974   24313944.3194
  -7502610.72147  -5614928.20546  21825240.8184   21825244.3354
  -3447705.83345  -2580837.78945  24522662.4124   24522667.3114
  12225412.34446   9633574.33746  23062457.7884   23062462.5244
  -8529237.59047  -3682595.05946  20712064.2734   20712070.4044
 15  1 19  0  9 30.0000000  0  7G02G29G10G31G05G12G25
   1817361.88747   1524068.78646  22853544.6824   22853546.4284
 -11862225.87147  -9100374.18847  20357817.2504   20357821.5764
    951352.06445    761400.62345  24321115.6584   24321119.9834
  -7485284.73647  -5601427.44446  21828537.9544   21828541.0844
  -3491911.01145  -2615283.31045  24514249.8584   24514254.0784
  12351194.75546   9731586.56246  23086393.5524   23086398.1704
  -8458148.71647  -3627201.13146  20725592.1324   20725598.5204
 15  1 19  0 10  0.0000000  0  7G02G29G10G31G05G12G25
   1911275.48546   1597248.21146  22871415.9414   22871417.7114
 -11848336.28347  -9089551.13847  20360460.3184   20360464.1864
    989682.21245    791268.27845  24328409.2494   24328415.3094
  -7467374.93247  -5587471.73546  21831945.8544   21831949.3594
  -3535800.94646  -2649483.20045  24505898.1734   24505901.4204
  12477190.02046   9829764.65146  23110369.8704   23110373.2464
  -8386615.41247  -3571460.88646  20739204.3694   20739211.0274
 15  1 19  0 10 30.0000000  0  7G02G29G10G31G05G12G25
   2005586.49547   1670737.31146  22889362.8024   22889363.8454
 -11834013.05447  -9078390.18247  20363186.1194   20363190.2224
   1028633.53045    821619.90845  24335822.2494   24335827.1374
  -7448880.23747  -5573060.29646  21835465.7014   21835468.8894
  -3579372.66045  -2683435.13745  24497606.1134   24497612.1504
  12603397.71546   9928108.26346  23134386.5584   23134390.3334
  -8314638.03547  -3515374.64346  20752901.2644   20752907.5594
 15  1 19  0 11  0.0000000  0  7G02G29G10G31G05G12G25
   2100295.78747   1744536.78646  22907385.3024   22907386.1114
 -11819253.49647  -9066889.22447  20365994.6184   20365998.5684
   1068208.98645    852458.00345  24343352.2884   24343356.7424
  -7429797.71247  -5558190.80946  21839096.8294   21839099.4674
  -3622620.16245  -2717134.40045  24489376.2864   24489381.2794
  12729819.07346  10026618.38446  23158443.3844   23158448.3074
  -8242214.32047  -3458940.58946  20766682.9644   20766689.0364
 15  1 19  0 11 30.0000000  0  7G02G29G10G31G05G12G25
   2195402.39946   1818645.83146  22925483.4504   22925484.6814
 -11804056.72348  -9055047.57647  20368886.3334   20368890.1424
   1108409.37343    883782.95845  24351001.9874   24351006.4654
  -7410125.79346  -5542862.05146  21842840.2464   21842843.7044
  -3665539.78145  -2750578.16545  24481209.3174   24481211.7204
  12856453.99746  10125294.91746  23182541.7654   23182545.4694
  -8169343.78347  -3402158.36846  20780549.8234   20780556.2474
 15  1 19  0 12  0.0000000  0  7G02G29G10G31G05G12G25
   2290904.52546   1893063.07746  22943656.7324   22943658.3624
 -11788423.28948  -9042865.68547  20371861.4574   20371865.1974
   1149234.81844    915595.02545  24358771.1824   24358776.9264
  -7389863.85146  -5527073.51746  21846695.5144   21846699.4064
  -3708128.42945  -2783764.05645  24473104.8284   24473110.0914
  12983301.05046  10224136.76846  23206679.9614   23206683.3964
  -8096026.73047  -3345028.22446  20794501.4604   20794507.9074
 15  1 19  0 12 30.0000000  0  7G02G29G10G31G05G12G25
   2386797.40847   1967784.81446  22961905.0284   22961906.2244
 -11772355.70848  -9030345.47747  20374919.1004   20374922.8984
   1190682.33745    947891.76345  24366658.8234   24366663.2664
  -7369014.26246  -5510827.09546  21850663.1394   21850666.9844
  -3750386.23446  -2816692.15045  24465063.7604   24465068.4494
  13110356.26446  10323140.81346  23230857.4504   23230861.9054
  -8022266.56247  -3287552.77946  20808537.6264   20808543.9564
 15  1 19  0 13  0.0000000  0  7G02G29G10G31G05G12G25
   2483082.41246   2042812.10446  22980226.8244   22980227.6324
 -11755850.83548  -9017484.52747  20378059.6514   20378063.5204
   1232755.31845    980675.95345  24374664.8524   24374670.1624
  -7347572.79546  -5494119.46546  21854743.0914   21854746.4914
  -3792306.98446  -2849357.60345  24457086.4614   24457089.9194
  13237622.06946  10422308.92446  23255075.4064   23255079.5554
  -7948060.20347  -3229729.65646  20822658.9424   20822665.0614
 15  1 19  0 13 30.0000000  0  7G02G29G10G31G05G12G25
   2579753.98546   2118140.62146  22998622.6234   22998623.9364
 -11738912.62348  -9004285.92547  20381282.9264   20381286.5724
   1275449.89545   1013944.44045  24382789.4534   24382795.1034
  -7325542.65446  -5476953.11346  21858935.3614   21858939.3474
  -3833890.85146  -2881760.52745  24449173.3254   24449176.9124
  13365093.74746  10521637.48646  23279332.5724   23279337.1674
  -7873411.78847  -3171562.06846  20836864.0054   20836869.9834
 15  1 19  0 14  0.0000000  0  8G02G29G10G31G05G12G25G21
   2676813.64146   2193771.53146  23017092.6414   23017093.1684
 -11721537.86248  -8990747.15747  20384589.1424   20384592.9054
   1318769.67745   1047700.12045  24391032.7594   24391037.3664
  -7302920.32946  -5459325.34146  21863240.3924   21863243.4404
  -3875131.47945  -2913896.02545  24441325.0724   24441327.9324
  13492773.61146  10621128.25846  23303629.1054   23303633.9474
  -7798318.38947  -3113047.73446  20851153.7074   20851160.3414
    -38803.05242                  24790327.3014
 15  1 19  0 14 30.0000000  0  8G02G29G10G31G05G12G25G21
   1198842.45246   1042105.68346  22735844.1404   22735846.6374
 -13279146.49748 -10204468.15647  20088186.1184   20088190.3274
   -212704.13245   -145656.05745  24099602.6284   24099606.8834
  -8855124.55546  -6668835.13946  21567865.4324   21567868.8904
  -5491447.46145  -4173362.95345  24133750.1644   24133753.7284
  12045243.90146   9493183.00646  23028173.7024   23028178.2394
  -9298197.98347  -4281785.10246  20565736.0954   20565742.3434
  -1682621.37743                  24477520.1594
 15  1 19  0 15  0.0000000  0  8G02G29G10G31G05G12G25G21
   1296672.92646   1118337.21946  22754461.0854   22754462.3984
 -13260898.24848 -10190248.73047  20091658.6954   20091662.9504
   -168133.92045   -110925.98945  24108084.2084   24108089.4014
  -8831315.42846  -6650282.57546  21572396.6004   21572399.2724
  -5531992.77445  -4204956.68145  24126034.1974   24126037.3624
  12173336.56547   9592995.43146  23052548.8804   23052552.4444
  -9222215.27647  -4222577.81346  20580195.2174   20580201.4304
  -1750909.78743  -1238234.37945  24464525.2834   24464529.1164
 15  1 19  0 15 30.0000000  0  8G02G29G10G31G05G12G25G21
   1394883.40647   1194864.89146  22773149.8894   22773150.8974
 -13242216.50348 -10175691.53947  20095213.9304   20095217.8574
   -122941.36645    -75711.02645  24116683.8254   24116688.0564
  -8806914.74746  -6631269.06346  21577039.8844   21577042.5454
  -5572188.14146  -4236277.65845  24118385.5384   24118390.5674
  12301631.84346   9692965.73346  23076962.7794   23076965.1714
  -9145791.23747  -4163026.62246  20594738.1304   20594744.5424
  -1819092.15043  -1291363.58345  24451550.4454   24451555.1344
 15  1 19  0 16  0.0000000  0  8G02G29G10G31G05G12G25G21
   1493471.88447   1271687.10846  22791910.5264   22791910.9724
 -13223100.96948 -10160796.32747  20098851.2954   20098855.1754
    -77126.74745    -40011.28745  24125401.3364   24125405.5674
  -8781922.22947  -6611794.37646  21581795.9654   21581798.8954
  -5612030.71745  -4267323.77445  24110803.9224   24110807.5094
  12430127.89746   9793092.50046  23101414.8184   23101418.7344
  -9068926.32647  -4103131.89246  20609365.0474   20609371.3414
  -1887165.90243  -1344408.03543  24438596.2984   24438594.6804
 15  1 19  0 16 30.0000000  0  8G02G29G10G31G05G12G25G21
   1592435.99146   1348802.00846  22810742.8994   22810744.5054
 -13203552.68348 -10145563.89947  20102571.2804   20102575.0314
    -30690.98745     -3827.59445  24134238.4064   24134242.3334
  -8756337.81747  -6591858.48746  21586664.7724   21586667.6324
  -5651518.26545  -4298093.22745  24103289.3364   24103291.0594
  12558823.24846   9893374.55746  23125904.4404   23125908.8594
  -8991621.75347  -4042894.57146  20624075.6304   20624082.1354
  -1955130.14843  -1397367.04245  24425664.4014   24425667.8474
 15  1 19  0 17  0.0000000  0  8G02G29G10G31G05G12G25G21
   1691773.23646   1426207.67046  22829646.0454   22829647.6044
 -13183572.58248 -10129994.98347  20106373.4844   20106377.1534
     16365.26945     32839.63745  24143192.6254   24143197.3604
  -8730162.06147  -6571461.78946  21591645.6904   21591648.7504
  -5690648.46146  -4328584.24645  24095843.2444   24095847.2774
  12687716.44146   9993810.75446  23150432.1634   23150435.7264
  -8913878.45647  -3982315.38446  20638869.5984   20638875.9524
  -2022983.25144  -1450239.64345  24412751.9494   24412754.6104
 15  1 19  0 17 30.0000000  0  8G02G29G10G31G05G12G25G21
   1791481.72746   1503902.59746  22848619.7974   22848621.0634
 -13163160.41848 -10114089.39447  20110257.7194   20110261.5414
     64042.43045     69990.71545  24152265.5654   24152272.2934
  -8703393.87047  -6550603.46546  21596739.4454   21596742.8214
  -5729417.95146  -4358794.20845  24088465.7324   24088468.5694
  12816806.57046  10094400.42446  23174997.1644   23175001.7944
  -8835696.46847  -3921394.36346  20653747.1584   20653753.1364
  -2090722.69643  -1503023.57645  24399861.7954   24399865.6284
 15  1 19  0 18  0.0000000  0  8G02G29G10G31G05G12G25G21
   1891561.43147   1581886.80146  22867664.4434   22867665.6744
 -13142314.47848 -10097845.80547  20114224.5634   20114227.9634
    112341.64545    107626.47845  24161457.1394   24161462.6954
  -8676031.51047  -6529282.14546  21601946.4834   21601949.6014
  -5767822.20346  -4388719.51245  24081157.5974   24081162.2394
  12946094.02246  10195143.87446  23199599.9374   23199604.3914
  -8757074.66747  -3860130.65146  20668708.6344   20668714.7644
  -2158345.01343  -1555716.30345  24386993.3044   24386997.8294
 15  1 19  0 18 30.0000000  0  8G02G29G10G31G05G12G25G21
   1992010.51147   1660158.83346  22886779.3024   22886780.4984
 -13121035.12148 -10081264.49747  20118274.0324   20118277.5134
    161262.66544    145746.77745  24170765.7204   24170772.1554
  -8648074.50147  -6507497.46846  21607266.5304   21607269.5084
  -5805858.01045  -4418357.81045  24073918.9904   24073922.8464
  13075578.01446  10296040.45646  23224239.9234   23224243.5104
  -8678013.62047  -3798524.66146  20683753.6264   20683760.1324
  -2225848.16143  -1608316.07245  24374147.3394   24374154.1734
 15  1 19  0 19  0.0000000  0  8G02G29G10G31G05G12G25G21
   2092825.41347   1738715.90646  22905963.8884   22905965.0144
 -13099323.64748 -10064346.47447  20122405.3904   20122408.8484
    210803.39745    184349.87345  24180193.4334   24180198.6724
  -8619523.84647  -6485250.21846  21612699.5744   21612702.3294
  -5843524.22045  -4447708.00345  24066751.3554   24066755.4584
  13205255.66046  10397087.92146  23248916.5814   23248920.2274
  -8598515.42947  -3736578.03746  20698881.1554   20698887.5204
  -2293231.77043  -1660822.77845  24361324.9834   24361329.7424
 15  1 19  0 19 30.0000000  0  8G02G29G10G31G05G12G25G21
   2194000.86546   1817553.94546  22925216.1034   22925217.2994
 -13077183.71648 -10047094.58347  20126618.7024   20126622.2894
    260960.49045    223433.35645  24189737.8594   24189742.8184
  -8590382.56047  -6462542.72446  21618245.0934   21618248.2814
  -5880820.90346  -4476770.32845  24059654.0154   24059658.1774
  13335122.60746  10498282.92546  23273629.5574   23273634.2464
  -8518583.68747  -3674293.59146  20714091.8074   20714098.1254
  -2360496.94143  -1713237.17045  24348525.0314   24348529.3334
 15  1 19  0 20  0.0000000  0  8G02G29G10G31G05G12G25G21
   2295537.65446   1896673.52746  22944538.3104   22944540.2794
 -13054613.24048 -10029507.20047  20130913.6694   20130917.0684
    311736.22943    262998.85345  24199399.6714   24199404.2194
  -8560648.33047  -6439373.20446  21623903.2144   21623906.3444
  -5917742.82846  -4505540.63945  24052628.4814   24052632.9594
  13465180.06846  10599626.37046  23298378.5304   23298382.8204
  -8438216.36747  -3611669.71946  20729385.0134   20729391.4834
  -2427639.08245  -1765555.75245  24335749.6894   24335753.1354
 15  1 19  0 20 30.0000000  0  8G02G29G10G31G05G12G25G21
   2397434.99446   1976074.06046  22963928.4804   22963930.2864
 -13031612.17648 -10011584.29147  20135290.3514   20135293.9384
    363130.88844    303046.64845  24209180.3674   24209183.1804
  -8530319.81047  -6415740.58346  21629674.5014   21629677.7944
  -5954286.13746  -4534015.88846  24045674.5314   24045678.2584
  13595427.71246  10701117.99946  23323163.8034   23323168.9734
  -8357413.19847  -3548706.22346  20744761.6764   20744767.6894
  -2494655.54645  -1817776.27545  24322996.7354   24323000.2994
 15  1 19  0 21  0.0000000  0  8G02G29G10G31G05G12G25G21
   2499692.70946   2055755.40746  22983387.7474   22983389.2594
 -13008177.37048  -9993323.41847  20139749.9624   20139753.3384
    415146.37045    343578.18445  24219078.9964   24219083.7914
  -8499394.25447  -6391642.76046  21635559.2924   21635562.7034
  -5990445.57846  -4562192.05446  24038793.4594   24038797.0694
  13725867.11946  10802759.06446  23347986.1164   23347990.9114
  -8276172.39047  -3485401.68946  20760221.4954   20760228.2234
  -2561542.01345  -1869895.53945  24310268.0504   24310272.5174
 15  1 19  0 21 30.0000000  0  8G02G29G10G31G05G12G25G21
   2602305.82646   2135713.70346  23002914.4654   23002915.7894
 -12984312.09748  -9974727.11647  20144291.4154   20144294.6974
    467779.54043    384591.02445  24229094.7194   24229099.7604
  -8467874.17547  -6367081.65746  21641557.3124   21641560.6064
  -6026221.28346  -4590069.19445  24031985.3704   24031990.7854
  13856494.48946  10904546.61046  23372843.6214   23372847.3964
  -8194497.21947  -3421758.69046  20775763.5044   20775769.8574
  -2628299.26045  -1921914.18345  24297565.0044   24297564.9344
 15  1 19  0 22  0.0000000  0  8G02G29G10G31G05G12G25G21
   2705275.22546   2215949.61546  23022508.5364   23022509.7314
 -12960014.89948  -9955794.22047  20148914.9574   20148918.7904
    521031.98243    426086.46945  24239228.1554   24239232.1754
  -8435757.38147  -6342055.60046  21647668.8644   21647672.0764
  -6061607.65646  -4617642.93245  24025251.2934   24025255.3724
  13987310.77846  11006481.34846  23397736.9604   23397741.2384
  -8112386.21247  -3357776.10146  20791388.8524   20791394.7954
  -2694923.03245  -1973828.79445  24284886.6294   24284887.7194
 15  1 19  0 22 30.0000000  0  8G02G29G10G31G05G12G25G21
   2808595.59946   2296459.01146  23042170.0404   23042171.0834
 -12935289.05548  -9936527.33447  20153620.1624   20153623.7494
    574899.87544    468061.45545  24249479.1274   24249483.7934
  -8403046.88146  -6316566.90646  21653893.3174   21653897.1274
  -6096605.12546  -4644913.67546  24018591.6384   24018596.7254
  14118311.41846  11108559.75646  23422665.6594   23422669.9614
  -8029843.11947  -3293456.82546  20807096.1174   20807102.5414
  -2761414.61545  -2025640.40245  24272233.5344   24272236.8874
 15  1 19  0 23  0.0000000  0  8G02G29G10G31G05G12G25G21
   2912266.16346   2377241.26846  23061897.5474   23061899.5634
 -12910132.94548  -9916925.17947  20158407.3374   20158410.4084
    629384.14543    510516.70645  24259845.9434   24259854.1254
  -8369741.29046  -6290614.50246  21660231.1754   21660235.3834
  -6131209.80546  -4671878.29746  24012007.1734   24012011.7454
  14249496.47246  11210781.83446  23447629.3694   23447633.7884
  -7946867.09947  -3228800.18246  20822885.9074   20822892.7644
  -2827770.89844  -2077346.52045  24259605.8804   24259610.6154
 15  1 19  0 23 30.0000000  0  8G02G29G10G31G05G12G25G21
   3016281.02746   2458291.81746  23081691.2964   23081692.4574
 -12884551.30048  -9896991.43447  20163275.4624   20163278.9324
    684480.40743    553448.79445  24270330.7984   24270334.5374
  -8335844.36347  -6264201.32246  21666681.7854   21666685.6184
  -6165422.65946  -4698537.61246  24005496.6894   24005501.5304
  14380861.12846  11313143.86746  23472627.2194   23472631.6624
  -7863462.75647  -3163809.79346  20838757.1354   20838763.8634
  -2893993.51243  -2128948.54645  24247003.7514   24247010.1984
 15  1 19  0 24  0.0000000  0  8G02G29G10G31G05G12G25G21
   3120643.78846   2539613.47446  23101550.9144   23101552.4504
 -12858538.68848  -9876721.86847  20168225.2994   20168228.7694
    740193.49143    596861.66345  24280933.6294   24280935.9154
  -8301350.52647  -6237323.01846  21673245.7834   21673249.1824
  -6199235.32346  -4724885.07546  23999061.7814   23999065.8014
  14512409.51446  11415649.10146  23497660.2104   23497664.5594
  -7779625.07647  -3098481.74846  20854711.1224   20854717.6044
  -2960075.12245  -2180440.62645  24234429.2394   24234435.7104
 15  1 19  0 24 30.0000000  0  8G02G29G10G31G05G12G25G21
   3225351.19846   2621203.68046  23121475.4834   23121477.3364
 -12832096.73048  -9856117.73747  20173257.3224   20173260.6284
    796521.53043    640753.58645  24291651.1524   24291656.1224
  -8266260.73347  -6209980.33346  21679923.2284   21679926.0184
  -6232645.89946  -4750919.21546  23992703.9804   23992708.5524
  14644139.40946  11518295.78146  23522727.4294   23522732.3174
  -7695355.90647  -3032817.47646  20870746.7184   20870753.2594
  -3026014.78145  -2231822.18445  24221881.0514   24221885.0494
 15  1 19  0 25  0.0000000  0  8G02G29G10G31G05G12G25G21
   3330400.68046   2703060.43046  23141466.1684   23141468.4304
 -12805226.57948  -9835179.95647  20178370.2524   20178373.4994
    853463.33144    685123.87945  24302488.1554   24302491.0864
  -8230576.14147  -6182174.16646  21686713.9044   21686716.5414
  -6265652.60646  -4776638.68046  23986422.9454   23986428.6184
  14776048.75446  11621082.27346  23547828.5884   23547832.5154
  -7610656.67147  -2966818.11346  20886864.7844   20886870.7744
  -3091811.81345  -2283092.53245  24209360.5244   24209364.2514
 15  1 19  0 25 30.0000000  0  8G02G29G10G31G05G12G25G21
   3435785.93746   2785178.81746  23161519.9454   23161522.0904
 -12777932.90148  -9813912.16047  20183564.0344   20183567.4804
    911014.10243    729968.59845  24313439.4024   24313445.6974
  -8194300.55647  -6153907.48546  21693616.9634   21693620.0694
  -6298256.70746  -4802044.42046  23980218.8524   23980222.9544
  14908132.49446  11724004.63546  23572963.3414   23572967.1274
  -7525532.13947  -2900487.31046  20903063.1904   20903069.9194
  -3157468.14145  -2334253.26645  24196866.8834   24196869.4154
 15  1 19  0 26  0.0000000  0  8G02G29G10G31G05G12G25G21
   3541509.17346   2867560.54846  23181638.4784   23181640.1894
 -12750211.02248  -9792310.68847  20188839.2144   20188842.7904
    969176.80343    775290.25845  24324506.9554   24324515.0084
  -8157429.82947  -6125177.05346  21700632.9564   21700635.8994
  -6330451.34246  -4827131.10546  23974092.2184   23974096.0634
  15040393.45046  11827065.04346  23598132.2934   23598137.1924
  -7439978.96747  -2833822.50546  20919343.5954   20919350.2304
  -3222977.94645  -2385299.83145  24184400.3534   24184405.2414
 15  1 19  0 26 30.0000000  0  8G02G29G10G31G05G12G25G21
   3647568.86146   2950204.50046  23201820.9824   23201822.4824
 -12722060.90048  -9770375.52947  20194196.2374   20194199.5314
   1027951.66943    821088.87645  24335691.9314   24335697.1594
  -8119963.38447  -6095982.42946  21707762.8034   21707765.5224
  -6362233.04546  -4851896.03146  23968044.2774   23968047.7004
  15172831.44846  11930263.45346  23623333.8724   23623337.9754
  -7353997.06347  -2766823.63746  20935705.3504   20935711.7154
  -3288338.09945  -2436229.82445  24171962.6934   24171967.9794
 15  1 19  0 27  0.0000000  0  8G02G29G10G31G05G12G25G21
   3753960.29646   3033106.91246  23222066.4364   23222067.4684
 -12693486.19148  -9748109.52747  20199633.6994   20199637.0754
   1087334.97743    867361.58745  24346991.7874   24346997.5664
  -8081904.12747  -6066325.89246  21715005.6484   21715008.0874
  -6393601.94046  -4876339.27746  23962075.5334   23962078.6754
  15305442.05146  12033596.35246  23648569.3824   23648573.2854
  -7267589.98647  -2699493.47046  20952148.2884   20952154.7714
  -3353549.57245  -2487043.91245  24159553.5154   24159557.0554
 15  1 19  0 27 30.0000000  0  8G02G29G10G31G05G12G25G21
   3860680.58846   3116265.61446  23242374.7734   23242375.8044
 -12664487.74748  -9725513.34047  20205151.9794   20205155.2144
   1147325.14843    914107.21045  24358406.6104   24358412.0844
  -8043253.03947  -6036208.17146  21722360.4234   21722363.6704
  -6424556.05646  -4900459.30346  23956184.9324   23956188.6254
  15438223.29346  12137062.27346  23673836.2374   23673841.2184
  -7180759.20947  -2631833.11646  20968671.3404   20968678.0454
  -3418611.47845  -2537741.47445  24147172.3014   24147177.9984
 15  1 19  0 28  0.0000000  0  8G02G29G10G31G05G12G25G21
   3967727.64446   3199678.90346  23262744.9154   23262746.4164
 -12635066.24248  -9702587.49747  20210750.8404   20210753.6424
   1207921.69542    961325.24445  24369938.6504   24369944.0194
  -8004010.23747  -6005629.37046  21729827.5314   21729831.0714
  -6455092.59546  -4924253.97646  23950373.1024   23950377.4164
  15571173.94546  12240660.13546  23699136.4394   23699141.4324
  -7093505.41047  -2563843.13046  20985275.4634   20985282.0854
  -3483521.84645  -2588320.97345  24134819.6804   24134823.9364
 15  1 19  0 28 30.0000000  0  7G02G29G31G05G12G25G21
   4075103.67046   3283348.53646  23283178.0754   23283179.5524
 -12605217.72048  -9679328.91947  20216430.8814   20216433.6824
  -7964172.21446  -5974586.75246  21737408.1894   21737412.1044
  -6485205.00546  -4947718.15146  23944642.8494   23944647.1044
  15704296.66746  12344392.12246  23724468.6014   23724474.3214
  -7005825.38347  -2495521.02646  21001960.4084   21001966.8324
  -3548275.03644  -2638777.92045  24122498.0844   24122503.4414
 15  1 19  0 29  0.0000000  0  7G02G29G31G05G12G25G21
   4182804.65046   3367271.37846  23303673.0784   23303674.1214
 -12574944.50948  -9655739.40547  20222191.6384   20222195.0964
  -7923740.67347  -5943081.64946  21745102.3174   21745106.1624
  -6514892.84546  -4970851.51246  23938993.8494   23938998.4214
  15837588.78846  12448256.07946  23749833.0654   23749837.9184
  -6917721.77447  -2426868.87846  21018725.9234   21018732.1364
  -3612870.72445  -2689112.22845  24110205.4854   24110210.5374
 15  1 19  0 29 30.0000000  0  7G02G29G31G05G12G25G21
   4290828.72046   3451446.00146  23324229.4614   23324230.0124
 -12544246.94548  -9631819.22347  20228033.2254   20228036.6364
  -7882715.55447  -5911114.03546  21752909.3124   21752912.2424
  -6544152.17646  -4993650.94646  23933426.5944   23933429.6894
  15971049.08146  12552251.07646  23775230.1424   23775234.9014
  -6829195.12647  -2357887.08646  21035572.0694   21035578.6224
  -3677306.86645  -2739322.13445  24097944.0494   24097948.0584
 15  1 19  0 30  0.0000000  0  7G02G29G31G05G12G25G21
   4399175.62446   3535872.14846  23344847.4334   23344848.3004
 -12513123.70748  -9607567.34747  20233955.6024   20233958.7084
  -7841095.33046  -5878682.70846  21760829.3374   21760832.7134
  -6572979.13846  -5016113.47046  23927940.6104   23927944.5964
  16104677.81346  12656377.33446  23800659.0314   23800663.0404
  -6740244.39747  -2288574.84346  21052498.8924   21052505.3514
  -3741579.89045  -2789405.02845  24085713.2734   24085719.1584
 15  1 19  0 30 30.0000000  0  7G02G29G31G05G12G25G21
   4507839.60946   3620545.38246  23365525.1874   23365526.0774
 -12481578.42048  -9582986.59447  20239958.4564   20239961.4094
  -7798884.07346  -5845790.82046  21768861.5824   21768865.6734
  -6601375.00746  -5038240.07646  23922536.8854   23922540.8474
  16238470.18546  12760631.09745  23826118.2044   23826122.7404
  -6650874.01947  -2218935.60746  21069505.2664   21069511.6544
  -3805691.96245  -2839362.45945  24073513.8434   24073518.4734
 15  1 19  0 31  0.0000000  0  7G02G29G31G05G12G25G21
   4616820.21146   3705465.33446  23386263.6504   23386264.5414
 -12449610.41348  -9558076.45047  20246041.7534   20246045.2224
  -7756080.35946  -5812437.27446  21777006.8884   21777010.6744
  -6629335.10046  -5060027.11746  23917216.2774   23917220.7904
  16372426.98946  12865012.97545  23851609.5274   23851614.2754
  -6561083.13647  -2148968.70946  21086591.8274   21086598.4274
  -3869638.60745  -2889190.95845  24061344.5084   24061349.6664
 15  1 19  0 31 30.0000000  0  7G02G29G31G05G12G25G21
   4726114.16246   3790629.45946  23407061.6124   23407063.4644
 -12417221.17048  -9532838.07747  20252205.2174   20252208.6404
  -7712685.69146  -5778623.25646  21785264.8914   21785268.9594
  -6656858.13346  -5081473.59146  23911978.2644   23911982.7654
  16506545.57646  12969520.85245  23877131.7324   23877134.7454
  -6470873.81647  -2078675.75646  21103758.2104   21103765.0794
  -3933419.61045  -2938890.41845  24049206.8844   24049212.0774
 15  1 19  0 32  0.0000000  0  7G02G29G31G05G12G25G21
   4835720.10446   3876036.67446  23427919.0304   23427920.6124
 -12384409.86048  -9507270.81847  20258449.2844   20258452.2034
  -7668699.68647  -5744348.44146  21793635.5124   21793639.1464
  -6683940.74646  -5102576.89146  23906825.1914   23906827.6414
  16640825.78746  13074154.77346  23902684.7874   23902688.7024
  -6380245.90947  -2008056.61946  21121004.0574   21121010.7624
  -3997032.38845  -2988458.80045  24037102.4464   24037106.1274
 15  1 19  0 32 30.0000000  0  7G02G29G31G05G12G25G21
   4945638.57546   3961687.44446  23448835.9724   23448836.8284
 -12351175.21348  -9481373.68847  20264773.4764   20264776.4424
  -7624120.26747  -5709611.26546  21802118.7084   21802121.6154
  -6710577.89446  -5123333.07146  23901756.1684   23901759.4034
  16775268.47646  13178915.27045  23928268.2314   23928271.8884
  -6289198.12947  -1937110.33346  21138329.9694   21138336.2284
  -4060472.91345  -3037892.97045  24025029.7464   24025033.0874
 15  1 19  0 33  0.0000000  0  7G02G29G31G05G12G25G21
   5055864.10346   4047577.47946  23469810.7574   23469811.4374
 -12317520.44648  -9455149.19347  20271177.7784   20271180.9904
  -7578950.97247  -5674414.41646  21810713.9054   21810716.8704
  -6736770.48846  -5143742.86146  23896771.5994   23896774.8814
  16909869.17946  13283798.87945  23953882.0554   23953885.0444
  -6197734.42847  -1865839.94746  21155734.9354   21155740.9954
  -4123742.26845  -3087193.71645  24012989.8454   24012995.5424
 15  1 19  0 33 30.0000000  0  7G02G29G31G05G12G25G21
   5166394.47646   4133705.04946  23490843.6714   23490844.7264
 -12283446.46848  -9428598.04647  20277661.8354   20277664.9064
  -7533192.39346  -5638758.39546  21819421.5684   21819425.1204
  -6762515.76746  -5163804.07346  23891872.1954   23891875.9104
  17044626.46846  13388804.56345  23979524.5774   23979528.7154
  -6105855.80347  -1794246.23746  21173219.0034   21173225.2984
  -4186838.87345  -3136359.91945  24000983.5764   24000988.6874
 15  1 19  0 34  0.0000000  0  7G02G29G31G05G12G25G21
   5277227.44246   4220068.38646  23511935.0534   23511936.1084
 -12248953.58248  -9401720.46647  20284225.5674   20284228.8724
  -7486845.31647  -5602643.79046  21828240.8454   21828244.3734
  -6787811.32246  -5183514.83746  23887059.1224   23887062.7204
  17179538.78846  13493930.97645  24005198.3824   24005202.4034
  -6013563.17247  -1722329.90946  21190781.6724   21190788.3894
  -4249760.98245  -3185390.10745  23989009.9384   23989015.7174
 15  1 19  0 34 30.0000000  0  7G02G29G31G05G12G25G21
   5388361.57646   4306666.42846  23533082.9364   23533083.5224
 -12214041.79148  -9374516.46947  20290869.2084   20290872.2904
  -7439909.03047  -5566070.07046  21837172.5124   21837175.9474
  -6812653.95546  -5202872.68546  23882331.5374   23882336.9764
  17314605.62146  13599177.85245  24030900.6154   24030905.4914
  -5920856.71047  -1650091.12346  21208423.1514   21208429.8214
  -4312505.89045  -3234282.25645  23977069.5574   23977073.0624
 15  1 19  0 35  0.0000000  0  7G02G29G31G05G12G25G21
   5499795.23646   4393497.83846  23554288.5064   23554289.6084
 -12178711.71448  -9346986.54747  20297591.9104   20297594.9464
  -7392384.34847  -5529037.86646  21846216.4034   21846219.6854
  -6837041.11446  -5221875.63546  23877691.1254   23877695.0634
  17449826.47546  13704544.75845  24056632.6574   24056637.0534
  -5827737.03747  -1577530.36346  21226143.3114   21226149.9574
  -4375071.71145  -3283034.79645  23965163.5344   23965168.9144
 15  1 19  0 35 30.0000000  0  7G02G29G31G05G12G25G21
   5611528.18146   4480562.49146  23575550.5504   23575550.7144
 -12142961.12448  -9319128.94047  20304395.1664   20304398.4134
  -7344269.61947  -5491545.87946  21855372.3764   21855375.4714
  -6860968.35246  -5240520.17546  23873137.4374   23873141.7864
  17585201.10746  13810031.49045  24082393.2584   24082397.8884
  -5734203.37147  -1504646.98846  21243941.9944   21243948.5824
  -4437454.71545  -3331644.91745  23953292.1704   23953296.6124
 15  1 19  0 36  0.0000000  0  7G02G29G31G05G12G25G21
   5723556.19146   4567857.04746  23596868.3194   23596869.1754
 -12106793.07748  -9290946.03947  20311277.8854   20311281.0154
  -7295567.38847  -5453596.10446  21864640.0724   21864643.3194
  -6884435.66146  -5258806.37546  23868671.6014   23868677.2634
  17720726.97246  13915636.02545  24108183.0534   24108187.5774
  -5640258.52247  -1431443.23246  21261819.1394   21261825.8324
  -4499655.11145  -3380112.74045  23941456.3584   23941460.9884
 15  1 19  0 36 30.0000000  0  7G02G29G31G05G12G25G21
   5835876.75246   4655379.55946  23618242.5434   23618242.3674
 -12070208.50248  -9262438.56847  20318239.4014   20318242.6484
  -7246278.65547  -5415189.30346  21874019.5974   21874022.6924
  -6907440.53346  -5276732.23246  23864294.1654   23864297.8934
  17856401.70146  14021356.56345  24134000.8714   24134004.8334
  -5545903.77947  -1357920.05946  21279774.5194   21279780.8734
  -4561671.86245  -3428437.47745  23929654.8674   23929657.7744
 15  1 19  0 37  0.0000000  0  7G02G29G31G05G12G25G21
   5948489.72646   4743129.92446  23639671.8024   23639672.0724
 -12033205.68148  -9233605.19747  20325281.1914   20325284.3794
  -7196401.75247  -5376324.19946  21883510.9574   21883513.6654
  -6929978.11946  -5294293.92746  23860005.0634   23860009.6594
  17992226.90046  14127194.35545  24159847.3524   24159851.2554
  -5451138.13347  -1284076.72946  21297807.6024   21297814.0614
  -4623500.66445  -3476615.75245  23917889.3284   23917893.8064
 15  1 19  0 37 30.0000000  0  7G02G29G31G05G12G25G21
   6061391.94246   4831105.67646  23661156.4564   23661156.8204
 -11995786.82347  -9204447.63947  20332401.7014   20332404.7264
  -7145938.90847  -5337002.51346  21893113.6104   21893116.5294
  -6952047.55646  -5311490.84746  23855805.2764   23855809.0504
  18128199.46246  14233147.00145  24185722.2824   24185726.3154
  -5355963.60647  -1209914.77646  21315918.7334   21315925.1344
  -4685140.75645  -3524646.99145  23906159.2724   23906164.2424
 15  1 19  0 38  0.0000000  0  7G02G29G31G05G12G25G21
   6174582.63446   4919306.21346  23682696.0734   23682697.5624
 -11957950.38148  -9174964.68847  20339601.7864   20339604.7164
  -7094889.10847  -5297223.45446  21902828.0064   21902831.2064
  -6973644.77346  -5328319.76246  23851695.4474   23851699.9364
  18264319.95746  14339214.88845  24211625.3794   24211629.7514
  -5260379.66647  -1135433.80446  21334107.8594   21334114.5644
  -4746589.41145  -3572529.04545  23894466.1234   23894471.5514
 15  1 19  0 38 30.0000000  0  7G02G29G31G05G12G25G21
   6288058.45146   5007728.92646  23704289.9914   23704291.7494
 -11919698.45248  -9145157.99347  20346880.6854   20346883.5574
  -7043254.10347  -5256988.38946  21912653.8724   21912657.2014
  -6994768.78146  -5344779.96046  23847675.6074   23847681.2574
  18400585.54746  14445395.84845  24237556.1364   24237560.7434
  -5164388.57047  -1060635.54946  21352373.8994   21352380.2284
  -4807845.81345  -3620261.32545  23882809.4934   23882814.6164
 15  1 19  0 39  0.0000000  0  7G02G29G31G05G12G25G21
   4826399.66546   3868774.00746  23426145.0294   23426146.7064
 -13456451.36748 -10342627.80647  20054446.4054   20054449.7694
  -8566454.44447  -6443897.75246  21622798.3384   21622801.6674
  -8590839.39446  -6588471.30946  23543953.5464   23543959.1144
  16961578.17546  13324091.37445  23963722.5524   23963725.7404
  -6643409.72747  -2213119.57746  21070925.7924   21070932.2044
  -6444331.70945  -4895445.11345  23571396.9434   23571400.2484
 15  1 19  0 39 30.0000000  0  7G02G29G31G05G12G25G21
   4940438.49446   3957635.43046  23447845.8434   23447846.8394
 -13417371.19548 -10312175.72047  20061883.1824   20061886.4054
  -8513652.91947  -6402753.70846  21632846.2384   21632849.4154
  -8611011.33646  -6604189.64446  23540115.0524   23540120.1164
  17098128.57846  13430494.26845  23989706.6734   23989710.6584
  -6546608.87547  -2137690.36646  21089346.7354   21089352.9244
  -6505199.55845  -4942874.60245  23559813.7954   23559818.8244
 15  1 19  0 40  0.0000000  0  7G02G29G31G05G12G25G21
   5054756.35346   4046714.31546  23469600.0304   23469601.5774
 -13377876.79748 -10281400.86547  20069398.7594   20069401.4324
  -8460268.07047  -6361155.13546  21643004.9144   21643008.2904
  -8630702.55446  -6619533.38446  23536367.9404   23536371.7734
  17234820.79345  13537007.64245  24015718.1184   24015722.7844
  -6449403.45147  -2061945.89146  21107844.2204   21107850.9724
  -6565869.54345  -4990149.88845  23548268.0644   23548272.3784
 15  1 19  0 40 30.0000000  0  7G02G29G31G05G12G25G21
   5169349.72446   4136007.82946  23491406.6124   23491407.4684
 -13337970.43448 -10250305.00547  20076992.5434   20076995.7904
  -8406302.08847  -6319103.72246  21653274.1714   21653277.2304
  -8649912.43746  -6634502.07646  23532712.3024   23532716.3114
  17371651.41445  13643628.89345  24041755.9814   24041762.4754
  -6351796.00647  -1985888.12746  21126418.2214   21126424.7854
  -6626341.30945  -5037270.74345  23536760.7934   23536764.8374
 15  1 19  0 41  0.0000000  0  7G02G29G31G05G12G25G21
   5284215.70946   4225513.80646  23513265.0494   23513265.6234
 -13297653.40348 -10218889.13047  20084664.7244   20084668.1464
  -8351756.44747  -6276600.62746  21663653.6524   21663657.1804
  -8668639.12046  -6649094.25446  23529148.3294   23529153.0534
  17508618.80845  13750356.67545  24067820.2244   24067826.3664
  -6253788.13647  -1909518.37246  21145068.4344   21145075.0804
  -6686613.84145  -5084236.33745  23525291.3994   23525296.0884
 15  1 19  0 41 30.0000000  0  7G02G29G31G05G12G25G21
   5399352.74046   4315230.96246  23535174.5784   23535174.2734
 -13256925.36448 -10187152.99547  20092414.7834   20092417.9844
  -8296631.70647  -6233646.28446  21674143.6304   21674147.5224
  -8686880.48646  -6663308.26846  23525677.8604   23525682.5844
  17645722.45146  13857190.67945  24093910.4324   24093916.4344
  -6155380.70447  -1832837.25246  21163794.8664   21163800.8324
  -6746685.40645  -5131045.32945  23513860.3254   23513867.1124
 15  1 19  0 42  0.0000000  0  7G02G29G31G05G12G25G21
   5514759.19546   4405158.06946  23557135.7634   23557136.4084
 -13215786.72848 -10155096.91247  20100243.4574   20100246.6454
  -8240928.05747  -6190240.85546  21684744.0184   21684747.5814
  -8704633.11846  -6677141.41346  23522299.2024   23522302.6844
  17782960.97946  13964129.75845  24120026.4104   24120030.0564
  -6056574.27847  -1755845.25746  21182596.9594   21182603.4304
  -6806553.49145  -5177695.81645  23502468.3514   23502472.1374
 15  1 19  0 42 30.0000000  0  8G02G29G10G31G05G12G25G21
   5630431.19446   4495292.07246  23579147.7824   23579148.4034
 -13174239.80448 -10122722.69247  20108149.5514   20108153.0914
  -3078265.17141                  24453991.9284
  -8184648.23047  -6146386.45746  21695453.9014   21695457.2064
  -8721896.64546  -6690593.46746  23519013.8484   23519018.2444
  17920331.78946  14071171.96145  24146166.6894   24146170.3934
  -5957371.36547  -1678544.28746  21201474.9014   21201481.2904
  -6866217.59545  -5224187.30545  23491114.1844   23491116.6694
 15  1 19  0 43  0.0000000  0  7G02G29G31G05G12G25G21
   5746370.17046   4585634.13246  23601210.0714   23601210.4234
 -13132281.83448 -10090028.17147  20116133.7974   20116137.0684
  -8127789.57247  -6102081.01846  21706273.6024   21706276.9314
  -8738665.33646  -6703659.94646  23515823.4334   23515827.8414
  18057836.60946  14178318.52945  24172333.1754   24172337.0194
  -5857769.61747  -1600932.56046  21220428.4144   21220434.6624
  -6925672.88645  -5270516.09845  23479800.5974   23479803.3634
 15  1 19  0 43 30.0000000  0  7G02G29G31G05G12G25G21
   5862569.83346   4676179.31246  23623322.0624   23623323.0004
 -13089917.50848 -10057017.01147  20124195.4264   20124198.8964
  -8070357.25747  -6057328.58046  21717202.6034   21717205.8734
  -8754941.28446  -6716342.45346  23512725.8584   23512729.2114
  18195469.65845  14285565.04045  24198523.5724   24198528.7074
  -5757774.27447  -1523014.12546  21239456.8544   21239463.0434
  -6984921.59245  -5316683.92245  23468525.6214   23468528.8334
 15  1 19  0 44  0.0000000  0  7G02G29G31G05G12G25G21
   5979030.48146   4766927.86846  23645483.7904   23645484.7514
 -13047145.06748 -10023687.86047  20132334.8084   20132338.0314
  -8012349.75247  -6012127.93446  21728241.0864   21728244.2744
  -8770719.84846  -6728637.36646  23509722.9804   23509726.7784
  18333232.65345  14392912.78345  24224739.9474   24224744.6714
  -5657384.23147  -1444788.14646  21258560.4254   21258566.9434
  -7043959.94745  -5362687.80345  23457290.4434   23457294.3584
 15  1 19  0 44 30.0000000  0  7G02G29G31G05G12G25G21
   6095750.02746   4857878.15046  23667694.6744   23667695.3664
 -13003964.45548  -9990040.63047  20140551.7294   20140554.5784
  -7953767.42147  -5966479.37546  21739389.1444   21739392.2854
  -8785998.29346  -6740542.63746  23506815.5354   23506820.4594
  18471124.77245  14500361.18945  24250979.2474   24250984.1474
  -5556599.99447  -1366254.99646  21277739.2904   21277745.6674
  -7102785.69045  -5408526.04745  23446096.4744   23446101.0814
 15  1 19  0 45  0.0000000  0  7G02G29G31G05G12G25G21
   6212721.96646   4949025.08546  23689953.6204   23689955.6484
 -12960381.28448  -9956079.70547  20148845.3004   20148848.4534
  -7894616.00947  -5920387.37646  21750645.0524   21750648.3234
  -8800779.62546  -6752060.54346  23504002.9474   23504007.6364
  18609139.42445  14607905.05445  24277242.3334   24277247.6664
  -5455427.48247  -1287419.27846  21296991.6244   21296998.1184
  -7161402.04945  -5454201.10945  23434942.6874   23434947.5874
 15  1 19  0 45 30.0000000  0  7G02G29G31G05G12G25G21
   6329950.48346   5040371.95646  23712261.4024   23712263.4654
 -12916389.91648  -9921800.69947  20157216.6384   20157219.8744
  -7834890.24647  -5873847.82746  21762010.3584   21762013.8634
  -8815054.96146  -6763184.12646  23501286.6694   23501289.9284
  18747281.64746  14715548.34345  24303530.4194   24303535.6234
  -5353861.37147  -1208276.88146  21316319.2104   21316325.0834
  -7219800.77445  -5499706.60245  23423829.5884   23423832.3434
 15  1 19  0 46  0.0000000  0  7G02G29G31G05G12G25G21
   6447431.40946   5131915.50346  23734617.0064   23734618.5884
 -12871993.13048  -9887205.78147  20165664.8204   20165668.5014
  -7774592.96047  -5826862.93446  21773484.5414   21773487.9054
  -8828824.10846  -6773913.27146  23498666.4174   23498670.2974
  18885548.15146  14823288.43645  24329841.8134   24329845.1194
  -5251904.88847  -1128830.30746  21335720.8294   21335726.8074
  -7277982.06745  -5545042.68145  23412758.3114   23412762.6014
 15  1 19  0 46 30.0000000  0  7G02G29G31G05G12G25G21
   6565161.78446   5223653.44846  23757020.5044   23757021.5004
 -12827192.30448  -9852296.03247  20174190.3074   20174194.1634
  -7713726.20647  -5779434.30746  21785067.2164   21785070.7324
  -8842086.01446  -6784247.17346  23496142.5154   23496146.1964
  19023937.16345  14931124.03745  24356176.2384   24356180.7864
  -5149559.75947  -1049080.86946  21355196.4594   21355202.9074
  -7335945.18245  -5590208.68945  23401727.6464   23401730.9524
 15  1 19  0 47  0.0000000  0  7G02G29G31G05G12G25G21
   6683139.85446   5315584.38646  23779471.2234   23779472.1374
 -12781987.46248  -9817071.48647  20182792.4814   20182796.1034
  -7652290.48147  -5731562.32146  21796758.2084   21796761.5254
  -8854837.86246  -6794183.62646  23493715.5314   23493719.4694
  19162447.70345  15039054.30845  24382534.0214   24382538.9444
  -5046826.74647   -969029.17446  21374745.6794   21374752.3844
  -7393687.69845  -5635202.85845  23390739.6634   23390745.9004
 15  1 19  0 47 30.0000000  0  7G02G29G31G05G12G25G21
   6801364.14646   5407707.20046  23801968.5344   23801968.7694
 -12736378.48448  -9781532.00547  20191471.7244   20191475.0294
  -7590286.31347  -5683247.39446  21808556.9444   21808559.9924
  -8867077.01746  -6803720.56546  23491386.9764   23491390.5634
  19301078.80145  15147078.48045  24408914.4284   24408921.0284
  -4943706.56747   -888675.79446  21394368.7514   21394375.6674
  -7451207.72045  -5680023.64845  23379794.4424   23379799.8114
 15  1 19  0 48  0.0000000  0  7G02G29G31G05G12G25G21
   6919831.59846   5500019.50046  23824512.1684   23824512.2274
 -12690367.10148  -9745678.97047  20200227.3414   20200230.7294
  -7527715.90847  -5634491.24146  21820463.7104   21820466.8174
  -8878802.64046  -6812857.39246  23489155.6764   23489159.6624
  19439828.02045  15255194.79545  24435317.1984   24435322.5204
  -4840201.20647   -808022.29546  21414065.3114   21414071.7934
  -7508504.53545  -5724670.50645  23368891.3034   23368894.6324
 15  1 19  0 48 30.0000000  0  7G02G29G31G05G12G25G21
   7038540.63946   5592520.04645  23847101.4954   23847102.0464
 -12643954.07848  -9709512.96847  20209059.3614   20209062.5964
  -7464579.87247  -5585294.34646  21832478.1334   21832481.0634
  -8890012.25146  -6821592.12746  23487022.6734   23487025.5224
  19578694.31845  15363402.26645  24461742.9414   24461748.6734
  -4736311.38947   -727069.20746  21433834.9934   21433841.8744
  -7565575.63145  -5769141.49345  23358030.9904   23358034.8934
 15  1 19  0 49  0.0000000  0  7G02G29G31G05G12G25G21
   7157485.93446   5685204.67646  23869736.4174   23869737.4484
 -12597142.68848  -9673036.54647  20217967.3514   20217970.1764
  -7400882.44647  -5535659.99446  21844599.3204   21844602.3684
  -8900706.81446  -6829925.49146  23484986.9134   23484990.9224
  19717673.72445  15471697.88745  24488189.7394   24488193.3034
  -4632041.38947   -645819.86946  21453676.6414   21453683.6984
  -7622422.76045  -5813437.93045  23347213.2774   23347217.2154
 15  1 19  0 49 30.0000000  0  7G02G29G31G05G12G25G21
   7276668.30146   5778074.03545  23892415.5294   23892415.8584
 -12549930.62148  -9636247.89947  20226951.4854   20226954.4974
  -7336621.82447  -5485586.79746  21856827.8924   21856831.1154
  -8910881.48946  -6837853.80746  23483051.1404   23483055.5474
  19856767.68245  15580082.74145  24514658.8054   24514663.0484
  -4527389.58447   -564273.03446  21473591.2784   21473598.0534
  -7679041.35846  -5857556.27945  23336439.4894   23336442.7594
 15  1 19  0 50  0.0000000  0  7G02G29G31G05G12G25G21
   7396085.92646   5871126.71045  23915139.6964   23915141.4314
 -12502318.54848  -9599147.56847  20236011.6044   20236014.6994
  -7271798.90847  -5435075.44446  21869163.0404   21869166.5224
  -8920534.18546  -6845375.33246  23481213.9684   23481218.4574
  19995974.47245  15688555.54445  24541149.2074   24541153.0054
  -4422356.72347   -482429.27246  21493578.6344   21493584.8934
  -7735429.70246  -5901495.24745  23325708.9474   23325712.7104
 15  1 19  0 50 30.0000000  0  7G02G29G31G05G12G25G21
   7515734.36945   5964359.24945  23937908.0134   23937910.0774
 -12454309.60148  -9561738.00247  20245147.3714   20245150.5944
  -7206417.07047  -5384128.57346  21881604.9824   21881608.3934
  -8929664.94146  -6852490.19446  23479476.4844   23479481.0084
  20135291.57145  15797114.32045  24567660.3424   24567664.4794
  -4316946.31447   -400291.30846  21513637.3414   21513644.0814
  -7791587.91645  -5945254.84145  23315021.5444   23315026.5384
 15  1 19  0 51  0.0000000  0  7G02G29G31G05G12G25G21
   7635611.56945   6057770.05445  23960720.1894   23960722.7334
 -12405903.83848  -9524019.22247  20254358.6754   20254361.9104
  -7140477.77247  -5332747.32146  21894152.6734   21894155.6734
  -8938271.71746  -6859196.74246  23477838.7494   23477844.1884
  20274717.04545  15905757.53345  24594191.7364   24594200.5164
  -4211159.72447   -317860.21746  21533768.0544   21533774.9584
  -7847514.60445  -5988834.07645  23304379.4054   23304385.6184
 15  1 19  0 51 30.0000000  0  7G02G29G31G05G12G25G21
   7755716.60545   6151358.37545  23983575.4954   23983577.8164
 -12357101.01648  -9485991.04547  20263645.6284   20263649.0274
  -7073980.87547  -5280931.57446  21906807.0234   21906810.3884
  -8946351.20046  -6865492.40546  23476301.4774   23476305.4864
  20414250.74445  16014485.10645  24620744.3014   24620752.8114
  -4104996.57847   -235135.72746  21553970.4714   21553976.7664
  -7903206.73445  -6032230.54245  23293781.3954   23293786.2714
 15  1 19  0 52  0.0000000  0  7G02G29G31G05G12G25G21
   7876045.33945   6245121.00145  24006472.8444   24006475.3644
 -12307904.06048  -9447655.75447  20273007.3144   20273010.6904
  -7006929.91847  -5228684.10246  21919566.0374   21919569.4604
  -8953903.98646  -6871377.65646  23474864.0524   23474868.2954
  20553889.36844  16123294.39545  24647316.6944   24647322.4734
  -3998460.29747   -152120.47046  21574243.6424   21574250.1124
  -7958665.01546  -6075444.75745  23283228.2544   23283232.7784
 15  1 19  0 52 30.0000000  0  7G02G29G31G05G12G25G21
   7996598.49645   6339058.52845  24029413.4914   24029415.4964
 -12258310.93048  -9409011.74747  20282444.6644   20282448.2154
  -6939323.26147  -5176003.60946  21932431.2684   21932434.9144
  -8960925.26746  -6876848.77746  23473527.6264   23473531.9524
  20693634.31143  16232186.55945  24673908.9454   24673914.6074
  -3891549.42847    -68813.29246  21594588.0724   21594595.0234
  -8013884.82846  -6118473.15545  23272720.1474   23272723.5474
 15  1 19  0 53  0.0000000  0  7G02G29G31G05G12G25G21
   8117373.94145   6433169.24845  24052396.8474   24052398.1484
 -12208321.99348  -9370059.33747  20291957.1784   20291960.9874
  -6871161.93547  -5122890.92046  21945401.8734   21945404.7334
  -8967413.13146  -6881904.27546  23472293.3254   23472297.6154
  20833484.13643  16341160.44345  24700521.2694   24700529.9314
  -3784265.20447     14784.80246  21615003.7514   21615010.5624
  -8068864.50645  -6161314.44745  23262257.5894   23262261.8914
 15  1 19  0 53 30.0000000  0  7G02G29G31G05G12G25G21
   8238370.25945   6527452.09845  24075421.1714   24075423.4344
 -12157937.19848  -9330798.44247  20301545.3924   20301548.8274
  -6802446.85647  -5069346.70946  21958477.7324   21958480.7214
  -8973365.10446  -6886542.15146  23471160.8784   23471164.3944
  20973438.47044  16450215.75245  24727153.6654   24727160.9914
  -3676608.26447     98673.32146  21635490.0694   21635496.7864
  -8123601.86645  -6203966.91645  23251841.3624   23251846.3914
 15  1 19  0 54  0.0000000  0  7G02G29G31G05G12G25G21
   8359580.23745   6621901.42345  24098487.1154   24098489.4944
 -12107162.50348  -9291233.73547  20311207.3054   20311210.6574
  -6733184.29947  -5015375.89946  21971658.3394   21971661.3294
  -8978784.39146  -6890764.95246  23470129.1924   23470132.8254
  21113490.48344  16559347.10845  24753804.9064   24753809.5844
  -3568584.59647    182847.58346  21656046.1044   21656052.0364
  -8178100.22245  -6246433.11645  23241470.7034   23241475.7564
 15  1 19  0 54 30.0000000  0  7G02G29G31G05G12G25G21
   8481005.44145   6716518.45245  24121593.3714   24121595.4924
 -12055995.10648  -9251363.01847  20320943.9734   20320947.6314
  -6663372.03647  -4960976.76646  21984943.4014   21984946.2614
  -8983665.69946  -6894568.56446  23469200.2544   23469204.5564
  21253642.31545  16668556.36845  24780475.1034   24780477.2014
  -3460192.14047    267309.23346  21676672.5974   21676678.7634
  -8232354.98045  -6288709.53945  23231146.1154   23231150.4404
 15  1 19  0 55  0.0000000  0  7G02G29G31G05G12G25G21
   8602646.02845   6811303.29945  24144741.3304   24144742.5494
 -12004433.58747  -9211185.20347  20330755.8984   20330759.6374
  -6593009.78247  -4906149.04946  21998332.8754   21998336.3684
  -8988004.78546  -6897949.64446  23468375.2584   23468378.7984
  21393895.16044  16777844.33445  24807164.7984   24807169.8974
  -3351429.88147    352059.00446  21697369.4154   21697375.5924
  -8286361.72145  -6330792.70345  23220869.2434   23220874.7764
 15  1 19  0 55 30.0000000  0  7G02G29G31G05G12G25G21
   8724498.00745   6906252.89545  24167928.8404   24167930.7744
 -11952480.16948  -9170702.01847  20340642.5704   20340646.1454
  -6522100.33847  -4850894.95046  22011826.1884   22011829.7284
  -8991801.94046  -6900908.43246  23467652.3044   23467656.6764
  21534245.65444  16887208.35845  24833872.5724   24833876.3234
  -3242300.84847    437094.60246  21718135.6564   21718141.7634
  -8340120.56446  -6372682.67945  23210639.8164   23210643.0984
 15  1 19  0 56  0.0000000  0  7G02G29G31G05G12G25G21
   8846557.79445   7001364.40045  24191156.2874   24191157.6704
 -11900137.30648  -9129915.37147  20350602.7844   20350606.0784
  -6450646.45847  -4795216.61946  22025423.8704   22025426.6244
  -8995056.64646  -6903444.54246  23467032.8964   23467036.8474
  21674691.15444  16996646.39645  24860598.8464   24860603.7344
