     2.11           OBSERVATION DATA    G (GPS)             RINEX VERSION / TYPE
teqc  2013Mar15                         20150120 00:41:41UTCPGM / RUN BY / DATE
Automatic           ASI - Telespazio                        OBSERVER / AGENCY
22774               TRIMBLE 4000SSI     Nav 7.29 Sig 3.07   REC # / TYPE / VERS
27655               TRM29659.00     NONE                    ANT # / TYPE
Linux2.4.20-8|i386|gcc|Win32-MinGW32|=                      COMMENT
     2              OBSERVATION DATA                        COMMENT
DAT2RIN 2.51 TRS    ASI - Telespazio    19JAN15 23:59:47 GMTCOMMENT
----------------------------------------------------------- COMMENT
Offset from BOTTOM OF ANTENNA to PHASE CENTER is 110.0 mm   COMMENT
----------------------------------------------------------- COMMENT
MEDI                                                        MARKER NAME
12711M003                                                   MARKER NUMBER
  4461405.3327   919593.3197  4449500.2118                  APPROX POSITION XYZ
        0.0000        0.0000        0.0000                  ANTENNA: DELTA H/E/N
*** Above antenna height is from mark to BOTTOM OF ANTENNA. COMMENT
     1     1                                                WAVELENGTH FACT L1/2
     5    L1    C1    L2    P2    D1                        # / TYPES OF OBSERV
    30.0000                                                 INTERVAL
  2015     1    19     0     0    0.0000000     GPS         TIME OF FIRST OBS
                                                            END OF HEADER
 15  1 19  0  0  0.0000000  0  8G02G05G12G14G21G25G29G31
  -6610518.527 5  23588190.271 5   2307791.15146  23588187.39146     -2150.842
   -286651.256 3  25423816.573 3    -97889.97244  25423815.50544      2276.862
 -11662854.869 6  23151401.598 6  -8581397.78046  23151401.44446     -2705.659
    337371.571 3  24605798.019 3   4893847.43844  24605795.49444     -2867.851
  -2570478.119 4  24378759.161 4  -1810898.38545  24378764.24145      3266.518
 -24169369.907 8  20814734.695 8 -18275611.17047  20814738.18447      -993.320
 -25906254.648 7  20335987.571 7 -19832411.52948  20335987.76048        82.539
 -18626712.492 7  21728674.117 7 -14190890.80447  21728673.52047      1369.665
 15  1 19  0  0 30.0000000  0  8G02G05G12G14G21G25G29G31
  -6545801.683 5  23600505.439 5   2358219.86445  23600503.58745     -2163.606
   -354837.152 4  25410841.282 4   -151021.89145  25410841.43945      2268.810
 -11581595.752 6  23166864.710 6  -8518079.00746  23166865.78046     -2711.615
    423471.410 3  24622182.392 3   4960938.15944  24622180.71544     -2872.117
  -2668420.638 4  24360121.284 4  -1887217.08845  24360123.61445      3262.972
 -24139394.911 8  20820438.744 8 -18252254.03347  20820442.09347     -1005.023
 -25908517.101 6  20335557.039 6 -19834174.47748  20335557.15748        68.286
 -18667549.196 7  21720903.161 7 -14222711.61847  21720902.88747      1352.761
 15  1 19  0  1  0.0000000  0  8G02G05G12G14G21G25G29G31
  -6480702.811 6  23612893.410 6   2408946.24046  23612892.47746     -2176.313
   -422780.303 4  25397912.106 4   -203964.54045  25397909.89745      2260.673
 -11500157.872 6  23182361.805 6  -8454620.95946  23182362.18746     -2717.572
    509697.563 3  24638590.605 3   5028127.27543  24638595.41443     -2876.264
  -2766254.973 4  24341504.010 4  -1963451.66145  24341503.13145      3259.310
 -24109068.469 8  20826209.678 8 -18228623.04447  20826213.13947     -1016.744
 -25910352.342 6  20335207.801 6 -19835604.53148  20335207.82748        54.063
 -18707878.252 7  21713228.796 7 -14254136.85347  21713228.35347      1335.809
 15  1 19  0  1 30.0000000  0  8G02G05G12G14G21G25G29G31
  -6415223.630 6  23625353.726 6   2459968.97246  23625351.42946     -2188.946
   -490477.887 4  25385029.758 4   -256715.87145  25385034.87045      2252.459
 -11418541.432 6  23197892.906 6  -8391023.74246  23197892.53046     -2723.521
    596046.838 3  24655022.335 3   5095412.36744  24655023.52844     -2880.345
  -2863978.753 4  24322907.744 4  -2039600.01545  24322909.13245      3255.567
 -24078390.534 8  20832047.499 8 -18204718.15647  20832050.83347     -1028.460
 -25911761.618 6  20334939.630 6 -19836702.67248  20334939.82248        39.880
 -18747697.730 7  21705651.398 7 -14285165.01247  21705651.27347      1318.789
 15  1 19  0  2  0.0000000  0  8G02G05G12G14G21G25G29G31
  -6349366.570 5  23637885.882 5   2511286.16646  23637884.73946     -2201.519
   -557927.237 4  25372194.618 4   -309273.80845  25372197.57145      2244.123
 -11336747.246 6  23213457.858 6  -8327288.03246  23213457.51846     -2729.442
    682516.212 3  24671476.874 3                                     -2884.272
  -2961589.634 4  24304333.049 4  -2115660.55845  24304332.86245      3251.814
 -24047361.021 8  20837952.228 8 -18180539.31447  20837955.43047     -1040.179
 -25912745.431 6  20334752.405 6 -19837469.28048  20334752.31148        25.714
 -18787006.076 7  21698171.261 7 -14315794.89747  21698170.85547      1301.731
 15  1 19  0  2 30.0000000  0  8G02G05G12G14G21G25G29G31
  -6283133.440 5  23650489.649 5   2562896.35846  23650488.18746     -2214.019
   -625125.129 4  25359407.264 4   -361635.92045  25359409.46045      2235.704
 -11254775.357 6  23229056.609 6  -8263413.85146  23229055.89446     -2735.355
    769102.641 4  24687953.698 4                                     -2888.140
  -3059085.772 4  24285780.083 4  -2191631.43745  24285780.41745      3247.932
 -24015979.866 8  20843923.878 8 -18156086.47947  20843927.31747     -1051.891
 -25913304.627 6  20334645.994 6 -19837905.01848  20334646.10348        11.573
 -18825801.682 7  21690788.705 7 -14346025.24847  21690788.80147      1284.625
 15  1 19  0  3  0.0000000  0  8G02G05G12G14G21G25G29G31
  -6216526.306 5  23663164.547 5   2614798.02346  23663163.71746     -2226.453
   -692068.404 5  25346668.435 5   -413799.52745  25346672.76245      2227.159
 -11172626.300 6  23244689.060 6  -8199401.62746  23244689.09146     -2741.244
    855803.057 3  24704452.233 3                                     -2891.878
  -3156464.818 3  24267249.372 3  -2267511.15645  24267252.11545      3243.982
 -23984247.046 8  20849962.436 8 -18131359.61747  20849965.69347     -1063.619
 -25913439.929 6  20334620.234 6 -19838010.44848  20334620.27148        -2.542
 -18864083.079 7  21683504.007 7 -14375854.90447  21683503.87747      1267.450
 15  1 19  0  3 30.0000000  0  8G02G05G12G14G21G25G29G31
  -6149546.952 6  23675910.403 6   2666989.72946  23675908.97746     -2238.827
   -758754.155 5  25333978.541 5   -465762.45445  25333976.83745      2218.552
 -11090301.059 6  23260355.071 6  -8135252.10346  23260354.62646     -2747.096
    942614.519 3  24720971.914 3                                     -2895.525
  -3253724.561 4  24248741.467 4  -2343297.95545  24248742.79945      3239.985
 -23952162.458 8  20856067.947 8 -18106358.65547  20856071.46247     -1075.356
 -25913152.182 7  20334674.988 7 -19837786.22448  20334675.26548       -16.626
 -18901848.301 7  21676317.523 7 -14405282.35047  21676317.34647      1250.227
 15  1 19  0  4  0.0000000  0  8G02G05G12G14G21G25G29G31
  -6082197.302 5  23688726.637 5   2719469.96146  23688724.13146     -2251.149
   -825179.630 5  25321338.216 5   -517522.55645  25321340.61045      2209.805
 -11007800.394 6  23276054.453 6  -8070965.88946  23276054.52446     -2752.971
   1029533.722 4  24737512.169 4                                     -2899.068
  -3350862.638 4  24230256.650 4  -2418989.95745  24230259.31645      3235.876
 -23919726.056 8  20862240.399 8 -18081083.54947  20862243.80247     -1087.076
 -25912442.428 7  20334810.046 7 -19837233.16348  20334810.27448       -30.691
 -18939096.377 7  21669229.451 7 -14434306.81947  21669229.04947      1232.959
 15  1 19  0  4 30.0000000  0  8G02G05G12G14G21G25G29G31
  -6014479.651 5  23701612.820 5   2772236.95546  23701610.63146     -2263.380
   -891342.122 5  25308747.915 5   -569077.82845  25308750.93845      2200.990
 -10925123.671 6  23291787.326 6  -8006542.47046  23291787.86746     -2758.815
   1116557.535 4  24754072.326 4                                     -2902.513
  -3447876.909 4  24211795.403 4  -2494585.45845  24211796.63745      3231.712
 -23886937.749 8  20868479.815 8 -18055534.23447  20868482.98947     -1098.810
 -25911311.626 6  20335025.245 6 -19836352.01048  20335025.40248       -44.704
 -18975825.292 7  21662240.181 7 -14462926.74947  21662239.93547      1215.639
 15  1 19  0  5  0.0000000  0  8G02G05G12G14G21G25G29G31
  -5946395.819 6  23714568.729 6   2825289.28346  23714567.87746     -2275.537
   -957238.096 5  25296208.346 5   -620425.28545  25296211.95445      2192.060
 -10842272.164 6  23307553.468 6  -7941982.87846  23307553.44246     -2764.631
   1203683.105 3  24770651.816 3     47528.31945  24770654.99745     -2905.844
  -3544765.061 4  24193358.232 4  -2570082.65945  24193358.01345      3227.509
 -23853797.557 8  20874786.199 8 -18029710.71547  20874789.52347     -1110.547
 -25909760.330 6  20335320.455 6 -19835143.21148  20335320.43048       -58.705
 -19012033.824 7  21655349.937 7 -14491141.19347  21655349.43247      1198.246
 15  1 19  0  5 30.0000000  0  8G02G05G12G14G21G25G29G31
  -5877947.956 5  23727593.912 5   2878625.27545  23727592.63745     -2287.636
  -1022864.826 5  25283720.070 5   -671563.03645  25283722.36145      2183.055
 -10759246.377 6  23323352.778 6  -7877287.47446  23323353.30546     -2770.400
   1290907.198 3  24787250.044 3    115494.99244  24787251.95644     -2909.060
  -3641525.241 5  24174945.415 5  -2645480.17845  24174946.59445      3223.165
 -23820305.431 8  20881159.543 8 -18003612.96647  20881162.79447     -1122.271
 -25907789.527 6  20335695.484 6 -19833607.52748  20335695.52248       -72.676
 -19047719.942 7  21648559.092 7 -14518948.55547  21648558.61247      1180.824
 15  1 19  0  6  0.0000000  0  8G02G05G12G14G21G25G29G31
  -5809137.859 6  23740688.130 6   2932243.51945  23740685.91545     -2299.669
  -1088219.760 5  25271283.418 5   -722488.98245  25271283.89445      2173.931
 -10676046.944 6  23339185.116 6  -7812456.76246  23339185.53146     -2776.205
   1378226.597 3  24803866.430 3    183536.13744  24803875.64344     -2912.201
  -3738154.884 5  24156557.464 5  -2720776.01545  24156556.32245      3218.773
 -23786461.297 8  20887599.871 8 -17977240.93047  20887603.04347     -1134.005
 -25905400.229 7  20336150.149 7 -19831745.73148  20336150.34048       -86.587
 -19082882.763 7  21641867.835 7 -14546348.15447  21641867.40747      1163.355
 15  1 19  0  6 30.0000000  0  8G02G05G12G14G21G25G29G31
  -5739967.595 5  23753850.794 5   2986142.44345  23753849.28845     -2311.649
  -1153299.679 5  25258899.130 5   -773200.58645  25258900.82945      2164.725
 -10592674.273 6  23355050.426 6  -7747491.07346  23355050.65346     -2781.964
   1465638.612 3  24820500.327 3                                     -2915.268
  -3834651.922 5  24138194.678 5  -2795968.48645  24138195.58945      3214.318
 -23752265.159 8  20894107.177 8 -17950594.59447  20894110.51847     -1145.744
 -25902593.555 7  20336684.239 7 -19829558.70048  20336684.34648      -100.518
 -19117520.675 7  21635276.460 7 -14573338.73147  21635276.00347      1145.823
 15  1 19  0  7  0.0000000  0  8G02G05G12G14G21G25G29G31
  -5670439.325 5  23767081.548 5   3040320.29545  23767078.22345     -2323.563
  -1218101.653 5  25246567.731 5   -823695.61945  25246567.66845      2155.422
 -10509128.974 6  23370948.585 6  -7682390.86446  23370948.71546     -2787.725
   1553139.874 2  24837151.230 2                                     -2918.173
  -3931013.994 5  24119857.542 5  -2871055.81445  24119857.49045      3209.802
 -23717717.000 8  20900681.477 8 -17923673.95747  20900684.69747     -1157.476
 -25899369.903 6  20337297.684 6 -19827046.76648  20337297.54248      -114.390
 -19151632.259 7  21628785.242 7 -14599919.18347  21628784.92147      1128.268
 15  1 19  0  7 30.0000000  0  8G02G05G12G14G21G25G29G31
  -5600555.100 6  23780380.142 6   3094775.55045  23780378.76945     -2335.374
  -1282622.920 4  25234289.704 4   -873971.95945  25234290.42545      2146.009
 -10425411.389 6  23386879.525 6  -7617156.41146  23386880.25046     -2793.450
   1640727.499 2  24853818.584 2                                     -2920.974
  -4027238.979 5  24101546.521 5  -2946036.26345  24101546.18245      3205.188
 -23682816.772 8  20907322.766 8 -17896478.97647  20907326.07047     -1169.212
 -25895730.401 6  20337990.267 6 -19824210.80048  20337990.44448      -128.245
 -19185216.038 7  21622394.462 7 -14626088.36147  21622394.23847      1110.645
 15  1 19  0  8  0.0000000  0  8G02G05G12G14G21G25G29G31
  -5530316.957 5  23793745.988 5   3149506.56845  23793743.75345     -2347.148
  -1346860.606 4  25222065.651 4   -924027.33145  25222068.09045      2136.494
 -10341522.155 6  23402843.130 6  -7551788.20546  23402844.40646     -2799.169
   1728398.439 2  24870501.771 2                                     -2923.725
  -4123324.695 5  24083261.999 5  -3020908.25745  24083262.06145      3200.527
 -23647564.491 8  20914031.051 8 -17869009.67447  20914034.37947     -1180.946
 -25891675.885 6  20338761.806 6 -19821051.43648  20338761.90748      -142.063
 -19218270.599 7  21616104.391 7 -14651845.15947  21616104.03047      1092.976
 15  1 19  0  8 30.0000000  0  8G02G05G12G14G21G25G29G31
  -5459726.829 5  23807178.802 5   3204511.87445  23807175.86845     -2358.844
  -1410812.044 3  25209896.032 3   -973859.56845  25209898.60345      2126.938
 -10257461.734 6  23418839.293 6  -7486286.60346  23418839.78946     -2804.857
   1816149.498 2  24887200.238 2     31914.64245  24887206.15445     -2926.307
  -4219268.930 5  24065004.382 5  -3095669.99445  24065004.93845      3195.764
 -23611960.158 8  20920806.328 8 -17841266.04647  20920809.67447     -1192.679
 -25887207.588 7  20339612.094 7 -19817569.64148  20339612.29248      -155.829
 -19250794.364 7  21609915.338 7 -14677188.34847  21609915.06747      1075.265
 15  1 19  0  9  0.0000000  0  8G02G05G12G14G21G25G29G31
  -5388786.784 5  23820678.211 5   3259789.81345  23820677.02045     -2370.487
  -1474473.723 3  25197781.649 3  -1023466.02445  25197782.23345      2117.181
 -10173230.818 5  23434867.914 5  -7420652.14646  23434868.70246     -2810.543
   1903977.528 1  24903913.391 1    100351.95244  24903911.64744     -2928.856
  -4315069.709 4  24046774.030 4  -3170319.91845  24046774.27245      3190.969
 -23576003.760 8  20927648.607 8 -17813248.08247  20927651.90947     -1204.416
 -25882326.405 6  20340540.961 6 -19813766.13048  20340540.99848      -169.567
 -19282786.268 7  21603827.492 7 -14702117.10147  21603826.96047      1057.511
 15  1 19  0  9 30.0000000  0  8G02G05G12G14G21G25G29G31
  -5317498.783 5  23834243.905 5   3315338.87045  23834243.22645     -2382.044
  -1537843.063 3  25185722.771 3  -1072844.71045  25185720.53245      2107.399
 -10088829.976 6  23450928.866 6  -7354885.30346  23450929.27846     -2816.181
   1991879.826 1  24920640.703 1    168847.20344  24920633.30244     -2931.272
  -4410724.293 4  24028571.562 4  -3244855.88945  24028573.28945      3186.025
 -23539695.289 8  20934557.886 8 -17784955.78847  20934561.33347     -1216.148
 -25877033.057 6  20341548.257 6 -19809641.44648  20341548.59548      -183.311
 -19314244.669 7  21597841.165 7 -14726630.13947  21597840.71447      1039.709
 15  1 19  0 10  0.0000000  0  8G02G05G12G14G21G25G29G31
  -5245865.166 5  23847875.377 5   3371157.28545  23847873.15545     -2393.526
  -1600917.263 3  25173720.151 3  -1121993.40145  25173721.59045      2097.518
 -10004260.057 6  23467022.002 6  -7288986.68846  23467021.97446     -2821.821
   2079853.210 1  24937381.532 1    237397.84343  24937378.75843     -2933.591
  -4506230.722 4  24010397.238 4  -3319276.49945  24010399.10545      3181.045
 -23503034.763 8  20941534.156 8 -17756389.14847  20941537.41447     -1227.878
 -25871328.337 6  20342633.830 6 -19805196.20148  20342633.93848      -197.006
 -19345168.459 8  21591956.573 8 -14750726.59747  21591956.26347      1021.860
 15  1 19  0 10 30.0000000  0  7G02G05G12G21G25G29G31
  -5173888.002 5  23861572.201 5   3427243.42945  23861568.93645     -2404.948
  -1663693.451 3  25161774.256 3  -1170909.91245  25161780.93045      2087.534
  -9919520.925 6  23483147.331 6  -7222956.24046  23483148.55746     -2827.456
  -4601586.984 4  23992251.533 4  -3393580.04345  23992252.01445      3176.041
 -23466022.189 8  20948577.422 8 -17727548.18747  20948580.67447     -1239.625
 -25865213.647 6  20343797.424 6 -19800431.51648  20343797.47248      -210.649
 -19375555.941 7  21586174.035 7 -14774405.15147  21586173.59347      1003.970
 15  1 19  0 11  0.0000000  0  7G02G05G12G21G25G29G31
  -5101569.225 5  23875333.956 5   3483595.72945  23875331.78245     -2416.284
  -1726168.495 2  25149885.694 2  -1219591.71445  25149890.90745      2077.462
  -9834613.448 6  23499304.705 6  -7156794.59746  23499304.29646     -2833.057
  -4696790.866 5  23974134.811 5  -3467764.85945  23974134.14045      3170.914
 -23428657.605 8  20955687.679 8 -17698432.93847  20955691.38647     -1251.351
 -25858689.750 6  20345038.876 6 -19795347.96748  20345039.07148      -224.272
 -19405406.130 7  21580493.740 7 -14797665.04247  21580493.51647       986.029
 15  1 19  0 11 30.0000000  0  7G02G05G12G21G25G29G31
  -5028910.972 5  23889160.396 5   3540212.54145  23889159.31045     -2427.582
  -1788339.677 2  25138054.859 2  -1268036.72245  25138055.42845      2067.288
  -9749538.038 6  23515494.049 6  -7090502.09846  23515494.09946     -2838.633
  -4791840.270 4  23956047.475 4  -3541829.33945  23956047.67845      3165.709
 -23390940.993 8  20962864.911 8 -17669043.36247  20962868.38747     -1263.084
 -25851757.509 7  20346358.022 7 -19789946.21448  20346358.24348      -237.877
 -19434717.634 7  21574915.949 7 -14820505.17547  21574915.32247       968.059
 15  1 19  0 12  0.0000000  0  7G02G05G12G21G25G29G31
  -4955915.243 5  23903051.028 5   3597092.33345  23903048.43945     -2438.808
  -1850204.234 3  25126282.358 3  -1316242.89845  25126285.83945      2057.013
  -9664295.576 6  23531715.187 6  -7024079.43646  23531716.05646     -2844.192
  -4886732.795 4  23937989.950 4  -3615771.57745  23937989.14845      3160.424
 -23352872.477 8  20970109.106 8 -17639379.60947  20970112.22647     -1274.821
 -25844418.408 6  20347754.607 6 -19784227.44148  20347754.65148      -251.413
 -19463489.234 7  21569440.890 7 -14842924.60847  21569440.37547       950.044
 15  1 19  0 12 30.0000000  0  8G02G05G12G14G21G25G29G31
  -4882584.027 5  23917005.461 5   3654233.54945  23917004.05045     -2449.938
  -1911759.431 3  25114568.771 3  -1364207.95245  25114568.82945      2046.667
  -9578886.500 6  23547968.024 6  -6957526.92146  23547968.72346     -2849.731
     52972.532 1  25021268.004 1                                     -2943.700
  -4981466.187 5  23919962.813 5  -3689589.76945  23919961.88245      3155.085
 -23314452.024 8  20977420.288 8 -17609441.60647  20977423.45347     -1286.547
 -25836672.806 6  20349228.529 6 -19778191.91448  20349228.68548      -264.948
 -19491719.630 7  21564068.810 7 -14864922.31947  21564068.28647       931.967
 15  1 19  0 13  0.0000000  0  8G02G05G12G14G21G25G29G31
  -4808919.656 5  23931023.298 5   3711634.34845  23931021.90945     -2461.000
  -1973002.653 2  25102914.564 2  -1411929.85745  25102915.77845      2036.232
  -9493311.341 6  23564252.475 6  -6890844.99146  23564254.19646     -2855.269
    141308.440 2  25038077.926 2                                     -2945.396
  -5076038.375 5  23901966.341 5  -3763282.35645  23901968.28445      3149.676
 -23275679.675 8  20984798.436 8 -17579229.39347  20984801.53647     -1298.273
 -25828521.904 7  20350779.591 7 -19771840.55748  20350779.84548      -278.433
 -19519407.371 7  21558800.014 7 -14886497.17747  21558799.43647       913.871
 15  1 19  0 13 30.0000000  0  8G02G05G12G14G21G25G29G31
  -4734924.217 5  23945104.126 5   3769293.11445  23945101.08945     -2472.021
  -2033930.628 3  25091320.339 3  -1459406.19145  25091322.09245      2025.645
  -9407570.509 6  23580568.467 6  -6824034.01646  23580569.15546     -2860.791
    229693.996 2  25054897.199 2     32141.58345  25054904.77545     -2946.984
  -5170447.416 5  23884000.935 5  -3836847.81345  23884001.50945      3144.244
 -23236555.511 8  20992243.533 8 -17548743.04447  20992246.75847     -1310.005
 -25819966.801 6  20352407.578 6 -19765174.24548  20352407.72248      -291.898
 -19546551.289 7  21553634.693 7 -14907648.27647  21553634.00647       895.711
 15  1 19  0 14  0.0000000  0  8G02G05G12G14G21G25G29G31
  -4660599.752 5  23959247.603 5   3827208.29945  23959244.41645     -2482.951
  -2094540.466 3  25079786.621 3  -1506634.66845  25079787.35845      2014.995
  -9321664.534 6  23596915.857 6  -6757094.31646  23596917.41846     -2866.262
    318126.849 2  25071725.391 2    101050.39845  25071727.61045     -2948.500
  -5264691.006 5  23866066.960 5  -3910284.37445  23866066.96945      3138.658
 -23197079.575 8  20999755.557 8 -17517982.58547  20999758.83747     -1321.723
 -25811008.544 6  20354112.281 6 -19758193.78048  20354112.33148      -305.321
 -19573150.563 7  21548573.002 7 -14928374.98647  21548572.43147       877.550
 15  1 19  0 14 30.0000000  0  8G02G05G12G14G21G25G29G31
  -4585948.583 5  23973453.330 5   3885378.04645  23973451.07645     -2493.802
  -2154829.616 4  25068314.045 4  -1553613.16945  25068311.52945      2004.263
  -9235594.762 6  23613294.432 6  -6690026.99546  23613296.65146     -2871.714
    406603.532 3  25088562.013 3    169993.23545  25088560.96845     -2949.903
  -5358766.874 5  23848164.944 5  -3983590.24345  23848167.03345      3133.036
 -23157251.876 8  21007334.521 8 -17486948.00647  21007337.95847     -1333.450
 -25801648.472 6  20355893.449 6 -19750900.21648  20355893.60648      -318.710
 -19599203.897 8  21543615.210 8 -14948676.28447  21543614.79247       859.322
 15  1 19  0 15  0.0000000  0  8G02G05G12G14G21G25G29G31
  -4510972.689 5  23987720.834 5   3943800.80245  23987719.74545     -2504.594
  -2214795.565 3  25056902.870 3  -1600339.93945  25056904.61645      1993.424
  -9149361.014 6  23629704.179 6  -6622831.88046  23629704.74746     -2877.192
    495121.031 3  25105406.396 3    238967.78445  25105408.22745     -2951.228
  -5452672.719 5  23830295.234 5  -4056763.61545  23830297.21345      3127.332
 -23117072.549 8  21014980.399 8 -17455639.43947  21014983.76847     -1345.185
 -25791886.716 7  20357751.049 7 -19743293.65448  20357751.11248      -332.055
 -19624709.977 7  21538761.556 7 -14968551.15547  21538761.18347       841.071
 15  1 19  0 15 30.0000000  0  8G02G05G12G14G21G25G29G31
  -4435674.127 5  24002049.650 5   4002475.01645  24002048.89145     -2515.312
  -2274434.977 4  25045553.912 4  -1646812.14345  25045555.76045      1982.519
  -9062963.622 6  23646145.098 6  -6555509.28946  23646145.96146     -2882.621
    583675.996 3  25122257.786 3    307971.66244  25122260.69844     -2952.435
  -5546406.858 5  23812458.186 5  -4129803.16545  23812457.86445      3121.582
 -23076541.671 8  21022693.179 8 -17424056.96047  21022696.75847     -1356.898
 -25781725.038 7  20359684.747 7 -19735375.46548  20359685.03548      -345.393
 -19649667.618 8  21534012.282 8 -14987998.67447  21534011.90247       822.764
 15  1 19  0 16  0.0000000  0  8G02G05G12G14G21G25G29G31
  -4360055.136 5  24016439.408 5   4061398.89845  24016436.64245     -2525.955
  -2333745.129 5  25034267.578 5  -1693027.83145  25034266.97645      1971.495
  -8976403.948 6  23662616.864 6  -6488060.21045  23662616.65245     -2888.015
    672265.702 3  25139115.852 3    377002.52945  25139117.77745     -2953.532
  -5639966.589 5  23794654.376 5  -4202706.85045  23794656.98045      3115.735
 -23035659.290 8  21030472.834 8 -17392200.56647  21030476.20247     -1368.594
 -25771164.067 6  20361694.438 6 -19727146.13648  20361694.56548      -358.675
 -19674075.861 8  21529367.551 8 -15007018.08247  21529367.13347       804.434
 15  1 19  0 16 30.0000000  0  8G02G05G12G14G21G25G29G31
  -4284117.573 5  24030889.772 5   4120571.00045  24030888.20045     -2536.538
  -2392723.333 4  25023044.362 4  -1738984.98945  25023042.05545      1960.376
  -8889682.154 5  23679119.484 5  -6420484.79745  23679119.69145     -2893.418
    760887.535 3  25155980.107 3    446058.48445  25155985.18245     -2954.562
  -5733350.150 5  23776884.096 5  -4275473.22045  23776885.92345      3109.805
 -22994425.488 8  21038319.378 8 -17360070.34447  21038322.67547     -1380.318
 -25760204.981 7  20363779.887 7 -19718606.59348  20363779.95448      -371.925
 -19697933.212 7  21524827.656 7 -15025608.23547  21524827.29647       786.051
 15  1 19  0 17  0.0000000  0  8G02G05G12G14G21G25G29G31
  -4207863.663 5  24045400.305 5   4179989.64845  24045398.51045     -2547.054
  -2451366.923 5  25011884.900 5  -1784681.19045  25011887.45445      1949.178
  -8802798.739 5  23695652.861 5  -6352783.46945  23695652.79045     -2898.804
    849538.199 3  25172849.869 3    515136.91944  25172851.69444     -2955.470
  -5826555.254 5  23759147.739 5  -4348100.59745  23759148.85445      3103.843
 -22952840.368 8  21046232.754 8 -17327666.34747  21046235.95747     -1392.018
 -25748849.082 6  20365940.844 6 -19709757.84548  20365940.89748      -385.118
 -19721239.077 7  21520392.695 7 -15043768.65447  21520392.26647       767.653
 15  1 19  0 17 30.0000000  0  8G02G05G12G14G21G25G29G31
  -4131295.961 5  24059970.619 5   4239652.79345  24059970.30845     -2557.458
  -2509673.224 4  25000789.581 4  -1830114.63145  25000793.29445      1937.892
  -8715754.505 5  23712216.817 5  -6284956.80745  23712216.89945     -2904.138
    938214.654 3  25189724.368 3                                     -2956.295
  -5919579.727 5  23741445.824 5  -4420587.18145  23741446.95745      3097.782
 -22910904.000 8  21054212.994 8 -17294988.67247  21054216.64047     -1403.732
 -25737097.442 7  20368177.105 7 -19700600.71748  20368177.33048      -398.315
 -19743992.114 7  21516062.931 7 -15061498.29647  21516062.42647       749.209
 15  1 19  0 18  0.0000000  0  8G02G05G12G14G21G25G29G31
  -4054416.339 5  24074600.474 5   4299558.99845  24074597.80145     -2567.823
  -2567639.458 5  24989759.074 5  -1875283.14845  24989761.07145      1926.503
  -8628550.119 5  23728811.290 5  -6217005.39845  23728812.42745     -2909.502
   1026914.047 2  25206603.354 2                                     -2957.001
  -6012421.493 5  23723778.544 5  -4492931.39845  23723777.71145      3091.657
 -22868616.531 8  21062260.034 8 -17262037.41547  21062263.63747     -1415.430
 -25724950.804 7  20370488.527 7 -19691135.80448  20370488.45148      -411.462
 -19766191.478 7  21511838.535 7 -15078796.51347  21511838.11247       730.737
 15  1 19  0 18 30.0000000  0  8G02G05G12G14G21G25G29G31
  -3977226.773 5  24089289.154 5   4359706.75445  24089287.31945     -2578.138
  -2625262.645 5  24978793.744 5  -1920184.36345  24978792.58445      1915.038
  -8541185.807 5  23745436.191 5  -6148929.32846  23745437.57146     -2914.793
   1115633.198 3  25223486.079 3                                     -2957.602
  -6105078.364 5  23706146.490 5  -4565131.53045  23706147.67345      3085.434
 -22825978.037 8  21070373.870 8 -17228812.62147  21070377.02347     -1427.133
 -25712410.367 6  20372874.897 6 -19681364.03948  20372875.16548      -424.577
 -19787835.982 8  21507719.730 8 -15095662.36247  21507719.27347       712.219
 15  1 19  0 19  0.0000000  0  8G02G05G12G14G21G25G29G31
  -3899729.525 5  24104036.356 5   4420094.21245  24104034.16645     -2588.340
  -2682540.153 5  24967894.174 5  -1964816.21045  24967895.79545      1903.448
  -8453662.322 5  23762091.351 5  -6080729.23645  23762092.26945     -2920.103
   1204369.627 2  25240372.137 2                                     -2958.144
  -6197548.246 5  23688550.018 5  -4637185.93745  23688551.27545      3079.185
 -22782988.658 8  21078554.477 8 -17195314.40247  21078558.02247     -1438.835
 -25699476.704 6  20375336.089 6 -19671285.86248  20375336.35348      -437.658
 -19808924.362 8  21503706.745 8 -15112094.86347  21503706.22547       693.651
 15  1 19  0 19 30.0000000  0  8G02G05G12G14G21G25G29G31
  -3821926.872 5  24118841.713 5   4480719.66045  24118842.01145     -2598.491
  -2739469.206 5  24957060.924 5  -2009176.53245  24957060.15745      1891.803
  -8365980.375 5  23778776.669 5  -6012405.67845  23778775.61145     -2925.372
   1293119.994 2  25257260.795 2                                     -2958.540
  -6289828.950 5  23670989.541 5  -4709092.99745  23670990.44945      3072.856
 -22739648.504 8  21086801.831 8 -17161542.87147  21086804.93047     -1450.515
 -25686151.236 6  20377871.852 6 -19660902.37448  20377872.15448      -450.698
 -19829455.763 8  21499799.761 8 -15128093.36247  21499799.54347       675.094
 15  1 19  0 20  0.0000000  0  8G02G05G12G14G21G25G29G31
  -3743820.892 5  24133704.866 5   4541581.44545  24133704.09345     -2608.568
  -2796047.396 5  24946294.454 5  -2053263.41645  24946295.11145      1880.066
  -8278140.795 5  23795491.991 5  -5943959.27545  23795492.12645     -2930.588
   1381881.534 2  25274151.526 2                                     -2958.872
  -6381918.298 5  23653465.489 5  -4780850.91545  23653465.42445      3066.444
 -22695957.691 7  21095115.905 7 -17127498.09647  21095119.39647     -1462.203
 -25672435.294 6  20380481.917 6 -19650214.63948  20380482.24348      -463.685
 -19849429.760 7  21495998.844 7 -15143657.52047  21495998.63547       656.501
 15  1 19  0 20 30.0000000  0  8G02G05G12G14G21G25G29G31
  -3665413.362 5  24148625.457 5   4602678.22445  24148623.23545     -2618.594
  -2852271.792 5  24935595.259 5  -2097074.62645  24935596.57645      1868.230
  -8190144.125 5  23812237.272 5  -5875390.48146  23812237.48946     -2935.832
   1470651.124 2  25291043.898 2                                     -2959.053
  -6473814.320 5  23635978.244 5  -4852458.15645  23635979.13845      3059.959
 -22651916.366 8  21103496.700 8 -17093180.19447  21103500.36147     -1473.878
 -25658330.431 7  20383165.986 7 -19639223.83048  20383166.03048      -476.653
 -19868845.112 7  21492304.229 7 -15158786.37047  21492304.05047       637.859
 15  1 19  0 21  0.0000000  0  8G02G05G12G14G21G25G29G31
  -3586706.951 5  24163602.782 5   4664007.90045  24163602.01745     -2628.482
  -2908139.744 5  24924963.949 5  -2140608.05545  24924963.55045      1856.289
  -8101990.672 5  23829012.328 5  -5806699.51045  23829012.95145     -2941.050
   1559425.538 2  25307937.073 2                                     -2959.202
  -6565514.902 5  23618528.224 5  -4923913.16145  23618528.75845      3053.401
 -22607524.669 7  21111944.163 7 -17058589.28247  21111947.75747     -1485.562
 -25643836.746 6  20385924.047 6 -19627930.05648  20385924.24848      -489.592
 -19887700.700 7  21488716.122 7 -15173479.02947  21488715.35147       619.174
 15  1 19  0 21 30.0000000  0  8G02G05G12G14G21G25G29G31
  -3507704.173 5  24178636.490 5   4725568.48445  24178633.84445     -2638.358
  -2963648.826 5  24914400.922 5  -2183861.93845  24914401.45045      1844.286
  -8013680.981 5  23845817.133 5  -5737886.78446  23845817.48646     -2946.259
   1648202.469 2  25324830.832 2                                     -2959.238
  -6657017.956 5  23601115.725 5  -4995214.22245  23601117.00945      3046.784
 -22562782.700 8  21120458.290 8 -17023725.41747  21120461.90547     -1497.234
 -25628955.644 6  20388755.835 6 -19616334.39148  20388755.91048      -502.490
 -19905995.576 8  21485234.724 8 -15187734.77647  21485234.44547       600.465
 15  1 19  0 22  0.0000000  0  8G02G05G12G14G21G25G29G31
  -3428406.462 5  24193726.344 5   4787358.96445  24193724.25445     -2648.156
  -3018795.853 5  24903906.781 5  -2226833.69145  24903910.42945      1832.166
  -7925215.673 6  23862651.560 6  -5668952.82346  23862653.22146     -2951.434
   1736978.703 2  25341724.459 2                                     -2959.146
  -6748321.235 5  23583741.327 5  -5066359.63745  23583742.22945      3040.091
 -22517690.673 8  21129039.038 8 -16988588.77747  21129042.45147     -1508.900
 -25613688.622 7  20391661.061 7 -19604438.01848  20391661.13548      -515.322
 -19923729.006 8  21481860.170 8 -15201553.03947  21481859.67647       581.747
 15  1 19  0 22 30.0000000  0  8G02G05G12G14G21G25G29G31
  -3348816.114 5  24208871.853 5   4849377.40445  24208870.75445     -2657.868
  -3073578.231 5  24893481.986 5  -2269521.28545  24893487.81145      1819.983
  -7836595.526 5  23879515.470 5  -5599898.18046  23879515.55446     -2956.577
   1825751.334 1  25358617.271 1                                     -2958.956
  -6839422.679 5  23566405.292 5  -5137347.72145  23566404.65745      3033.343
 -22472248.721 8  21137686.375 8 -16953179.48347  21137689.58147     -1520.566
 -25598036.599 7  20394639.551 7 -19592241.63748  20394639.58548      -528.151
 -19940900.036 7  21478592.639 7 -15214933.06147  21478592.37347       562.983
 15  1 19  0 23  0.0000000  0  7G02G05G12G21G25G29G31
  -3268935.554 5  24224072.640 5   4911622.02445  24224070.49445     -2667.481
  -3127993.685 4  24883127.015 4  -2311922.91945  24883128.16545      1807.710
  -7747821.346 6  23896408.677 6  -5530723.51246  23896409.45646     -2961.698
  -6930320.502 5  23549107.984 5  -5208177.21245  23549110.16645      3026.504
 -22426457.021 7  21146400.252 7 -16917497.65947  21146403.67647     -1532.219
 -25582000.195 7  20397691.192 7 -19579745.73648  20397691.61848      -540.935
 -19957507.967 8  21475432.249 8 -15227874.30147  21475431.72647       544.203
 15  1 19  0 23 30.0000000  0  7G02G05G12G21G25G29G31
  -3188766.865 5  24239328.200 5   4974091.14445  24239326.49345     -2677.060
  -3182039.474 3  24872842.451 3  -2354036.43545  24872840.68245      1795.333
  -7658893.548 6  23913331.121 6  -5461429.15545  23913332.24245     -2966.812
  -7021012.139 5  23531849.909 5  -5278846.03145  23531850.12245      3019.606
 -22380315.736 8  21155180.659 8 -16881543.42047  21155183.94847     -1543.862
 -25565581.004 7  20400815.667 7 -19566951.56448  20400815.84348      -553.671
 -19973551.888 8  21472379.199 8 -15240376.05547  21472379.07747       525.390
 15  1 19  0 24  0.0000000  0  7G02G05G12G21G25G29G31
  -3108312.258 5  24254638.170 5   5036783.05345  24254636.46745     -2686.537
  -3235712.876 3  24862628.712 3  -2395859.83445  24862628.66945      1782.868
  -7569813.017 6  23930282.590 6  -5392015.76946  23930282.66546     -2971.880
  -7111495.754 5  23514631.458 5  -5349352.69245  23514631.59645      3012.625
 -22333825.042 7  21164027.559 7 -16845316.91847  21164030.86447     -1555.528
 -25548780.063 7  20404012.781 7 -19553859.92048  20404013.04648      -566.388
 -19989031.124 8  21469433.597 8 -15252437.80347  21469433.21947       506.550
 15  1 19  0 24 30.0000000  0  7G02G05G12G21G25G29G31
  -3027574.032 4  24270001.996 4   5099695.93345  24270003.47145     -2695.988
  -3289011.177 4  24852486.428 4  -2437391.02845  24852485.24645      1770.310
  -7480580.212 5  23947263.045 5  -5322483.75445  23947263.73445     -2976.962
  -7201769.137 5  23497453.002 5  -5419695.58845  23497453.71145      3005.580
 -22286985.117 7  21172940.921 7 -16808818.29547  21172944.62547     -1567.145
 -25531598.633 7  20407282.298 7 -19540471.78748  20407282.66948      -579.038
 -20003944.702 8  21466595.638 8 -15264058.77147  21466595.29247       487.690
 15  1 19  0 25  0.0000000  0  7G02G05G12G21G25G29G31
  -2946554.096 5  24285419.519 5   5162828.35945  24285417.06045     -2705.337
  -3341932.012 3  24842415.845 3  -2478627.99745  24842418.14845      1757.705
  -7391195.894 5  23964272.347 5  -5252833.63245  23964272.57045     -2982.012
  -7291830.645 5  23480314.918 5  -5489873.37745  23480317.69845      2998.493
 -22239796.158 7  21181920.691 7 -16772047.68947  21181924.15747     -1578.785
 -25514037.848 7  20410624.008 7 -19526788.05348  20410624.13548      -591.674
 -20018292.213 8  21463865.415 8 -15275238.65847  21463865.10147       468.794
 15  1 19  0 25 30.0000000  0  7G02G05G12G21G25G29G31
  -2865254.769 4  24300890.189 4   5226178.50645  24300888.20445     -2714.610
  -3394472.642 3  24832417.703 3  -2519568.74545  24832418.45045      1744.996
  -7301660.388 5  23981310.421 5  -5183065.74045  23981310.77145     -2987.033
  -7381677.895 5  23463217.556 5  -5559884.21945  23463217.13545      2991.319
 -22192258.365 7  21190966.853 7 -16735005.26747  21190970.32747     -1590.415
 -25496099.075 7  20414037.633 7 -19512809.78348  20414037.83348      -604.269
 -20032072.564 7  21461243.092 7 -15285976.60147  21461242.54947       449.885
 15  1 19  0 26  0.0000000  0  7G02G05G12G21G25G29G31
  -2783678.146 4  24316413.650 4   5289744.73445  24316412.81745     -2723.808
  -3446630.416 3  24822492.362 3  -2560211.11945  24822495.91845      1732.192
  -7211974.397 5  23998377.102 5  -5113180.55245  23998377.08645     -2992.035
  -7471309.007 5  23446161.324 5  -5629726.63345  23446162.01045      2984.066
 -22144371.922 8  21200079.337 8 -16697691.15747  21200083.04247     -1602.027
 -25477782.479 7  20417523.156 7 -19498537.10548  20417523.34248      -616.840
 -20045284.913 7  21458728.867 7 -15296271.94647  21458728.12247       430.943
 15  1 19  0 26 30.0000000  0  7G02G05G12G21G25G29G31
  -2701826.667 5  24331989.529 5   5353525.06845  24331987.98645     -2732.955
  -3498402.857 3  24812640.353 3  -2600553.25045  24812640.51145      1719.300
  -7122138.353 5  24015472.309 5  -5043178.46645  24015471.12045     -2997.009
  -7560721.549 5  23429146.659 5  -5699398.72945  23429147.15745      2976.749
 -22096137.081 7  21209258.120 7 -16660105.58447  21209261.92547     -1613.637
 -25459089.665 7  20421080.272 7 -19483971.27048  20421080.22048      -629.349
 -20057928.742 8  21456322.822 8 -15306124.28647  21456322.48647       411.973
 15  1 19  0 27  0.0000000  0  7G02G05G12G21G25G29G31
  -2619702.315 5  24347617.338 5   5417518.10445  24347617.10945     -2742.007
  -3549787.317 2  24802862.061 2  -2640593.03345  24802863.51845      1706.299
  -7032153.224 5  24032595.900 5  -4973060.23045  24032596.09445     -3001.991
  -7649913.382 5  23412174.011 5  -5768898.85945  23412173.81245      2969.365
 -22047554.011 7  21218503.175 7 -16622248.65847  21218506.63047     -1625.233
 -25440022.088 7  20424708.706 7 -19469113.42148  20424709.01248      -641.820
 -20070003.283 7  21454025.122 7 -15315533.02647  21454024.85047       392.983
 15  1 19  0 27 30.0000000  0  7G02G05G12G21G25G29G31
  -2537307.386 5  24363296.654 5   5481721.94345  24363295.11045     -2750.985
  -3600781.318 2  24793158.165 2  -2680328.60645  24793163.71645      1693.276
  -6942019.684 5  24049747.755 5  -4902826.29345  24049749.38745     -3006.926
  -7738882.758 5  23395243.681 5  -5838225.65945  23395245.07545      2961.912
 -21998622.957 7  21227814.463 7 -16584120.57647  21227817.92147     -1636.833
 -25420580.707 7  20428408.259 7 -19453964.29248  20428408.42248      -654.254
 -20081508.012 7  21451835.851 7 -15324497.75547  21451835.34447       373.967
 15  1 19  0 28  0.0000000  0  7G02G05G12G21G25G29G31
  -2454644.231 5  24379026.985 5   5546134.81645  24379025.42645     -2759.902
  -3651382.417 2  24783529.113 2  -2719757.96845  24783531.30445      1680.114
  -6851738.473 5  24066927.700 5  -4832477.34045  24066929.79245     -3011.823
  -7827627.648 5  23378356.051 5  -5907377.48945  23378357.41745      2954.399
 -21949344.145 7  21237191.916 7 -16545721.50547  21237195.34047     -1648.430
 -25400767.043 8  20432178.663 8 -19438525.08148  20432178.92848      -666.658
 -20092442.330 8  21449755.123 8 -15333018.00347  21449754.77647       354.968
 15  1 19  0 28 30.0000000  0  7G02G05G12G21G25G29G31
  -2371714.635 5  24394807.875 5   5610755.26345  24394805.76245     -2768.743
  -3701588.104 3  24773975.308 3  -2758879.28845  24773977.08945      1666.919
  -6761310.314 5  24084135.620 5  -4762013.80645  24084136.38245     -3016.716
  -7916146.184 5  23361511.487 5  -5976352.95145  23361511.74145      2946.828
 -21899717.831 8  21246635.504 8 -16507051.65347  21246639.16447     -1660.005
 -25380581.819 8  20436019.776 8 -19422796.33948  20436019.99848      -679.026
 -20102805.886 7  21447783.000 7 -15341093.51447  21447782.60947       335.925
 15  1 19  0 29  0.0000000  0  7G02G05G12G21G25G29G31
  -2288520.985 5  24410639.056 5   5675581.45245  24410639.94245     -2777.506
  -3751396.237 3  24764497.119 3  -2797690.76145  24764498.38945      1653.578
  -6670735.414 5  24101371.468 5  -4691436.03845  24101372.26245     -3021.573
  -8004436.032 5  23344710.490 5  -6045150.26045  23344710.11445      2939.157
 -21849744.258 7  21256145.173 7 -16468111.22347  21256148.71847     -1671.576
 -25360026.275 8  20439931.351 8 -19406779.03248  20439931.53848      -691.346
 -20112597.748 8  21445919.667 8 -15348723.54347  21445919.20647       316.863
 15  1 19  0 29 30.0000000  0  7G02G05G12G21G25G29G31
  -2205065.407 5  24426520.175 5   5740611.81745  24426517.56845     -2786.210
  -3800803.226 3  24755095.285 3  -2836189.70345  24755098.27045      1640.195
  -6580014.683 5  24118635.054 5  -4620744.55545  24118636.49845     -3026.438
  -8092495.223 5  23327953.352 5  -6113767.77745  23327952.85645      2931.441
 -21799423.642 8  21265720.883 8 -16428900.36147  21265724.37647     -1683.129
 -25339101.758 8  20443913.139 8 -19390474.21548  20443913.36748      -703.626
 -20121817.280 8  21444165.250 8 -15355907.59947  21444164.86547       297.763
 15  1 19  0 30  0.0000000  0  7G02G05G12G21G25G29G31
  -2121350.249 5  24442450.679 5   5805844.45345  24442447.55745     -2794.813
  -3849807.264 4  24745770.172 4  -2874374.63345  24745771.36245      1626.729
  -6489149.026 5  24135926.234 5  -4549940.16645  24135925.69545     -3031.251
  -8180321.874 5  23311240.499 5  -6182204.11845  23311242.05845      2923.675
 -21748756.272 8  21275362.581 8 -16389419.31447  21275365.94947     -1694.682
 -25317809.475 8  20447964.916 8 -19373882.83048  20447965.14248      -715.871
 -20130464.003 7  21442519.829 7 -15362645.31847  21442519.32047       278.668
 15  1 19  0 30 30.0000000  0  7G02G05G12G21G25G29G31
  -2037377.636 5  24458430.137 5   5871277.64345  24458428.26845     -2803.363
  -3898406.173 5  24736522.153 5  -2912243.87245  24736523.93345      1613.172
  -6398139.101 5  24153244.836 5  -4479023.36545  24153245.95845     -3036.083
  -8267914.349 5  23294572.198 5  -6250457.99945  23294573.41745      2915.801
 -21697742.431 7  21285070.208 7 -16349668.29447  21285073.80847     -1706.239
 -25296150.197 8  20452086.537 8 -19357005.46748  20452086.62248      -728.083
 -20138537.534 8  21440983.493 8 -15368936.38847  21440983.15247       259.555
 15  1 19  0 31  0.0000000  0  7G02G05G12G21G25G29G31
  -1953149.863 5  24474458.218 5   5936909.69445  24474457.00045     -2811.824
  -3946597.023 5  24727351.782 5  -2949795.17045  24727355.56145      1599.547
  -6306985.139 5  24170590.902 5  -4407994.33245  24170591.66245     -3040.867
  -8355269.685 5  23277949.028 5  -6318527.07945  23277949.17945      2907.883
 -21646382.330 7  21294843.714 7 -16309647.45047  21294847.25247     -1717.770
 -25274125.593 8  20456277.679 8 -19339843.44248  20456278.06848      -740.229
 -20146037.265 7  21439556.325 7 -15374780.34147  21439555.84547       240.423
 15  1 19  0 31 30.0000000  0  7G02G05G12G21G25G29G31
  -1868669.060 5  24490534.433 5   6002738.90145  24490532.62045     -2820.224
  -3994377.487 5  24718259.447 5  -2987026.70345  24718260.78445      1585.825
  -6215688.068 5  24187964.157 5  -4336853.74345  24187964.11645     -3045.605
  -8442386.230 5  23261371.310 5  -6386410.10146  23261372.16146      2899.875
 -21594676.278 7  21304683.057 7 -16269357.04647  21304686.46647     -1729.297
 -25251736.682 8  20460538.146 8 -19322397.53048  20460538.13548      -752.374
 -20152962.727 7  21438238.448 7 -15380176.80647  21438238.01747       221.265
 15  1 19  0 32  0.0000000  0  7G02G05G12G21G25G29G31
  -1783937.675 5  24506658.337 5   6068763.36045  24506654.78045     -2828.543
  -4041745.363 5  24709245.628 5  -3023936.64845  24709248.82945      1572.027
  -6124248.441 5  24205364.563 5  -4265602.10845  24205365.56545     -3050.348
  -8529262.296 5  23244839.361 5  -6454105.72146  23244840.94146      2891.839
 -21542624.558 7  21314588.182 7 -16228797.27547  21314591.55147     -1740.814
 -25228984.316 8  20464867.774 8 -19304668.41548  20464868.12348      -764.433
 -20159313.659 7  21437029.923 7 -15385125.59247  21437029.38647       202.116
 15  1 19  0 32 30.0000000  0  7G02G05G12G21G25G29G31
  -1698957.445 5  24522829.483 5   6134981.68945  24522826.54045     -2836.787
  -4088697.873 5  24700310.872 5  -3060522.96745  24700312.10445      1558.156
  -6032666.859 5  24222791.979 5  -4194239.87845  24222792.42945     -3055.089
  -8615895.836 5  23228353.535 5  -6521612.37245  23228354.07845      2883.719
 -21490227.438 7  21324559.028 7 -16187968.36247  21324562.65147     -1752.330
 -25205870.133 8  20469266.259 8 -19286657.35648  20469266.47548      -776.510
 -20165089.369 8  21435930.847 8 -15389626.14647  21435930.10047       182.936
 15  1 19  0 33  0.0000000  0  7G02G05G12G21G25G29G31
  -1613730.854 5  24539047.522 5   6201392.04145  24539044.90045     -2844.971
  -4135233.033 5  24691455.537 5  -3096784.12145  24691457.88845      1544.182
  -5940944.212 5  24240246.230 5  -4122767.69145  24240248.69245     -3059.778
  -8702284.674 5  23211914.278 5  -6588928.34246  23211914.35646      2875.524
 -21437485.247 7  21334595.545 7 -16146870.56747  21334598.74647     -1763.824
 -25182394.933 8  20473733.431 8 -19268364.99448  20473733.67548      -788.507
 -20170289.404 8  21434941.322 8 -15393678.12847  21434940.99147       163.718
 15  1 19  0 33 30.0000000  0  7G02G05G12G21G25G29G31
  -1528260.044 5  24555312.003 5   6267992.71945  24555309.42545     -2853.052
  -4181348.022 5  24682680.156 5  -3132717.87145  24682683.62545      1530.127
  -5849081.127 5  24257727.192 5  -4051186.09345  24257728.85345     -3064.442
  -8788426.929 6  23195521.934 6  -6656052.18845  23195522.38145      2867.264
 -21384398.288 7  21344697.663 7 -16105504.11647  21344700.93347     -1775.304
 -25158560.183 8  20478269.025 8 -19249792.45548  20478269.13148      -800.476
 -20174913.434 8  21434061.401 8 -15397281.27247  21434061.06947       144.527
 15  1 19  0 34  0.0000000  0  7G02G05G12G21G25G29G31
  -1442547.352 5  24571622.550 5   6334781.79545  24571622.15445     -2861.112
  -4227040.606 5  24673985.171 5  -3168322.43745  24673987.45145      1516.015
  -5757078.572 5  24275234.710 5  -3979495.82945  24275236.15545     -3069.075
  -8874320.676 5  23179176.923 5  -6722982.36346  23179177.59446      2858.959
 -21330966.843 7  21354865.340 7 -16063869.23247  21354868.80347     -1786.788
 -25134366.868 8  20482872.855 8 -19230940.51848  20482873.03948      -812.407
 -20178961.362 8  21433291.119 8 -15400435.51247  21433290.77447       125.322
 15  1 19  0 34 30.0000000  0  7G02G05G12G21G25G29G31
  -1356595.023 4  24587978.638 4   6401757.62445  24587977.57045     -2869.050
  -4272308.507 5  24665370.942 5  -3203596.10445  24665373.24745      1501.835
  -5664937.268 5  24292768.650 5  -3907697.41845  24292768.26345     -3073.704
  -8959963.806 5  23162879.572 5  -6789717.26246  23162880.36646      2850.576
 -21277191.250 7  21365098.504 7 -16021966.16847  21365101.98347     -1798.255
 -25109816.459 8  20487544.645 8 -19211810.32648  20487544.88748      -824.290
 -20182432.451 8  21432630.615 8 -15403140.26547  21432630.17047       106.097
 15  1 19  0 35  0.0000000  0  7G02G05G12G21G25G29G31
  -1270405.139 4  24604379.950 4   6468918.65045  24604378.21045     -2876.944
  -4317149.520 5  24656837.992 5  -3238537.11845  24656838.69445      1487.549
  -5572657.383 5  24310328.944 5  -3835791.05045  24310330.10545     -3078.294
  -9045354.538 5  23146630.225 5  -6856255.47446  23146630.97846      2842.135
 -21223071.853 7  21375397.088 7 -15979795.22447  21375400.41147     -1809.702
 -25084910.511 8  20492284.083 8 -19192403.09648  20492284.55748      -836.130
 -20185326.914 8  21432079.817 8 -15405395.69447  21432079.40747        86.866
 15  1 19  0 35 30.0000000  0  7G02G05G12G21G25G29G31
  -1183979.634 4  24620826.100 4   6536263.17945  24620823.06745     -2884.756
  -4361561.058 5  24648386.766 5  -3273143.45945  24648387.48945      1473.198
  -5480240.204 5  24327915.372 5  -3763777.67445  24327915.71445     -3082.860
  -9130490.749 5  23130429.313 5  -6922595.37646  23130429.57546      2833.605
 -21168608.963 7  21385761.046 7 -15937356.61547  21385764.32347     -1821.154
 -25059649.175 8  20497091.168 8 -19172718.93648  20497091.39348      -847.953
 -20187644.004 8  21431638.887 8 -15407201.21947  21431638.42547        67.610
 15  1 19  0 36  0.0000000  0  7G02G05G12G21G25G29G31
  -1097320.990 4  24637316.606 4   6603789.33445  24637314.20445     -2892.459
  -4405541.373 5  24640017.557 5  -3307413.82045  24640018.06145      1458.800
  -5387685.814 5  24345527.870 5  -3691657.37045  24345528.66545     -3087.403
  -9215370.590 6  23114277.218 6  -6988735.47946  23114278.09446      2825.031
 -21113802.911 7  21396190.309 7 -15894650.59547  21396193.59347     -1832.588
 -25034034.327 8  20501965.502 8 -19152759.31548  20501965.62248      -859.711
 -20189383.510 8  21431307.878 8 -15408556.68147  21431307.67947        48.353
 15  1 19  0 36 30.0000000  0  7G02G05G12G21G25G29G31
  -1010431.399 4  24653851.184 4   6671495.50145  24653850.78845     -2900.146
  -4449087.752 5  24631730.983 5  -3341346.06345  24631732.00345      1444.275
  -5294995.601 5  24363166.239 5  -3619431.25245  24363167.50845     -3091.955
  -9299992.491 6  23098174.163 6  -7054674.61646  23098174.70146      2816.396
 -21058654.073 7  21406684.794 7 -15851677.48347  21406688.20547     -1843.998
 -25008067.211 8  20506906.876 8 -19132525.19548  20506907.07448      -871.437
 -20190545.273 8  21431086.799 8 -15409461.95847  21431086.41147        29.095
 15  1 19  0 37  0.0000000  0  7G02G05G12G21G25G29G31
   -923313.148 5  24670429.452 5   6739379.85845  24670426.74245     -2907.723
  -4492197.469 5  24623527.419 5  -3374938.01645  24623528.03145      1429.675
  -5202169.466 5  24380830.442 5  -3547099.24845  24380831.77745     -3096.441
  -9384354.072 5  23082120.636 5  -7120410.91346  23082120.40746      2807.679
 -21003162.801 7  21417244.451 7 -15808437.55147  21417247.66547     -1855.429
 -24981748.768 8  20511915.106 8 -19112017.31648  20511915.37748      -883.101
 -20191128.807 7  21430975.760 7 -15409916.66347  21430975.38547         9.818
 15  1 19  0 37 30.0000000  0  7G02G05G12G21G25G29G31
   -835968.341 4  24687050.764 4   6807440.74845  24687050.22145     -2915.246
  -4534868.852 5  24615407.319 5  -3408188.44345  24615410.20745      1415.035
  -5109208.792 5  24398520.263 5  -3474662.34945  24398521.20145     -3100.916
  -9468453.292 6  23066117.080 6  -7185942.75546  23066117.69746      2798.920
 -20947329.463 7  21427869.185 7 -15764931.06347  21427872.52247     -1866.818
 -24955080.809 8  20516989.848 8 -19091237.08648  20516990.11648      -894.766
 -20191134.441 8  21430974.710 8 -15409921.05847  21430974.53247        -9.453
 15  1 19  0 38  0.0000000  0  7G02G05G12G21G25G29G31
   -748399.373 4  24703714.724 4   6875676.27445  24703712.28345     -2922.667
  -4577099.368 5  24607371.108 5  -3441095.28645  24607372.21645      1400.325
  -5016113.869 4  24416235.623 4  -3402120.90145  24416234.54045     -3105.383
  -9552288.787 6  23050163.734 6  -7251269.09546  23050164.67346      2790.095
 -20891154.370 7  21438558.960 7 -15721158.28347  21438562.38547     -1878.188
 -24928063.903 8  20522130.995 8 -19070184.95148  20522131.14448      -906.347
 -20190561.725 7  21431083.674 7 -15409474.79347  21431083.49847       -28.726
 15  1 19  0 38 30.0000000  0  7G02G05G12G21G25G29G31
   -660608.322 4  24720420.704 4   6944084.93745  24720423.07145     -2930.031
  -4618886.917 5  24599419.180 5  -3473656.99645  24599419.99045      1385.507
  -4922885.706 4  24433976.329 4  -3329475.57545  24433975.96845     -3109.834
  -9635858.384 6  23034260.979 6  -7316388.26946  23034261.99246      2781.188
 -20834637.954 7  21449313.692 7 -15677119.52747  21449317.08047     -1889.568
 -24900699.563 8  20527338.243 8 -19048862.08048  20527338.35148      -917.937
 -20189410.388 8  21431302.758 8 -15408577.64647  21431302.36847       -48.031
 15  1 19  0 39  0.0000000  0  7G02G05G12G21G25G29G31
   -572597.282 5  24737168.832 5   7012665.00145  24737166.28245     -2937.372
  -4660229.108 5  24591551.979 5  -3505871.69745  24591553.11345      1370.638
  -4829524.746 4  24451742.357 4  -3256726.81945  24451740.02945     -3114.243
  -9719159.937 6  23018409.234 6  -7381298.54746  23018410.44446      2772.230
 -20777780.592 7  21460133.291 7 -15632815.10247  21460136.72847     -1900.929
 -24872988.445 8  20532611.485 8 -19027269.00848  20532611.52648      -929.469
 -20187680.226 8  21431631.996 8 -15407229.47947  21431631.64047       -67.313
 15  1 19  0 39 30.0000000  0  7G02G05G12G21G25G29G31
   -484368.032 4  24753958.305 4   7081414.93645  24753956.15145     -2944.566
  -4701123.870 5  24583769.940 5  -3537737.73245  24583770.65345      1355.675
  -4736032.209 4  24469533.359 4  -3183875.48345  24469533.61845     -3118.616
  -9802191.594 6  23002608.802 6  -7445998.53146  23002609.82546      2763.196
 -20720582.648 7  21471017.698 7 -15588245.28447  21471021.22947     -1912.274
 -24844932.369 8  20537950.369 8 -19005407.12648  20537950.70848      -940.943
 -20185371.393 8  21432071.366 8 -15405430.39247  21432070.84847       -86.610
 15  1 19  0 40  0.0000000  0  7G02G05G12G21G25G29G31
   -395923.494 3  24770788.656 3   7150332.74745  24770787.68345     -2951.696
  -4741569.018 5  24576073.474 5  -3569253.42045  24576075.14845      1340.641
  -4642408.417 5  24487349.398 5  -3110921.89045  24487347.22945     -3122.989
  -9884951.737 6  22986860.044 6  -7510486.95646  22986861.21746      2754.120
 -20663044.540 7  21481966.832 7 -15543410.41147  21481970.08347     -1923.610
 -24816532.497 8  20543354.686 8 -18983277.35448  20543355.02948      -952.376
 -20182483.757 8  21432620.877 8 -15403180.28647  21432620.32047      -105.907
 15  1 19  0 40 30.0000000  0  7G02G05G12G21G25G29G31
   -307265.689 3  24787659.525 3   7219416.77745  24787663.55345     -2958.765
  -4781562.483 5  24568462.918 5  -3600417.13145  24568461.11345      1325.544
  -4548654.637 4  24505190.162 4  -3037867.02645  24505192.72645     -3127.251
  -9967438.369 6  22971163.378 6  -7574762.23046  22971163.40246      2744.981
 -20605166.668 7  21492980.636 7 -15498310.78747  21492984.47047     -1934.928
 -24787790.194 8  20548824.165 8 -18960880.75447  20548824.29847      -963.773
 -20179017.057 8  21433280.581 8 -15400478.96747  21433280.01747      -125.210
 15  1 19  0 41  0.0000000  0  7G02G05G12G21G25G29G31
   -218397.103 4  24804570.590 4   7288665.07645  24804567.28345     -2965.789
  -4821101.946 5  24560938.784 5  -3631227.13045  24560941.84345      1310.401
  -4454771.388 5  24523055.603 5  -2964711.20845  24523055.57545     -3131.604
 -10049649.747 6  22955519.061 6  -7638823.04246  22955519.18946      2735.764
 -20546949.438 7  21504059.021 7 -15452946.74047  21504062.73047     -1946.219
 -24758706.836 8  20554358.529 8 -18938218.40347  20554358.94847      -975.124
 -20174971.418 8  21434050.439 8 -15397326.53247  21434050.13547      -144.503
 15  1 19  0 41 30.0000000  0  7G02G05G12G21G25G29G31
   -129319.401 4  24821521.471 4   7358076.21245  24821520.56545     -2972.717
  -4860185.702 5  24553501.371 5  -3661681.96345  24553502.97645      1295.167
  -4360758.712 5  24540945.641 5  -2891454.59145  24540944.37445     -3135.897
 -10131584.179 6  22939927.443 6  -7702668.03546  22939927.98346      2726.512
 -20488393.249 7  21515201.884 7 -15407318.56447  21515205.38147     -1957.509
 -24729282.848 8  20559957.735 8 -18915290.61747  20559957.73347      -986.469
 -20170346.691 8  21434930.492 8 -15393722.85347  21434930.08447      -163.821
 15  1 19  0 42  0.0000000  0  7G02G05G12G21G25G29G31
    -40034.887 5  24838511.792 5   7427648.60945  24838509.46445     -2979.578
  -4898810.969 5  24546151.167 5  -3691779.57745  24546148.21045      1279.843
  -4266618.047 5  24558860.069 5  -2818098.26145  24558859.58545     -3140.152
 -10213239.603 6  22924388.952 6  -7766295.62246  22924389.36546      2717.172
 -20429498.552 7  21526409.182 7 -15361426.60747  21526412.80247     -1968.803
 -24699519.866 8  20565621.445 8 -18892098.69147  20565621.51647      -997.742
 -20165142.794 8  21435920.770 8 -15389667.88047  21435920.74247      -183.125
 15  1 19  0 42 30.0000000  0  7G02G05G12G21G25G29G31
     49454.030 4  24855541.010 4   7497380.15845  24855540.92145     -2986.365
  -4936975.999 5  24538888.597 5  -3721518.56545  24538888.09045      1264.467
  -4172349.748 5  24576798.789 5  -2744642.47245  24576802.33645     -3144.426
 -10294613.887 6  22908903.952 6  -7829704.13746  22908904.79946      2707.775
 -20370265.779 7  21537680.802 7 -15315271.21447  21537684.25247     -1980.059
 -24669419.252 8  20571349.409 8 -18868643.66847  20571349.66247     -1008.971
 -20159360.134 8  21437021.169 8 -15385161.91147  21437020.81647      -202.409
 15  1 19  0 43  0.0000000  0  7G02G05G12G21G25G29G31
    139145.251 4  24872608.666 4   7567269.46345  24872606.73545     -2993.033
  -4974678.625 4  24531713.975 4  -3750897.21645  24531717.63345      1249.002
  -4077955.084 5  24594761.543 5  -2671088.14145  24594760.50745     -3148.554
 -10375705.543 6  22893472.688 6  -7892892.43946  22893474.61846      2698.332
 -20310695.345 7  21549016.681 7 -15268852.70647  21549020.29847     -1991.312
 -24638982.296 8  20577141.379 8 -18844926.56447  20577141.67747     -1020.158
 -20152998.632 8  21438231.720 8 -15380204.90547  21438231.07247      -221.683
 15  1 19  0 43 30.0000000  0  7G02G05G12G21G25G29G31
    229036.671 4  24889714.308 4   7637314.79045  24889711.84145     -2999.727
  -5011916.955 4  24524627.729 4  -3779914.03845  24524626.45745      1233.512
  -3983435.056 5  24612748.138 5  -2597436.17745  24612748.88845     -3152.759
 -10456512.531 6  22878095.629 6  -7955858.90946  22878095.49846      2688.800
 -20250787.736 7  21560416.714 7 -15222171.46847  21560420.02447     -2002.536
 -24608210.188 8  20582997.123 8 -18820948.28647  20582997.44747     -1031.318
 -20146058.512 7  21439552.387 7 -15374797.03047  21439551.81347      -240.983
 15  1 19  0 44  0.0000000  0  7G02G05G12G21G25G29G31
    319126.148 4  24906857.709 4   7707514.39345  24906856.06445     -3006.256
  -5048688.727 5  24517630.350 5  -3808567.37245  24517631.24245      1217.930
  -3888789.601 5  24630758.583 5  -2523686.47245  24630759.86645     -3156.933
 -10537033.185 6  22862773.056 6  -8018602.25746  22862773.02446      2679.220
 -20190543.401 7  21571880.840 7 -15175227.85347  21571884.34247     -2013.753
 -24577104.000 8  20588916.436 8 -18796709.70547  20588916.89047     -1042.418
 -20138539.599 8  21440983.186 8 -15368938.14547  21440982.37747      -260.274
 15  1 19  0 44 30.0000000  0  7G02G05G12G21G25G29G31
    409411.220 5  24924038.385 5   7777866.45145  24924038.79145     -3012.755
  -5084991.779 5  24510722.022 5  -3836855.50445  24510725.90145      1202.277
  -3794019.416 5  24648792.781 5  -2449839.61345  24648793.20945     -3161.066
 -10617265.643 6  22847505.324 6  -8081121.04946  22847506.03946      2669.597
 -20129962.748 7  21583408.974 7 -15128022.17047  21583412.40347     -2024.952
 -24545664.781 8  20594899.127 8 -18772211.60547  20594899.27947     -1053.509
 -20130441.914 8  21442524.127 8 -15362628.26647  21442523.60047      -279.569
 15  1 19  0 45  0.0000000  0  7G02G05G12G21G25G29G31
    499889.997 5  24941255.904 5   7848369.40745  24941253.25645     -3019.169
  -5120824.598 5  24503903.216 5  -3864777.15445  24503903.15045      1186.571
  -3699125.811 5  24666850.454 5  -2375896.55645  24666850.41845     -3165.174
