     2.10           OBSERVATION DATA    G (GPS)             RINEX VERSION / TYPE
teqc  2001May8                          20040302 02:18:13UTCPGM / RUN BY / DATE
MSWinNT 4.0|PentPro|wcl386 10.6|MSWin95/98/NT|486/DX+       COMMENT
teqc  2001May8      ICC                 20040302 02:17:33UTCCOMMENT
BIT 2 OF LLI FLAGS DATA COLLECTED UNDER A/S CONDITION       COMMENT
BELL                                                        MARKER NAME
13431M001                                                   MARKER NUMBER
ICC                 ICC                                     OBSERVER / AGENCY
18091               TRIMBLE 4000SSI     7.29 / 3.07         REC # / TYPE / VERS
0220080346          TRM29659.00     NONE                    ANT # / TYPE
  4775849.6200   116814.1000  4213018.7100                  APPROX POSITION XYZ
        0.0540        0.0000        0.0000                  ANTENNA: DELTA H/E/N
     1     1                                                WAVELENGTH FACT L1/2
     5    L1    L2    C1    P2    P1                        # / TYPES OF OBSERV
    30.0000                                                 INTERVAL
 SNR is mapped to RINEX snr flag value [1-9]                COMMENT
  L1: 3 -> 1; 8 -> 5; 40 -> 9                               COMMENT
  L2: 1 -> 1; 5 -> 5; 60 -> 9                               COMMENT
teqc windowed: start @ 2004 Mar  1 00:00: 0.000             COMMENT
teqc windowed: delta = 86400.000 sec                        COMMENT
Forced Modulo Decimation to 30 seconds                      COMMENT
  2004     3     1     0     0    0.0000000     GPS         TIME OF FIRST OBS
                                                            END OF HEADER
 04  3  1  0  0  0.0000000  0  9G21G10G28G27G29G24G 8G26G17
  -2064195.02043   -368079.53145  25005941.1324   25005943.8634
 -23887266.03746 -10338331.60147  20743622.2004   20743627.1584
 -13085456.78547 -10007244.19746  22129196.4824   22129200.1624
  -5389729.83046  -4013022.32246  23564758.8164   23564763.2244
  -6096605.03848  -4619595.15447  21640915.0234   21640918.8924
  -5607984.57542  -3879785.91944  25012269.2444   25012279.7824
 -22496298.37646 -17307634.36547  20949408.9344   20949413.4004
  -2335736.28847  -1675746.95046  22004738.6684   22004742.9934
   4713181.59645   3703567.78945  23017239.5834   23017246.2644
 04  3  1  0  0 30.0000000  0  9G21G10G28G27G29G24G 8G26G17
  -2115162.71445   -407794.62345  24996242.9904   24996244.6674
 -23868300.11146 -10323552.98047  20747231.3774   20747235.8554
 -13147728.65948 -10055767.70946  22117346.3404   22117349.7624
  -5314346.09746  -3954281.79846  23579104.0224   23579108.1604
  -6151437.92748  -4662322.06847  21630480.8564   21630484.6074
  -5518542.49843  -3810090.88044  25029288.8684   25029288.8564
 -22451217.66146 -17272506.53747  20957987.3124   20957991.2624
  -2409766.74047  -1733433.00546  21990651.0854   21990655.8804
   4783757.15645   3758561.74345  23030669.6014   23030676.7164
 04  3  1  0  1  0.0000000  0  9G21G10G28G27G29G24G 8G26G17
  -2165617.56345   -447110.09345  24986641.9924   24986645.9904
 -23848778.92446 -10308341.66647  20750945.9204   20750950.9024
 -13209548.89147 -10103939.30146  22105582.3204   22105586.3404
  -5238880.74446  -3895477.63546  23593464.3314   23593470.2754
  -6206094.41448  -4704911.55047  21620080.0344   21620083.7264
  -5429138.46343  -3740425.46944  25046303.1184   25046311.2304
 -22405767.13347 -17237090.53647  20966636.2594   20966640.7374
  -2483605.64947  -1790969.77746  21976600.0164   21976604.3064
   4854686.91646   3813831.65046  23044168.4814   23044173.9084
 04  3  1  0  1 30.0000000  0  9G21G10G28G27G29G24G 8G26G17
  -2215556.46443   -486023.55245  24977137.6754   24977142.9854
 -23828701.03946 -10292696.56847  20754766.7754   20754771.4764
 -13270913.65647 -10151756.02346  22093904.9484   22093908.6524
  -5163333.31645  -3836609.53946  23607840.4394   23607845.5154
  -6260571.89748  -4747361.55947  21609713.3654   21609716.5194
  -5339773.89543  -3670790.64344  25063308.0614   25063320.3454
 -22359946.87747 -17201386.44147  20975355.5114   20975360.3184
  -2557250.20547  -1848355.14446  21962586.0574   21962589.6914
   4925969.49146   3869376.47346  23057732.8254   23057737.9594
 04  3  1  0  2  0.0000000  0  9G21G10G28G27G29G24G 8G26G17
  -2264971.43844   -524528.79445  24967735.1904   24967738.5204
 -23808059.79147 -10276612.49847  20758694.4664   20758699.6594
 -13331814.14748 -10199210.91346  22082315.8854   22082318.7574
  -5087697.91646  -3777672.87746  23622233.9104   23622238.7164
  -6314862.85748  -4789666.20547  21599382.0314   21599385.5244
  -5250444.16142  -3601183.19244  25080305.0744   25080308.5214
 -22313751.92746 -17165390.38447  20984146.1744   20984150.5934
  -2630692.67147  -1905583.03846  21948610.2844   21948614.4684
   4997608.39845   3925199.00745  23071364.4364   23071371.0244
 04  3  1  0  2 30.0000000  0  9G21G10G28G27G29G24G 8G26G17
  -2313857.66345   -562621.89545  24958433.5684   24958435.7364
 -23786851.70746 -10260086.71747  20762730.3834   20762735.4824
 -13392244.38447 -10246299.40246  22070816.3394   22070820.3134
  -5011972.20746  -3718665.85546  23636644.4124   23636649.9334
  -6368962.50447  -4831821.74647  21589086.8434   21589091.2034
  -5161148.10843  -3531601.83744  25097301.2454   25097301.8434
 -22267180.10746 -17129100.64747  20993008.5274   20993013.0994
  -2703928.41847  -1962649.83446  21934673.8874   21934678.4124
   5069604.22646   3981299.62945  23085065.2744   23085071.3224
 04  3  1  0  3  0.0000000  0  9G21G10G28G27G29G24G 8G26G17
  -2362229.45644   -600314.37545  24949226.5544   24949230.9144
 -23765093.70546 -10243132.45047  20766870.8494   20766875.1864
 -13452218.59547 -10293032.54946  22059403.7694   22059408.1654
  -4936173.75646  -3659602.14046  23651067.9424   23651072.6074
  -6422886.23747  -4873840.23247  21578825.5284   21578829.7364
  -5071905.06743  -3462061.83444  25114281.9744   25114297.9634
 -22220250.00147 -17092531.74347  21001939.0024   21001944.0194
  -2776972.76147  -2019567.50146  21920774.4094   21920778.8874
   5141937.49646   4037663.17845  23098829.4964   23098835.8854
 04  3  1  0  3 30.0000000  0  9G21G10G28G27G29G24G 8G26G17
  -2410077.63244   -637598.72645  24940122.1854   24940132.1604
 -23742777.41747 -10225743.15447  20771117.5014   20771122.7184
 -13511726.56847 -10339402.39646  22048079.8484   22048084.6544
  -4860295.28146  -3600476.07446  23665507.2654   23665511.0274
  -6476624.88047  -4915714.49647  21568599.4604   21568603.9974
  -4982709.21242                  25131254.2614
 -22172954.63746 -17055678.21347  21010939.0684   21010944.1094
  -2849816.45347  -2076328.82046  21906912.5664   21906916.2124
   5214613.44946   4094293.77945  23112659.0224   23112664.2854
 04  3  1  0  4  0.0000000  0  9G21G10G28G27G29G24G 8G26G17
  -2457404.55245   -674476.77345  24931116.9074   24931119.5334
 -23719907.06446 -10207922.08847  20775469.5064   20775475.0624
 -13570769.95647 -10385410.22446  22036844.0054   22036847.8034
  -4784341.89045  -3541291.63445  23679960.6704   23679966.8364
  -6530181.48348  -4957446.91047  21558408.0914   21558412.4754
  -4893567.21543                  25148218.8444
 -22125299.89046 -17018544.65647  21020007.4984   21020011.7654
  -2922462.49547  -2132936.12146  21893088.1854   21893092.7684
   5287624.62745   4151185.58945  23126552.5394   23126559.6314
 04  3  1  0  4 30.0000000  0  9G21G10G28G27G29G24G 8G26G17
  -2504208.25144   -710947.14645  24922209.9434   24922212.3354
 -23696482.52846 -10189669.21947  20779927.1214   20779931.7984
 -13629346.17948 -10431054.01646  22025697.3634   22025700.3414
  -4708313.87746  -3482049.06646  23694428.3924   23694431.6984
  -6583554.41448  -4999036.21947  21548251.7074   21548255.7404
  -4804480.72942                  25165171.2394
 -22077286.84246 -16981131.87347  21029143.7854   21029148.5684
  -2994909.14747  -2189388.05046  21879302.1204   21879306.2824
   5360968.99645   4208337.03145  23140510.0314   23140515.4354
 04  3  1  0  5  0.0000000  0  9G21G10G28G27G29G24G 8G26G17
  -2550482.32242   -747004.88745  24913403.7994   24913408.1014
 -23672498.67347 -10170980.52647  20784491.0424   20784495.5674
 -13687447.67747 -10476327.89346  22014641.0244   22014645.3974
  -4632207.18245  -3422745.11145  23708911.0934   23708916.8264
  -6636737.26548  -5040477.40347  21538131.3944   21538135.2744
  -4715447.34542                  25182112.9134
 -22028911.76046 -16943437.02747  21038349.4004   21038353.4684
  -3067150.09548  -2245679.70646  21865555.4654   21865559.6504
   5434648.32746   4265749.44945  23154531.7814   23154537.3254
 04  3  1  0  5 30.0000000  0  9G21G10G28G27G29G24G 8G26G17
  -2596230.44844   -782652.85345  24904699.5064   24904702.0264
 -23647960.77548 -10151860.08747  20789160.2734   20789165.9584
 -13745077.62648 -10521234.34446  22003674.5364   22003678.4624
  -4556027.90246  -3363384.65445  23723407.0604   23723410.7414
  -6689734.23248  -5081773.74447  21528046.1344   21528050.3894
  -4626474.40743                  25199044.9464
 -21980181.66146 -16905465.51547  21047622.5474   21047626.8964
  -3139189.34848  -2301814.18146  21851846.7594   21851850.2994
   5508654.40846   4323416.50545  23168613.6824   23168620.2114
 04  3  1  0  6  0.0000000  0  9G21G10G28G27G29G24G 8G26G17
  -2641448.80843   -817887.89245  24896093.1124   24896096.8284
 -23622866.87946 -10132306.41847  20793935.9634   20793940.9094
 -13802231.34948 -10565769.70546  21992798.7064   21992802.0354
  -4479774.41646  -3303966.40445  23737918.1394   23737923.5904
  -6742541.72347  -5122922.43547  21517997.0614   21518001.6444
  -4537562.23742                  25215961.9324
 -21931095.62746 -16867216.67547  21056963.2674   21056967.4874
  -3211023.22148  -2357788.64646  21838177.0194   21838180.9704
   5582986.74546   4381337.85745  23182758.7244   23182763.5424
 04  3  1  0  6 30.0000000  0  9G21G10G28G27G29G24G 8G26G17
  -2686137.96343   -852710.60645  24887588.9524   24887590.6404
 -23597219.17346 -10112321.20547  20798816.5104   20798821.0234
 -13858908.86647 -10609934.00646  21982013.0794   21982016.8534
  -4403449.92045  -3244492.76945  23752441.8754   23752447.0444
  -6795160.74447  -5163924.25247  21507983.8564   21507988.3694
  -4448715.33143                  25232871.0334
 -21881657.37547 -16828693.36147  21066371.1534   21066375.9704
  -3282652.73848  -2413603.85147  21824546.5744   21824550.3604
   5657640.27946   4439509.32245  23196964.4954   23196968.2464
 04  3  1  0  7  0.0000000  0  9G21G10G28G27G29G24G 8G26G17
  -2730300.05742   -887122.67045  24879186.1834   24879193.4984
 -23571021.20446 -10091907.20847  20803801.6124   20803806.5704
 -13915111.24948 -10653728.05546  21971318.2564   21971321.5504
  -4327058.43446  -3184966.93846  23766979.0204   23766983.8494
  -6847593.48048  -5204780.92747  21498006.4474   21498010.7724
  -4359939.22543                  25249764.2304
 -21831871.66446 -16789899.30847  21075844.9334   21075848.9424
  -3354080.03348  -2469261.46446  21810954.1044   21810958.0314
   5732608.44245   4497926.11645  23211230.9214   23211236.6424
 04  3  1  0  7 30.0000000  0  9G21G10G28G27G29G24G 8G26G17
  -2773938.44444   -921126.65745  24870882.6894   24870883.2294
 -23544277.81747 -10071068.22047  20808890.7954   20808895.7194
 -13970840.94947 -10697153.76846  21960713.0884   21960716.3944
  -4250605.77746  -3125393.47746  23781527.4274   23781532.1514
  -6899843.39648  -5245495.14147  21488063.7554   21488067.5774
  -4271241.08043                  25266642.7774
 -21781745.11946 -16750839.66147  21085383.7084   21085387.9644
  -3425308.53948  -2524764.18346  21797400.0044   21797403.4264
   5807883.81245   4556582.23245  23225555.3794   23225561.1814
 04  3  1  0  8  0.0000000  0  9G21G10G28G27G29G24G 8G26G17
  -2817046.69645   -954717.49445  24862679.5054   24862684.2754
 -23516984.68147 -10049800.85447  20814084.4794   20814089.5674
 -14026091.17448 -10740205.89146  21950199.1954   21950202.6064
  -4174088.03346  -3065769.28045  23796088.4274   23796092.3314
  -6951904.59948  -5286062.32947  21478156.8174   21478160.4634
  -4182618.69643     36820.55244  25283507.4394   25283506.1734
 -21731274.48148 -16711511.90947  21094988.1514   21094992.4774
  -3496332.43347  -2580107.47346  21783884.5324   21783888.6814
   5883467.67345   4615478.68645  23239938.0904   23239943.8694
 04  3  1  0  8 30.0000000  0  9G21G10G28G27G29G24G 8G26G17
  -2859617.83844   -987889.85545  24854578.1054   24854582.3024
 -23489136.09046 -10028100.66747  20819383.9964   20819388.6734
 -14080853.72848 -10782878.00646  21939778.1424   21939781.6704
  -4097499.98146  -3006090.28245  23810662.4784   23810666.4404
  -7003769.92948  -5326476.87047  21468287.1024   21468290.8064
  -4094068.34342                  25300358.6084
 -21680455.29446 -16671912.54247  21104658.7764   21104662.7624
  -3567144.37347  -2635285.60046  21770409.3914   21770413.2594
   5959363.14646   4674617.98545  23254380.6354   23254387.3514
 04  3  1  0  9  0.0000000  0  9G21G10G28G27G29G24G 8G26G17
  -2901656.10543  -1020646.85643  24846578.1464   24846581.8744
 -23460738.10746 -10005972.37647  20824787.8664   20824792.4724
 -14135132.35747 -10825173.03946  21929449.6764   21929453.3104
  -4020848.21146  -2946361.64845  23825248.7374   23825253.5314
  -7055443.79748  -5366742.20047  21458454.0504   21458457.6484
  -4005598.02742                  25317193.6884
 -21629294.66547 -16632047.12747  21114394.2174   21114399.0824
  -3637748.77747  -2690302.00746  21756973.7634   21756977.9944
   6035561.82245   4733993.55445  23268881.0564   23268888.3004
 04  3  1  0  9 30.0000000  0  9G21G10G28G27G29G24G 8G26G17
  -2943156.62443  -1052985.03645  24838680.4664   24838684.3574
 -23431787.53746  -9983413.50347  20830296.9404   20830301.7704
 -14188921.29948 -10867086.49846  21919213.9234   21919217.0764
  -3944129.87846  -2886581.14745  23839848.0794   23839853.1544
  -7106921.43648  -5406854.63647  21448658.0764   21448662.2844
  -3917206.35542                  25334013.4044
 -21577790.80246 -16591914.24947  21124195.1864   21124199.4534
  -3708140.92047  -2745153.03446  21743578.5304   21743582.9844
   6112063.95946   4793605.64545  23283439.4944   23283445.9884
 04  3  1  0 10  0.0000000  0  9G21G10G28G27G29G24G 8G26G17
  -2984124.40344  -1084907.95945  24830885.0254   24830889.9134
 -23402290.81546  -9960429.05947  20835909.9944   20835914.4484
 -14242224.63548 -10908621.53146  21909070.3944   21909073.6064
  -3867352.23146  -2826754.42845  23854458.2474   23854463.4874
  -7158207.88648  -5446818.09247  21438898.5704   21438902.4854
  -3828901.90142                  25350819.4074
 -21525951.41048 -16551519.92947  21134059.8834   21134065.1934
  -3778325.61047  -2799842.37446  21730222.7844   21730226.3244
   6188860.47346   4853447.05945  23298052.9534   23298058.6274
 04  3  1  0 10 30.0000000  0  8G21G10G28G27G29G 8G26G17
  -3024555.45144  -1116412.68845  24823191.7194   24823196.8184
 -23372245.47746  -9937017.11947  20841627.3974   20841631.8994
 -14295037.52547 -10949774.43546  21899020.3744   21899024.0554
  -3790513.09846  -2766879.76445  23869080.1564   23869084.6924
  -7209299.15948  -5486629.47847  21429176.4204   21429179.9374
 -21473775.33747 -16510863.25147  21143988.6714   21143993.2544
  -3848298.96347  -2854367.07146  21716907.5164   21716911.2674
   6265950.81845   4913517.43145  23312722.8314   23312728.6344
 04  3  1  0 11  0.0000000  0  8G21G10G28G27G29G 8G26G17
  -3064445.99344  -1147496.13445  24815599.5824   24815606.4044
 -23341649.42546  -9913176.05047  20847449.8394   20847454.8804
 -14347355.52148 -10990541.70746  21889064.7614   21889068.2074
  -3713610.89345  -2706956.04145  23883713.8644   23883718.9524
  -7260191.59448  -5526285.92647  21419491.5354   21419495.5204
 -21421261.49748 -16469943.36547  21153981.4824   21153986.8284
  -3918057.26247  -2908724.14046  21703632.9104   21703636.6734
   6343334.61545   4973816.39945  23327447.3564   23327453.5814
 04  3  1  0 11 30.0000000  0  8G21G10G28G27G29G 8G26G17
  -3103798.27745  -1178160.30245  24808112.5524   24808111.7674
 -23310506.82346  -9888909.11247  20853376.0494   20853380.8674
 -14399180.15148 -11030924.52146  21879202.9064   21879206.4924
  -3636650.23945  -2646986.71145  23898358.6284   23898365.5684
  -7310887.69748  -5565789.36547  21409844.2214   21409848.9104
 -21368415.41248 -16428764.61847  21164037.8534   21164042.5424
  -3987602.83347  -2962915.52146  21690398.9294   21690403.9694
   6421004.93845   5034338.76345  23342227.7644   23342236.4614
 04  3  1  0 12  0.0000000  0  8G21G10G28G27G29G 8G26G17
  -3142611.99944  -1208404.74745  24800725.9894   24800730.3264
 -23278818.48446  -9864216.90747  20859406.0284   20859410.9394
 -14450510.07947 -11070921.86846  21869435.1854   21869439.3934
  -3559632.37045  -2586972.81745  23913014.3704   23913020.1024
  -7361386.70448  -5605139.22447  21400234.8484   21400238.7514
 -21315239.07748 -16387328.49647  21174156.8134   21174162.1344
  -4056935.17247  -3016940.70546  21677204.9514   21677209.2184
   6498958.28945   5095081.63745  23357062.6334   23357069.5144
 04  3  1  0 12 30.0000000  0  8G21G10G28G27G29G 8G26G17
  -3180884.40344  -1238227.47845  24793443.4144   24793446.8374
 -23246583.51846  -9839098.76847  20865540.3734   20865545.2844
 -14501341.65048 -11110530.86246  21859762.1374   21859765.3604
  -3482556.75445  -2526913.93945  23927681.5784   23927687.7094
  -7411685.86348  -5644333.36947  21390663.1994   21390667.0094
 -21261732.72248 -16345635.26147  21184338.9044   21184343.6054
  -4126051.25747  -3070797.39346  21664053.0704   21664057.0324
   6577193.17745   5156043.82245  23371950.2324   23371955.5194
 04  3  1  0 13  0.0000000  0  8G21G10G28G27G29G 8G26G17
  -3218619.65744  -1267631.62745  24786261.5914   24786265.2604
 -23213807.71747  -9813559.18947  20871777.0774   20871782.5164
 -14551678.40148 -11149754.29446  21850183.1784   21850186.0734
  -3405429.18645  -2466814.54245  23942359.0004   23942364.8614
  -7461789.17148  -5683374.90047  21381128.8804   21381132.9594
 -21207902.97748 -16303689.98547  21194582.2074   21194587.1424
  -4194955.18147  -3124488.76146  21650940.7464   21650945.6934
   6655701.24645   5217218.92645  23386889.7394   23386896.0224
 04  3  1  0 13 30.0000000  0  8G21G10G28G27G29G 8G26G17
  -3255811.29744  -1296612.20345  24779184.3124   24779194.2644
 -23180486.35547  -9787594.50547  20878117.9274   20878122.9444
 -14601512.98347 -11188586.42446  21840700.0944   21840704.1034
  -3328245.56146  -2406671.45445  23957046.6204   23957049.1054
  -7511690.17348  -5722258.80747  21371633.1564   21371637.0244
 -21153746.28748 -16261489.99547  21204887.9174   21204892.2074
  -4263640.48547  -3178009.74446  21637870.5354   21637874.5564
   6734484.70645   5278608.65245  23401881.8614   23401887.4884
 04  3  1  0 14  0.0000000  0  8G21G10G28G27G29G 8G26G17
  -3292459.07945  -1325168.85145  24772210.6334   24772208.6524
 -23146620.67646  -9761205.68447  20884562.5554   20884567.4554
 -14650844.37047 -11227026.46346  21831312.4564   21831316.8294
  -3251007.24445  -2346485.76345  23971745.0794   23971750.1674
  -7561388.52748  -5760984.79147  21362175.8144   21362180.2574
 -21099265.19448 -16219037.18547  21215255.1444   21215259.5174
  -4332106.69147  -3231360.02546  21624841.7564   21624846.9144
   6813539.67745   5340209.89745  23416925.2964   23416930.8764
 04  3  1  0 14 30.0000000  0  8G21G10G28G27G29G 8G26G17
  -3328559.67645  -1353299.02845  24765340.7374   24765345.4964
 -23112208.78946  -9734391.23647  20891110.9784   20891115.9604
 -14699668.29248 -11265071.06246  21822021.7914   21822026.0114
  -3173712.82245  -2286256.36345  23986453.4634   23986459.8404
  -7610880.66848  -5799550.07547  21352757.5774   21352762.1604
 -21044458.56448 -16176330.73447  21225684.7864   21225688.6314
  -4400350.21747  -3284536.77846  21611855.6464   21611859.6434
   6892865.22145   5402021.94145  23432020.8984   23432025.7164
 04  3  1  0 15  0.0000000  0  8G21G10G28G27G29G 8G26G17
  -3364116.58945  -1381005.86945  24758575.9164   24758579.1874
 -23077255.86446  -9707155.19547  20897762.1914   20897766.8924
 -14747987.22148 -11302722.16546  21812827.1194   21812830.4014
  -3096367.23545  -2225987.11945  24001172.1364   24001178.1614
  -7660169.88948  -5837957.25347  21343378.2584   21343382.6184
 -20989332.92547 -16133375.69647  21236174.7614   21236178.4064
  -4468374.23747  -3337542.50646  21598910.8284   21598914.9434
   6972453.76145   5464038.99245  23447165.9354   23447172.4994
 04  3  1  0 15 30.0000000  0  8G21G10G28G27G29G 8G26G17
  -3399126.07745  -1408285.97145  24751912.7514   24751913.5954
 -23041759.75348  -9679495.90947  20904516.7924   20904521.7854
 -14795796.65848 -11339976.26846  21803729.2694   21803732.5984
  -3018968.90245  -2165676.77045  24015900.2184   24015905.8684
  -7709252.02648  -5876203.07147  21334038.4284   21334042.3904
 -20933886.84048 -16090170.96347  21246725.8724   21246730.3274
  -4536174.73547  -3390374.05546  21586009.0864   21586012.5564
   7052305.13845   5526260.86945  23462360.3034   23462367.9934
 04  3  1  0 16  0.0000000  0  8G21G10G28G27G29G 8G26G17
  -3433591.59344  -1435142.16745  24745353.6704   24745356.2014
 -23005725.52448  -9651417.29547  20911374.0234   20911379.4624
 -14843099.20848 -11376835.38646  21794728.0254   21794730.9674
  -2941523.00045  -2105329.33345  24030638.0054   24030642.8114
  -7758130.50748  -5914290.18947  21324737.0934   21324741.1494
 -20878126.56246 -16046721.40347  21257336.9484   21257341.2034
  -4603754.93847  -3443033.94946  21573149.0324   21573152.9594
   7132411.69545   5588681.56545  23477604.4274   23477609.0334
 04  3  1  0 16 30.0000000  0  8G21G10G28G27G29G 8G26G17
  -3467516.46743  -1461577.29845  24738898.2704   24738900.7674
 -22969158.17448  -9622923.27047  20918332.3914   20918337.7014
 -14889897.38748 -11413301.49947  21785822.5164   21785826.2084
  -2864034.49745  -2044948.72645  24045383.8914   24045388.5334
  -7806808.28848  -5952220.91347  21315473.7814   21315477.7554
 -20822057.96747 -16003031.58147  21268006.2944   21268010.5144
  -4671117.90948  -3495524.54846  21560330.1314   21560334.4454
   7212766.00245   5651295.26945  23492895.8764   23492902.7224
 04  3  1  0 17  0.0000000  0  8G21G10G28G27G29G 8G26G17
  -3500894.21245  -1487585.86745  24732547.2584   24732550.8914
 -22932052.53048  -9594009.77947  20925393.1914   20925398.4774
 -14936183.89048 -11449368.89646  21777014.3324   21777017.8134
  -2786498.53246  -1984531.12245  24060138.5084   24060142.2234
  -7855278.30348  -5989989.75247  21306250.3124   21306254.6144
 -20765676.72348 -15959098.16247  21278735.3724   21278739.5804
  -4738256.40848  -3547840.25846  21547554.0684   21547558.4884
   7293370.54745   5714103.96745  23508232.7224   23508237.7984
 04  3  1  0 17 30.0000000  0  8G21G10G28G27G29G 8G26G17
  -3533721.90545  -1513165.93845  24726301.8414   24726304.8654
 -22894407.78847  -9564676.23547  20932557.0954   20932562.0304
 -14981955.04748 -11485034.70946  21768304.3524   21768307.5884
  -2708914.26445  -1924075.81145  24074901.7524   24074906.2184
  -7903537.81348  -6027594.56947  21297067.0314   21297071.0634
 -20708982.97248 -15914921.20647  21289523.7014   21289529.1054
  -4805167.77948  -3599978.98147  21534821.5534   21534825.1284
   7374223.74844   5777106.49145  23523619.6424   23523627.4484
 04  3  1  0 18  0.0000000  0  8G21G10G28G27G29G 8G26G17
  -3565998.06645  -1538316.14645  24720158.0964   24720158.9054
 -22856223.71747  -9534922.43447  20939823.2664   20939828.4354
 -15027208.17948 -11520296.87246  21759692.9394   21759696.8074
  -2631281.31645  -1863582.58645  24089674.9114   24089680.3864
  -7951584.51548  -6065033.55947  21287923.9264   21287928.2634
 -20651977.25648 -15870501.16647  21300371.4734   21300376.4204
  -4871849.63248  -3651938.85046  21522131.8674   21522136.7904
   7455323.84745   5840301.31245  23539053.1544   23539057.4684
 04  3  1  0 18 30.0000000  0  8G21G10G28G27G29G 8G26G17
  -3597723.62445  -1563037.29945  24714121.0594   24714123.5684
 -22817503.04346  -9504750.48547  20947191.4744   20947196.2684
 -15071943.59648 -11555155.64246  21751179.8554   21751183.6424
  -2553602.58145  -1803053.73645  24104456.9044   24104462.7884
  -7999419.29548  -6102307.39947  21278821.2104   21278825.6534
 -20594663.42548 -15825841.05347  21311278.0824   21311282.3144
  -4938303.04748  -3703720.73046  21509486.3354   21509490.5784
   7536665.38145   5903684.32645  23554531.0524   23554537.5344
 04  3  1  0 19  0.0000000  0  8G21G10G28G27G29G 8G26G17
  -3628899.12945  -1587329.95545  24708188.1754   24708191.0354
 -22778247.75747  -9474161.96447  20954661.6594   20954666.5124
 -15116160.91648 -11589610.66846  21742765.9714   21742769.1954
  -2475880.25145  -1742490.93945  24119246.1314   24119252.5664
  -8047042.20448  -6139416.15147  21269759.0154   21269762.6374
 -20537044.46548 -15780943.14247  21322242.4804   21322247.3924
  -5004527.93448  -3755324.53446  21496884.2244   21496887.9994
   7618243.98145   5967252.04845  23570055.4344   23570061.2134
 04  3  1  0 19 30.0000000  0  8G21G10G28G27G29G 8G26G17
  -3659528.07345  -1611196.78845  24702360.0994   24702364.2024
 -22738462.60747  -9443160.57747  20962232.5544   20962237.0084
 -15159862.36948 -11623663.73847  21734449.7294   21734453.2574
  -2398118.80145  -1681897.63645  24134043.2664   24134048.2364
  -8094455.85548  -6176361.85747  21260736.5004   21260740.2514
 -20479125.68248 -15735811.64447  21333264.0794   21333268.6394
  -5070526.87947  -3806752.26046  21484324.6714   21484328.9384
   7700052.60945   6030999.02345  23585623.7574   23585629.3614
 04  3  1  0 20  0.0000000  0  8G21G10G28G27G29G 8G26G17
  -3689606.34145  -1634634.41645  24696636.6904   24696638.7064
 -22698145.42448  -9411744.60047  20969904.5434   20969909.5024
 -15203043.27548 -11657311.19946  21726232.8404   21726237.0014
  -2320316.11245  -1621272.19245  24148849.4864   24148853.8004
  -8141655.94748  -6213141.13747  21251754.7774   21251758.6104
 -20420905.70248 -15690445.42547  21344342.9014   21344348.2474
  -5136295.45748  -3858000.50446  21471809.8374   21471814.0684
   7782090.94245   6094924.96145  23601234.1164   23601240.5634
 04  3  1  0 20 30.0000000  0  8G21G10G28G27G29G 8G26G17
  -3719134.26845  -1657643.14045  24691017.9614   24691020.0484
 -22657298.20646  -9379915.60247  20977677.7274   20977682.1234
 -15245703.30548 -11690552.77846  21718114.5954   21718118.2404
  -2242473.97045  -1560616.02545  24163662.1284   24163668.7874
  -8188642.35048  -6249753.92247  21242813.4454   21242817.2554
 -20362387.32048 -15644846.69747  21355478.7174   21355484.2264
  -5201833.57348  -3909069.15146  21459337.9214   21459341.9534
   7864354.96145   6159026.79645  23616889.5884   23616894.4414
 04  3  1  0 21  0.0000000  0  8G21G10G28G27G29G 8G26G17
  -3748112.35945  -1680223.36245  24685503.5164   24685508.9094
 -22615922.99046  -9347675.19247  20985551.1954   20985555.6614
 -15287841.79648 -11723387.95646  21710095.9344   21710099.3454
  -2164594.37945  -1499930.63945  24178482.1184   24178487.2524
  -8235414.97247  -6286200.12547  21233913.1554   21233916.5664
 -20303573.21548 -15599017.52847  21366670.6004   21366675.8864
  -5267141.17047  -3959958.16846  21446910.3994   21446914.2434
   7946840.36245   6223301.10445  23632585.2104   23632591.8564
 04  3  1  0 21 30.0000000  0  8G21G10G28G27G29G 8G26G17
  -3776534.36844  -1702370.39045  24680093.9214   24680096.8404
 -22574015.13847  -9315019.72847  20993525.8304   20993530.9654
 -15329451.70648 -11755811.25047  21702177.9974   21702181.7714
  -2086672.56245  -1439212.38145  24193310.7534   24193313.9064
  -8281967.13348  -6322474.54647  21225054.2034   21225058.1534
 -20244459.60648 -15552954.98947  21377919.5664   21377924.1614
  -5332211.53447  -4010662.34246  21434527.9624   21434532.1824
   8029549.21745   6287749.60345  23648323.7854   23648329.8804
 04  3  1  0 22  0.0000000  0  8G21G10G28G27G29G 8G26G17
  -3804405.79244  -1724088.42345  24674789.9214   24674796.7324
 -22531581.33147  -9281954.44047  21001601.0104   21001605.8164
 -15370537.51548 -11787826.15347  21694359.5544   21694363.4344
  -2008714.98744  -1378466.28645  24208145.1414   24208151.9164
  -8328303.32048  -6358580.64547  21216236.6634   21216241.1644
 -20185054.05548 -15506664.96547  21389224.3204   21389228.9974
  -5397049.02948  -4061185.07846  21422189.8684   21422193.7374
   8112472.72745   6352365.28445  23664104.5834   23664108.6274
 04  3  1  0 22 30.0000000  0  8G21G10G28G27G29G 8G26G17
  -3831723.06745  -1745374.68845  24669593.4334   24669596.8674
 -22488619.69548  -9248477.84347  21009775.9374   21009780.9904
 -15411094.72448 -11819429.16647  21686641.8214   21686645.9354
  -1930719.86945  -1317690.82645  24222986.6184   24222991.9524
  -8374419.76648  -6394515.53747  21207461.0424   21207465.2274
 -20125355.37048 -15460146.50247  21400584.4234   21400588.8774
  -5461649.88447  -4111523.39246  21409896.8924   21409900.5734
   8195610.39345   6417147.85745  23679923.9304   23679930.1204
 04  3  1  0 23  0.0000000  0  8G21G10G28G27G29G 8G26G17
  -3858493.06045  -1766234.37545  24664498.8644   24664501.2084
 -22445138.63047  -9214596.50747  21018050.3264   21018055.1554
 -15451129.15448 -11850624.81647  21679023.4924   21679027.2314
  -1852694.99844  -1256892.27345  24237834.5374   24237840.4924
  -8420322.23048  -6430283.69547  21198726.2104   21198729.7974
 -20065372.35548 -15413406.49447  21411998.7264   21412003.2284
  -5526020.09547  -4161681.99446  21397647.2704   21397651.6784
   8278951.63845   6482089.09445  23695784.0744   23695791.9634
 04  3  1  0 23 30.0000000  0  8G21G10G28G27G29G 8G26G17
  -3884706.10044  -1786660.12245  24659509.5924   24659513.8354
 -22401130.16348  -9180304.22047  21026424.7284   21026429.2764
 -15490630.50648 -11881405.07547  21671506.5644   21671510.6554
  -1774632.21745  -1196064.08445  24252689.5834   24252695.6094
  -8466000.75248  -6465877.35047  21190033.8754   21190037.5094
 -20005097.84448 -15366439.35747  21423468.7574   21423473.1304
  -5590149.38947  -4211652.83346  21385443.9084   21385448.3864
   8362502.41245   6547193.57545  23711683.7304   23711689.6384
 04  3  1  0 24  0.0000000  0  8G21G10G28G27G29G 8G26G17
  -3910369.11044  -1806657.30445  24654626.0724   24654627.5614
 -22356602.64948  -9145607.47447  21034898.0984   21034903.5264
 -15529604.70448 -11911774.57047  21664090.0364   21664094.0804
  -1696539.79645  -1135212.92645  24267550.2634   24267554.3074
  -8511461.37348  -6501301.20847  21181383.1084   21181387.1404
 -19944541.13048 -15319252.32247  21434992.2404   21434996.3434
  -5654043.97847  -4261440.80847  21373285.2814   21373289.4544
   8446251.77645   6612452.80545  23727621.2884   23727625.4384
 04  3  1  0 24 30.0000000  0  8G21G10G28G27G29G 8G26G17
  -3935481.34444  -1826225.30345  24649848.0314   24649855.9554
 -22311557.02348  -9110506.98947  21043469.9254   21043475.5524
 -15568050.15948 -11941732.05647  21656773.9634   21656777.7264
  -1618418.40345  -1074339.16945  24282416.2604   24282422.9184
  -8556702.74348  -6536554.21947  21172773.8504   21172778.1174
 -19883703.50348 -15271846.36146  21446569.1064   21446574.8504
  -5717702.36848  -4311044.74647  21361171.4474   21361175.6904
   8530196.73545   6677864.46145  23743594.6534   23743603.1164
 04  3  1  0 25  0.0000000  0  8G21G10G28G27G29G 8G26G17
  -3960045.88545  -1845366.46345  24645174.1834   24645177.4534
 -22265997.52148  -9075006.08747  21052139.6874   21052144.7514
 -15605968.81648 -11971279.05546  21649558.3304   21649562.0934
  -1540271.89845  -1013445.77445  24297287.5334   24297292.7034
  -8601726.89848  -6571637.97747  21164205.6344   21164210.1004
 -19822589.82448 -15224225.34046  21458198.8044   21458203.5404
  -5781126.65548  -4360466.25547  21349102.1594   21349106.3094
   8614331.22045   6743423.78945  23759604.2364   23759614.1184
 04  3  1  0 25 30.0000000  0  9G21G10G28G 9G27G29G 8G26G17
  -3984052.18145  -1864072.66345  24640605.0824   24640610.5334
 -22219915.51747  -9039098.04247  21060908.6954   21060913.5134
 -15643349.50948 -12000406.84947  21642444.9664   21642448.6944
    -37278.43443                  25131213.2404
  -1462091.13745   -952525.74945  24312164.2534   24312169.4234
  -8646522.71848  -6606543.80447  21155681.5714   21155686.0494
 -19761191.85348 -15176382.75147  21469882.4064   21469887.3884
  -5844305.61448  -4409696.61347  21337079.8264   21337083.7534
   8698661.57945   6809135.73045  23775653.1004   23775658.0354
 04  3  1  0 26  0.0000000  0  9G21G10G28G 9G27G29G 8G26G17
  -4007506.17344  -1882348.56945  24636141.3204   24636148.0254
 -22173318.42148  -9002788.63047  21069775.9514   21069780.6284
 -15680197.11648 -12029119.26347  21635433.1174   21635437.2314
   -149051.88142                  25109943.5404
  -1383883.25845   -891584.53445  24327046.6884   24327051.3064
  -8691095.36148  -6641275.72847  21147199.6754   21147203.8844
 -19699517.88748 -15128325.12847  21481618.4414   21481623.0604
  -5907244.50848  -4458739.91647  21325103.2024   21325106.8014
   8783178.19945   6874992.81445  23791735.0724   23791739.9844
 04  3  1  0 26 30.0000000  0  9G21G10G28G 9G27G29G 8G26G17
  -4030405.67544  -1900192.34545  24631784.9124   24631791.0544
 -22126205.21947  -8966077.05847  21078741.3934   21078745.9414
 -15716508.18348 -12057413.58947  21628523.4424   21628527.2994
   -260716.76044                  25088695.5644
  -1305646.91145   -830621.17545  24341934.8684   24341939.6744
  -8735441.44448  -6675831.11247  21138760.8674   21138764.7704
 -19637567.25248 -15080051.91847  21493407.2724   21493411.3984
  -5969939.91948  -4507593.47547  21313172.2404   21313176.0734
   8867880.03145   6940994.20245  23807853.7394   23807859.7174
 04  3  1  0 27  0.0000000  0  9G21G10G28G 9G27G29G 8G26G17
  -4052758.11244  -1917609.81645  24627531.1884   24627538.3274
 -22078585.16048  -8928970.53247  21087803.1914   21087808.1614
 -15752289.49348 -12085295.12147  21621714.6634   21621718.1684
   -372280.03843    -78233.28145  25067464.8644   25067467.6194
  -1227390.90945   -769642.47145  24356826.3184   24356831.1244
  -8779567.78648  -6710215.27647  21130363.7744   21130367.3734
 -19575349.80548 -15031570.79747  21505246.9644   21505251.8174
  -6032398.74148  -4556262.66547  21301287.0364   21301290.6354
   8952755.77745   7007131.17445  23824005.7834   23824011.3394
 04  3  1  0 27 30.0000000  0  9G21G10G28G 9G27G29G 8G26G17
  -4074557.45645  -1934596.21645  24623382.9754   24623384.9914
 -22030453.55648  -8891465.39147  21096962.2664   21096967.2604
 -15787534.24548 -12112758.55547  21615007.2944   21615010.9514
   -483734.57542   -165081.08845  25046254.2484   25046264.0714
  -1149110.23045   -708644.54445  24371723.3764   24371726.5644
  -8823467.32048  -6744422.69947  21122010.1114   21122014.2494
 -19512861.40848 -14982878.56047  21517138.1744   21517141.6794
  -6094613.89348  -4604742.00947  21289448.1244   21289451.3834
   9037807.81445   7073405.41945  23840190.4714   23840195.9924
 04  3  1  0 28  0.0000000  0  9G21G10G28G 9G27G29G 8G26G17
  -4095805.88344  -1951153.46745  24619338.5774   24619340.3244
 -21981814.24548  -8853564.64547  21106218.0164   21106223.0564
 -15822243.49948 -12139804.71547  21608402.4694   21608405.8214
   -595081.39443   -251844.76345  25025066.6984   25025076.1344
  -1070808.05245   -647629.91945  24386623.1824   24386630.4854
  -8867141.44347  -6778454.49447  21113699.4564   21113703.2074
 -19450106.12848 -14933978.33846  21529080.0724   21529084.4334
  -6156586.47448  -4653032.31747  21277654.8094   21277659.1584
   9123030.71945   7139812.93145  23856407.5244   23856414.8504
 04  3  1  0 28 30.0000000  0  9G21G10G28G 9G27G29G 8G26G17
  -4116501.02445  -1967279.62845  24615401.0744   24615405.8104
 -21932666.07448  -8815267.38447  21115570.6644   21115575.7164
 -15856413.73848 -12166430.87047  21601900.3094   21601904.1184
   -706317.05343   -338521.93045  25003899.9714   25003906.6524
   -992482.83644   -586597.30845  24401527.8444   24401534.0574
  -8910586.73048  -6812307.96947  21105431.9214   21105436.2114
 -19387083.27648 -14884869.63746  21541073.0724   21541077.4564
  -6218313.22048  -4701131.06547  21265908.3514   21265912.6764
   9208423.48045   7206352.64645  23872657.0884   23872662.2464
 04  3  1  0 29  0.0000000  0  9G21G10G28G 9G27G29G 8G26G17
  -4136640.87345  -1982973.03845  24611569.0974   24611571.9924
 -21883008.85548  -8776573.46447  21125019.8814   21125025.2614
 -15890042.42848 -12192635.03947  21595500.7504   21595504.6414
   -817438.85643   -425110.43145  24982754.1434   24982760.9534
   -914133.72045   -525546.07445  24416437.1794   24416443.4864
  -8953800.25048  -6845980.82947  21097208.4674   21097213.0274
 -19323793.19048 -14835552.68746  21553116.6244   21553121.2074
  -6279791.05148  -4749035.86447  21254209.6514   21254213.6014
   9293984.22545   7273023.35545  23888938.9534   23888943.4894
 04  3  1  0 29 30.0000000  0  9G21G10G28G 9G27G29G 8G26G17
  -4156223.90445  -1998232.55545  24607841.9634   24607844.1204
 -21832842.19248  -8737482.56747  21134566.2824   21134571.5574
 -15923126.65248 -12218414.93747  21589205.1654   21589209.1744
   -928444.08243   -511607.93745  24961629.5434   24961630.7504
   -835759.98545   -464475.69545  24431351.3144   24431355.9334
  -8996779.34448  -6879471.02947  21089030.2284   21089034.1434
 -19260235.95748 -14786027.57746  21565210.9384   21565215.7804
  -6341017.51748  -4796744.82047  21242558.6144   21242561.8144
   9379711.21344   7339823.61445  23905250.7934   23905258.4014
 04  3  1  0 30  0.0000000  0  9G21G10G28G 9G27G29G 8G26G17
  -4175253.54144  -2013060.76345  24604220.3674   24604224.8564
 -21782171.19548  -8697998.69447  21144208.8314   21144213.8134
 -15955668.97648 -12243772.58947  21583012.7484   21583016.7574
  -1039334.81944   -598016.31445  24940529.0104   24940527.3694
   -757365.98245   -403389.43345  24446270.3954   24446276.7014
  -9039526.43447  -6912780.43447  21080895.6444   21080899.4544
 -19196416.96947 -14736298.50246  21577355.3634   21577360.4154
  -6401994.92548  -4844259.68847  21230954.8724   21230958.0484
   9465597.69445   7406748.12145  23921595.2844   23921601.4624
 04  3  1  0 30 30.0000000  0  9G21G10G28G 9G27G29G 8G26G17
  -4193730.98344  -2027458.91345  24600705.1264   24600711.5844
 -21730998.54448  -8658123.91747  21153946.6374   21153952.0294
 -15987669.84848 -12268708.32547  21576923.1574   21576926.8034
  -1150111.22545   -684335.56345  24919448.8334   24919450.3804
   -678953.73345   -342289.04145  24461190.3474   24461195.5164
  -9082041.52747  -6945909.09347  21072805.3334   21072809.1314
 -19132339.05447 -14686367.67246  21589548.9864   21589554.2504
  -6462723.20748  -4891580.41047  21219398.7594   21219402.4984
   9551639.03545   7473793.28845  23937969.3304   23937972.8824
 04  3  1  0 31  0.0000000  0  9G21G10G28G 9G27G29G 8G26G17
  -4211651.01845  -2041422.51845  24597295.3064   24597297.9324
 -21679320.51648  -8617855.31347  21163780.5764   21163785.7224
 -16019122.88948 -12293217.17147  21570937.8594   21570941.1884
  -1260766.89245   -770560.81345  24898391.8944   24898396.6654
   -600518.95045   -281171.04945  24476115.9854   24476120.5564
  -9124318.36548  -6978852.08647  21064760.2354   21064764.4434
 -19067998.99748 -14636232.57146  21601792.4944   21601796.8194
  -6523196.30347  -4938702.29146  21207890.9434   21207895.0694
   9637837.10145   7540960.60545  23954371.4664   23954377.2104
 04  3  1  0 31 30.0000000  0  9G21G10G28G 9G27G29G 8G26G17
  -4229016.15645  -2054953.82545  24593990.7814   24593991.4384
 -21627141.15047  -8577196.09247  21173710.1364   21173714.9424
 -16050029.82048 -12317300.48647  21565056.3854   21565059.8674
  -1371303.31944   -856693.04745  24877356.8324   24877358.9074
   -522064.91944   -220038.02845  24491045.4094   24491048.7264
  -9166358.22748  -7011610.39847  21056759.9924   21056764.3524
 -19003400.99447 -14585896.47246  21614085.1394   21614090.2384
  -6583415.41748  -4985626.26646  21196431.6824   21196434.9994
   9724185.89345   7608245.38845  23970803.1164   23970811.4274
 04  3  1  0 32  0.0000000  0  9G21G10G28G 9G27G29G 8G26G17
  -4245830.73545  -2068056.03745  24590791.1414   24590791.5514
 -21574465.38348  -8536150.05747  21183733.9914   21183739.1964
 -16080393.26348 -12340960.30347  21559278.2504   21559281.7084
  -1481723.10443   -942734.41445  24856343.4944   24856354.1614
   -443596.11243   -158893.46845  24505976.7194   24505982.6504
  -9208163.81048  -7044186.16847  21048804.7584   21048808.6504
 -18938550.75548 -14535363.82646  21626425.8154   21626430.2814
  -6643383.24548  -5032354.45347  21185020.1954   21185023.8874
   9810678.36645   7675642.09445  23987262.4664   23987269.0074
 04  3  1  0 32 30.0000000  0  9G21G10G28G 9G27G29G 8G26G17
  -4262088.85444  -2080724.74945  24587696.6464   24587702.2964
 -21521290.03048  -8494714.73747  21193852.8894   21193858.0004
 -16110207.84748 -12364192.43247  21553604.8144   21553608.7884
  -1592020.22144  -1028680.31945  24835355.4984   24835357.5154
   -365108.64444    -97734.39345  24520913.2404   24520919.1604
  -9249729.22348  -7076574.81547  21040895.2354   21040898.9514
 -18873445.08747 -14484632.14046  21638814.8864   21638819.9394
  -6703093.78948  -5078882.13647  21173657.6594   21173661.0004
   9897315.97945   7743151.96245  24003748.5454   24003755.6604
 04  3  1  0 33  0.0000000  0  9G21G10G28G 9G27G29G 8G26G17
  -4277794.05045  -2092962.51045  24584708.2394   24584713.2914
 -21467619.51248  -8452893.56347  21204065.9814   21204071.5024
 -16139475.11648 -12386998.09547  21548035.4574   21548039.0794
  -1702196.49444  -1114531.88845  24814390.1624   24814394.1944
   -286606.01844    -36563.66645  24535851.2294   24535856.1284
  -9291056.03148  -7108777.52247  21033030.9164   21033035.2414
 -18808088.57448 -14433704.99046  21651251.8624   21651256.2704
  -6762548.71548  -5125210.65047  21162343.8404   21162347.6614
   9984092.71845   7810770.09345  24020262.0214   24020268.2934
 04  3  1  0 33 30.0000000  0  9G21G10G28G 9G27G29G 8G26G17
  -4292949.79245  -2104772.17945  24581823.6054   24581830.9794
 -21413458.38446  -8410690.09847  21214372.7054   21214377.7344
 -16168197.77148 -12409379.37247  21542569.6314   21542573.1714
  -1812253.95645  -1200290.95245  24793447.7044   24793454.2444
   -208092.39545     24615.81645  24550792.4214   24550795.7744
  -9332146.54248  -7140796.09647  21025211.5944   21025215.9904
 -18742486.28847 -14382586.34046  21663735.5494   21663740.5434
  -6821750.25348  -5171341.71147  21151078.3194   21151082.3754
  10071001.78143   7878491.43345  24036799.3704   24036807.4824
 04  3  1  0 34  0.0000000  0  9G21G10G28G 9G27G29G 8G26G17
  -4307553.99645  -2116152.09845  24579045.4964   24579049.1774
 -21358806.34547  -8368104.11147  21224772.6084   21224777.2974
 -16196372.83148 -12431333.95147  21537208.0794   21537211.9244
  -1922189.42745  -1285954.88345  24772527.9194   24772533.2304
   -129566.58344     85804.75045  24565735.8094   24565741.7644
  -9372997.40548  -7172627.93047  21017438.2824   21017442.3374
 -18676637.79548 -14331275.82446  21676266.0694   21676270.5934
  -6880694.98248  -5217272.66547  21139861.4304   21139865.7084
  10158041.96245   7946314.94945  24053363.4164   24053364.8464
 04  3  1  0 34 30.0000000  0  9G21G10G28G 9G27G29G 8G26G17
  -4321600.11445  -2127097.13245  24576371.9454   24576375.9314
 -21303658.16148  -8325131.49947  21235266.7364   21235271.8004
 -16223992.45748 -12452855.73847  21531952.2944   21531956.1744
  -2031995.13345  -1371517.74945  24751631.0724   24751633.3464
    -51022.44245    147007.97545  24580681.5704   24580685.0754
  -9413600.64947  -7204266.82347  21009711.7124   21009715.3694
 -18610538.16047 -14279769.63146  21688844.5044   21688849.4864
  -6939375.12548  -5262997.43747  21128694.8834   21128699.2204
  10245216.71545   8014243.34045  24069953.1934   24069959.1364
 04  3  1  0 35  0.0000000  0  9G21G10G28G 9G27G29G 8G26G17
  -4335094.59145  -2137612.26945  24573804.2774   24573812.4124
 -21248021.97748  -8281778.63347  21245854.1064   21245859.0654
 -16251062.42148 -12473949.21047  21526800.9904   21526804.5424
  -2141676.29643  -1456983.62045  24730759.1964   24730766.3354
     27533.03944    208220.03645  24595630.2144   24595635.4074
  -9453961.74748  -7235717.02947  21002030.9434   21002035.1394
 -18544195.63648 -14228074.15346  21701469.1244   21701473.0984
  -6997795.94048  -5308520.13147  21117577.5634   21117582.2054
  10332516.30345   8082268.94845  24086566.3134   24086569.1734
 04  3  1  0 35 30.0000000  0  9G21G10G28G 9G27G29G 8G26G17
  -4348038.98245  -2147698.94245  24571340.4574   24571345.4744
 -21191900.38448  -8238047.54447  21256533.7724   21256538.8594
 -16277583.36148 -12494614.86347  21521754.1514   21521757.0934
  -2251232.93244  -1542352.39345  24709910.8694   24709919.6024
    106097.49043    269439.03345  24610580.3694   24610586.8514
  -9494080.53348  -7266978.41347  20994396.7024   20994401.0394
 -18477613.18447 -14176191.74246  21714139.5714   21714143.9904
  -7055957.40848  -5353840.75347  21106509.8744   21106514.5404
  10419936.16645   8150388.29745  24103200.9664   24103206.6394
 04  3  1  0 36  0.0000000  0  9G21G10G28G 9G27G29G 8G26G17
  -4360433.87745  -2157357.22745  24568982.3154   24568985.2454
 -21135295.48948  -8193939.86347  21267305.5444   21267310.7954
 -16303554.83748 -12514852.36147  21516812.0624   21516815.1214
  -2360664.42145  -1627623.68745  24689088.4714   24689093.1954
    184669.89743    330664.27945  24625532.6744   24625539.1684
  -9533956.35246  -7298050.48647  20986808.8744   20986812.7894
 -18410792.93447 -14124124.02546  21726854.8364   21726859.0214
  -7113859.03048  -5398958.89347  21095491.7504   21095496.2164
  10507472.35945   8218598.40445  24119858.4764   24119865.4864
 04  3  1  0 36 30.0000000  0  9G21G10G28G 9G27G29G 8G26G17
  -4372275.99445  -2166584.86445  24566728.9474   24566733.0854
 -21078205.35548  -8149454.05047  21278169.2844   21278175.2164
 -16328972.18148 -12534658.07747  21511975.3574   21511978.8034
  -2469965.94545  -1712793.63145  24668288.1134   24668292.3334
    263253.47944    391898.19345  24640486.7004   24640492.4794
  -9573584.29248  -7328929.39847  20979267.8114   20979271.8324
 -18343732.71947 -14071869.30746  21739615.8654   21739621.0004
  -7171495.48448  -5443870.40447  21084523.7474   21084527.8974
  10595125.69145   8286899.52345  24136537.0904   24136542.3184
 04  3  1  0 37  0.0000000  0  9G21G10G28G 9G27G29G 8G26G17
  -4383573.38545  -2175388.03545  24564579.1994   24564583.2904
 -21020639.35748  -8104597.43247  21289123.7664   21289129.2754
 -16353842.60548 -12554037.63447  21507242.5374   21507246.5354
  -2579143.84243  -1797867.30745  24647512.3014   24647520.7874
    341839.45545    453133.95045  24655441.6174   24655445.1104
  -9612970.90348  -7359620.25747  20971772.6894   20971776.6624
 -18276442.32347 -14019435.24346  21752420.8764   21752425.3894
  -7228873.45548  -5488580.50347  21073605.1024   21073609.8264
  10682884.91545   8355283.33745  24153237.5264   24153244.6534
 04  3  1  0 37 30.0000000  0  9G21G10G28G 9G27G29G 8G26G17
  -4394315.71444  -2183758.66345  24562535.3524   24562540.3934
 -20962588.83848  -8059363.28147  21300170.2944   21300175.6394
 -16378155.21448 -12572982.51547  21502615.8904   21502619.6064
  -2688186.95143  -1882835.99745  24626761.8464   24626768.3874
    420437.35145    514379.06145  24670398.6104   24670403.0414
  -9652104.83446  -7390114.23347  20964325.7694   20964329.6254
 -18208912.94547 -13966814.95446  21765271.3644   21765276.4874
  -7285981.64148  -5533080.38647  21062737.8494   21062742.0344
  10770756.96744   8423755.12945  24169959.5004   24169965.1384
 04  3  1  0 38  0.0000000  0  9G21G10G28G 9G27G29G 8G26G17
  -4404507.31945  -2191700.22345  24560596.1524   24560599.9504
 -20904059.38148  -8013755.93347  21311308.1304   21311313.5694
 -16401913.32748 -12591495.31347  21498094.9354   21498098.6744
  -2797098.08445  -1967701.70345  24606037.8884   24606040.5724
    499042.65545    575629.95945  24685357.8014   24685361.1884
  -9690988.70348  -7420413.35547  20956926.4004   20956930.8074
 -18141150.39447 -13914012.97646  21778166.0754   21778170.4484
  -7342822.69948  -5577372.12047  21051921.3884   21051925.3864
  10858734.66845   8492309.10545  24186700.6244   24186707.0354
 04  3  1  0 38 30.0000000  0  9G21G10G28G 9G27G29G 8G26G17
  -4414147.76445  -2199212.28245  24558761.0104   24558764.1874
 -20845051.54148  -7967775.80147  21322537.0874   21322542.6084
 -16425115.02048 -12609574.54247  21493679.7674   21493683.4724
  -2905875.11245  -2052462.96945  24585337.5244   24585340.8534
    577655.76145    636886.88645  24700315.6554   24700318.0344
  -9729620.45448  -7450516.01347  20949574.7894   20949579.3374
 -18073155.17647 -13861029.69646  21791105.0674   21791110.1904
  -7399394.48148  -5621454.01547  21041156.0584   21041160.9704
  10946815.60743   8560943.50745  24203461.9664   24203469.9374
 04  3  1  0 39  0.0000000  0  9G21G10G28G 9G27G29G 8G26G17
  -4423240.48745  -2206297.54445  24557030.8014   24557034.0024
 -20785570.20847  -7921426.72747  21333856.0534   21333860.8474
 -16447762.71848 -12627222.09047  21489370.2574   21489373.5044
  -3014519.89142  -2137121.27045  24564661.8274   24564664.1254
    656272.75344    698146.86845  24715275.6154   24715280.3744
  -9768001.99648  -7480423.70547  20942271.1594   20942275.7194
 -18004932.21747 -13807868.95746  21804087.6774   21804092.6364
  -7455698.91848  -5665327.59247  21030441.5114   21030445.7784
  11034993.61944   8629653.66045  24220241.4824   24220248.1644
 04  3  1  0 39 30.0000000  0  9G21G10G28G 9G27G29G 8G26G17
  -4431781.88045  -2212953.10745  24555405.0674   24555404.9264
 -20725613.07648  -7874706.90447  21345265.3734   21345271.0474
 -16469852.06848 -12644434.56347  21485166.6794   21485169.9504
  -3123027.55843  -2221672.68245  24544013.9984   24544020.4924
    734896.98343    759412.50845  24730237.5144   24730244.0784
  -9806127.98446  -7510132.27447  20935016.1064   20935019.8814
 -17936479.12447 -13754528.87346  21817113.9754   21817118.6764
  -7511730.76447  -5708988.77647  21019779.2584   21019783.0324
  11123269.09544   8698439.79845  24237040.6924   24237050.2694
 04  3  1  0 40  0.0000000  0  9G21G10G28G 9G27G29G 8G26G17
  -4439773.73844  -2219180.54145  24553883.8634   24553891.2954
 -20665183.72448  -7827619.09947  21356764.6454   21356770.3424
 -16491384.20848 -12661212.84747  21481069.1634   21481072.7384
  -3231398.87245  -2306117.78945  24523391.7444   24523398.1324
    813525.82643    820681.69045  24745200.6564   24745206.8574
  -9843999.16548  -7539642.28347  20927809.2524   20927813.2844
 -17867799.33447 -13701012.16646  21830183.2374   21830187.7744
  -7567490.54248  -5752437.94947  21009168.4124   21009173.0314
  11211637.23445   8767298.06045  24253856.2614   24253860.4694
 04  3  1  0 40 30.0000000  0  9G21G10G28G 9G27G29G 8G26G17
  -4447221.79644  -2224984.21445  24552466.9674   24552474.9034
 -20604289.23848  -7780168.85947  21368352.2394   21368358.1584
 -16512363.64448 -12677560.45147  21477076.6544   21477080.5934
  -3339637.85345  -2390459.85445  24502795.2094   24502802.9344
    892153.58545    881950.05045  24760163.0304   24760169.6414
  -9881619.45848  -7568956.77647  20920650.3214   20920654.6704
 -17798899.91647 -13647324.31346  21843294.3364   21843299.2474
  -7622982.39248  -5795678.32247  20998608.5504   20998613.5204
  11300089.55645   8836221.88845  24270688.1954   24270693.7634
 04  3  1  0 41  0.0000000  0  9G21G10G28G 9G27G29G 8G26G17
  -4454124.15745  -2230362.68945  24551153.6544   24551158.7304
 -20542928.40848  -7732355.23847  21380028.8964   21380034.4874
 -16532787.25148 -12693474.93847  21473190.3674   21473194.3064
  -3447740.49145  -2474695.65845  24482223.5034   24482229.0944
    970782.32545    943219.14945  24775125.9334   24775131.1374
  -9918984.80247  -7598072.63847  20913540.2754   20913544.0384
 -17729779.75347 -13593464.43646  21856447.5824   21856452.3884
  -7678202.13748  -5838706.68147  20988100.6304   20988104.6394
  11388625.43745   8905210.90145  24287535.8724   24287543.8204
 04  3  1  0 41 30.0000000  0  9G21G10G28G 9G27G29G 8G26G17
  -4460477.56545  -2235313.39945  24549945.2244   24549948.9754
 -20481099.29348  -7684176.73747  21391794.9644   21391800.3804
 -16552650.66748 -12708952.91847  21469410.5304   21469414.4684
  -3555701.93745  -2558821.39245  24461678.3674   24461682.6114
   1049414.84243   1004491.27345  24790089.6094   24790095.7874
  -9956090.42548  -7626986.10547  20906479.0914   20906483.2764
 -17660436.53047 -13539430.78646  21869642.9794   21869647.0124
  -7733144.98148  -5881519.28747  20977645.4884   20977649.3094
  11477245.43945   8974265.49745  24304399.9344   24304407.2724
 04  3  1  0 42  0.0000000  0  9G21G10G28G 9G27G29G 8G26G17
  -4466282.98345  -2239837.11545  24548840.0284   24548842.5834
 -20418804.45548  -7635635.31647  21403649.1014   21403654.2004
 -16571953.78448 -12723994.29447  21465737.4244   21465741.5154
  -3663521.50645  -2642836.65445  24441161.0364   24441167.5894
   1128050.14245   1065765.50545  24805052.2104   24805056.9224
  -9992935.74748  -7655696.73947  20899467.6444   20899471.7004
 -17590872.94847 -13485225.37346  21882880.4094   21882885.3794
  -7787810.27448  -5924115.61347  20967242.7274   20967246.8534
  11565945.67143   9043382.50845  24321278.4764   24321283.8804
 04  3  1  0 42 30.0000000  0  9G21G10G28G 9G27G29G 8G26G17
  -4471543.37745  -2243936.14945  24547839.9884   24547841.6764
 -20356047.94148  -7586734.14347  21415591.3024   21415596.7884
 -16590698.74048 -12738600.74747  21462170.0434   21462174.3224
  -3771200.92745  -2726742.68745  24420671.8174   24420678.8034
   1206685.13745   1127039.45845  24820016.1184   24820018.7444
 -10029521.87046  -7684205.40747  20892505.8274   20892509.3204
 -17521092.81147 -13430851.25646  21896159.3044   21896164.4274
  -7842199.26348  -5966496.63447  20956892.9694   20956896.9434
  11654720.53342   9112557.63945  24338171.8504   24338179.9274
 04  3  1  0 43  0.0000000  0  9G21G10G28G 9G27G29G 8G26G17
  -4476256.83645  -2247609.06945  24546941.6754   24546943.9494
 -20292829.38348  -7537472.94047  21427621.5684   21427626.9144
 -16608882.71348 -12752770.06347  21458709.8694   21458713.8544
  -3878736.68245  -2810536.79845  24400207.9204   24400213.1724
   1285321.54945   1188314.59945  24834979.8664   24834985.8324
 -10065845.08447  -7712509.20347  20885593.4414   20885597.1804
 -17451095.39147 -13376307.82046  21909479.1894   21909484.3004
  -7896308.25248  -6008659.48747  20946596.4624   20946600.8354
  11743569.18244   9181790.35345  24355079.6464   24355084.6634
 04  3  1  0 43 30.0000000  0  9G21G10G28G 9G27G29G 8G26G17
  -4480427.74845  -2250859.10245  24546147.6584   24546150.3544
 -20229154.52448  -7487856.17647  21439738.5474   21439743.4944
 -16626509.34848 -12766505.08447  21455355.5714   21455359.4404
  -3986131.48545  -2894221.08645  24379772.1804   24379778.7444
   1363954.64744   1249587.02445  24849943.8514   24849949.1494
 -10101908.36447  -7740610.45047  20878730.8664   20878735.2264
 -17380886.52547 -13321599.60846  21922839.4114   21922844.5334
  -7950140.06048  -6050606.35247  20936352.5524   20936356.5964
  11832484.28144   9251074.93145  24371999.6754   24372007.1074
 04  3  1  0 44  0.0000000  0  9G21G10G28G 9G27G29G 8G26G17
  -4484059.01844  -2253688.70645  24545457.0824   24545462.6854
 -20165027.32148  -7437886.94447  21451941.4034   21451946.7834
 -16643580.49148 -12779807.25647  21452107.1134   21452110.9224
  -4093386.47545  -2977796.36245  24359360.8464   24359366.1104
   1442581.92144   1310855.03245  24864906.4784   24864913.5114
 -10137712.47548  -7768509.76247  20871917.6894   20871921.9214
 -17310469.75747 -13266729.43346  21936239.3644   21936244.5694
  -8003695.71748  -6092338.01847  20926161.1134   20926165.0284
  11921460.37944   9320406.88845  24388930.3634   24388940.4564
 04  3  1  0 44 30.0000000  0  9G21G10G28G 9G27G29G 8G26G17
  -4487141.84145  -2256090.89945  24544870.2664   24544874.5444
 -20100440.08848  -7387559.24047  21464231.7694   21464236.9504
 -16660085.84148 -12792668.56347  21448966.4334   21448970.4304
  -4200490.87644  -3061254.36245  24338979.7284   24338987.4064
   1521212.13145   1372125.39445  24879869.0084   24879868.5974
 -10173246.74547  -7796198.79747  20865155.5464   20865159.4854
 -17239837.21647 -13211691.07746  21949680.1354   21949685.8084
  -8056964.26248  -6133845.95947  20916024.6474   20916029.0674
  12010504.08045   9389791.56545  24405875.4094   24405880.8134
 04  3  1  0 45  0.0000000  0  9G21G10G28G 9G27G29G 8G26G17
  -4489680.86245  -2258069.40345  24544387.0264   24544387.7054
 -20035399.20748  -7336878.05547  21476608.8174   21476614.0334
 -16676029.50548 -12805092.19747  21445932.4934   21445936.2564
  -4307448.16545  -3144597.63445  24318626.5604   24318633.2894
   1599840.14345   1433393.97245  24894831.5584   24894835.5904
 -10208514.13148  -7823679.87847  20858444.5364   20858448.3344
 -17168995.11747 -13156489.45746  21963161.0594   21963166.6624
  -8109949.08548  -6175132.83047  20905941.8874   20905946.2484
  12099607.45844   9459222.65645  24422831.5074   24422840.0764
 04  3  1  0 45 30.0000000  0  9G21G10G28G 9G27G29G 8G26G17
  -4491678.82945  -2259626.27645  24544007.2724   24544010.7654
 -19969908.06648  -7285846.00247  21489071.2564   21489076.5434
 -16691412.90048 -12817079.24347  21443004.7174   21443008.5384
  -4414258.93745  -3227826.79945  24298301.4974   24298308.9284
   1678463.84045   1494659.17045  24909793.2414   24909799.0314
 -10243515.35448  -7850953.56047  20851783.8454   20851787.9484
 -17097946.38647 -13101126.79746  21976681.1144   21976686.6004
  -8162650.44548  -6216198.82047  20895913.0284   20895917.9284
  12188765.88644   9528696.81845  24439798.9854   24439807.2024
 04  3  1  0 46  0.0000000  0  9G21G10G28G 9G27G29G 8G26G17
  -4493135.68345  -2260761.57645  24543730.6344   24543733.3664
 -19903967.93448  -7234464.10347  21501619.4374   21501624.5604
 -16706234.88948 -12828628.83947  21440184.2744   21440187.6394
  -4520921.37745  -3310940.32545  24278004.3594   24278008.6614
   1757083.50745   1555921.17845  24924754.4864   24924758.2254
 -10278248.35046  -7878018.22247  20845174.8974   20845178.7894
 -17026692.14347 -13045604.04546  21990240.2674   21990245.1554
  -8215066.30448  -6257042.33147  20885938.6694   20885943.2874
  12277976.81944   9598211.70345  24456774.6654   24456776.7874
 04  3  1  0 46 30.0000000  0  9G21G10G28G 9G27G29G 8G26G17
  -4494050.57345  -2261474.47045  24543556.9274   24543557.5014
 -19837579.52148  -7182732.88347  21514252.5834   21514258.0934
 -16720494.14548 -12839739.93947  21437470.7674   21437474.5304
  -4627433.08645  -3393936.41045  24257735.0554   24257741.0334
   1835699.44245   1617180.39045  24939714.0004   24939719.7324
 -10312710.61648  -7904871.94147  20838616.5994   20838620.5154
 -16955232.96847 -12989921.56046  22003838.7164   22003843.4404
  -8267194.32848  -6297661.57347  20876019.0364   20876022.8694
  12367238.08443   9667766.04045  24473759.6964   24473762.0874
 04  3  1  0 47  0.0000000  0  9G21G10G28G 9G27G29G 8G26G17
  -4494426.74945  -2261767.58945  24543485.8044   24543487.1164
 -19770746.63048  -7130655.32147  21526970.5174   21526975.6044
 -16734192.14648 -12850413.68847  21434864.2594   21434868.1744
  -4733794.80645  -3476815.62245  24237495.9944   24237502.5354
   1914309.20942   1678434.77845  24954673.0994   24954677.9874
 -10346902.78848  -7931515.15747  20832109.9084   20832114.2104
 -16883572.17647 -12934081.99646  22017475.2874   22017480.1294
  -8319035.13948  -6338057.00947  20866153.9004   20866157.4164
  12456544.92743   9737355.88444  24490753.9244   24490757.7804
 04  3  1  0 47 30.0000000  0  9G21G10G28G 9G27G29G 8G26G17
  -4494270.21545  -2261645.63745  24543514.3754   24543518.8644
