     2.10           OBSERVATION DATA    G (GPS)             RINEX VERSION / TYPE
teqc  2000Jul20     ARGNET              20040302 02:08:51UTCPGM / RUN BY / DATE
Solaris 2.7|Ultra 2|cc SC5.0|=+-|*Sparc                     COMMENT
BIT 2 OF LLI FLAGS DATA COLLECTED UNDER A/S CONDITION       COMMENT
coco                                                        MARKER NAME
50127M001                                                   MARKER NUMBER
Geoscience AustraliaGeoscience Australia                    OBSERVER / AGENCY
C130U               AOA SNR-12 ACT      99.12.12 / 3.3.32.3 REC # / TYPE / VERS
261                 AOAD/M_T        AUST                    ANT # / TYPE
  -741952.1911  6190968.1181 -1337770.3869                  APPROX POSITION XYZ
        0.0040        0.0000        0.0000                  ANTENNA: DELTA H/E/N
     1     1                                                WAVELENGTH FACT L1/2
     7    L1    L2    C1    P2    P1    S1    S2            # / TYPES OF OBSERV
    30.0000                                                 INTERVAL
Australian Regional GPS Network (ARGN)                      COMMENT
Cocos Island AU018                                          COMMENT
    P1 =    P1  TurboRogue; =    Y1  Benchmark              COMMENT
    L1 = L1(P1) TurboRogue; = L1(Y1) Benchmark              COMMENT
    P2 =    P2  TurboRogue; =    Y2  Benchmark              COMMENT
    L2 = L2(P2) TurboRogue; = L2(Y2) Benchmark              COMMENT
 SNR is mapped to RINEX snr flag value [1,4-9]              COMMENT
    SNR:   >316  >100  >31.6  >10  >3.2    >0 bad=0         COMMENT
L1 & L2:      9     8     7     6     5     4     1         COMMENT
teqc windowed: start @ 2004 Mar  1 00:00:00.000             COMMENT
teqc windowed: delta = 86398.560 sec                        COMMENT
  2004     3     1     0     0    0.0000000     GPS         TIME OF FIRST OBS
                                                            END OF HEADER
 04  3  1  0  0  0.0000000  0  8G13G 7G25G27G 1G11G31G20
 -17674595.011 7 -13772412.412 6  21196784.025    21196781.968    21196784.348
       132.000         112.000
  -9452391.737 4  -7365500.366 4  23036929.418    23036928.402    23036929.055
        28.000          17.000
   1886888.958 4   1470300.293 4  24878050.217    24878050.553    24878049.858
        10.000           5.000
  -3357835.086 4  -2616498.384 4  24248988.796    24248988.488    24248989.241
         9.000           6.000
 -24306950.172 9 -18940479.597 9  20128148.608    20128147.344    20128148.423
       232.000         229.000
 -21143264.161 8 -16475267.996 7  20614128.339    20614125.815    20614128.404
       196.000         169.000
 -14948589.699 4 -11648250.922 4  22804206.053    22804204.765    22804205.659
        35.000          23.000
 -11979317.659 5  -9334533.420 4  22440826.807    22440824.571    22440826.140
        78.000          36.000
 04  3  1  0  0 30.0000000  0  8G13G 7G25G27G 1G11G31G20
 -17720165.219 7 -13807921.691 6  21188112.381    21188110.356    21188112.668
       132.000         115.000
  -9507222.893 4  -7408225.970 4  23026495.522    23026494.483    23026494.727
        27.000          16.000
   1945711.211 4   1516135.754 4  24889243.292    24889244.223    24889243.390
        11.000           6.000
  -3454698.459 4  -2691976.397 4  24230557.302    24230556.122    24230556.698
         9.000           6.000
 -24286227.890 9 -18924332.387 9  20132091.922    20132090.682    20132091.754
       233.000         228.000
 -21141785.389 8 -16474115.744 7  20614409.857    20614407.332    20614409.871
       196.000         169.000
 -14850262.676 4 -11571632.553 4  22822916.896    22822915.957    22822916.829
        33.000          22.000
 -11961850.462 5  -9320922.662 4  22444150.490    22444148.518    22444150.077
        78.000          35.000
 04  3  1  0  1  0.0000000  0  8G13G 7G25G27G 1G11G31G20
 -17765269.691 7 -13843068.056 6  21179529.367    21179527.283    21179529.619
       133.000         115.000
  -9561620.128 4  -7450613.456 4  23016144.057    23016142.872    23016143.659
        27.000          16.000
   2004914.726 4   1562268.321 4  24900510.058    24900510.406    24900509.988
        11.000           5.000
  -3551747.350 4  -2767598.985 4  24212089.489    24212088.203    24212089.317
        11.000           6.000
 -24265000.894 9 -18907791.895 9  20136131.288    20136130.044    20136131.109
       231.000         225.000
 -21139904.488 8 -16472650.144 7  20614767.776    20614765.280    20614767.751
       195.000         167.000
 -14751861.718 4 -11494956.556 4  22841642.224    22841641.146    22841642.009
        34.000          23.000
 -11944484.768 5  -9307390.998 4  22447455.102    22447453.144    22447454.606
        76.000          34.000
 04  3  1  0  1 30.0000000  0  8G13G 7G25G27G 1G11G31G20
 -17809893.145 7 -13877839.604 6  21171037.803    21171035.685    21171038.083
       134.000         115.000
  -9615567.481 4  -7492650.378 4  23005877.824    23005877.218    23005877.480
        26.000          16.000
   2064513.509 4   1608708.883 4  24911851.392    24911851.171    24911851.293
        10.000           3.000
  -3648964.825 4  -2843352.941 4  24193589.317    24193588.376    24193589.298
        11.000           6.000
 -24243255.984 9 -18890847.833 9  20140269.239    20140268.009    20140269.080
       232.000         226.000
 -21137605.339 8 -16470858.636 8  20615205.382    20615202.771    20615205.343
       196.000         170.000
 -14653374.815 4 -11418213.615 4  22860383.858    22860382.914    22860383.451
        32.000          25.000
 -11927205.990 5  -9293927.057 4  22450743.300    22450741.276    22450742.794
        75.000          34.000
 04  3  1  0  2  0.0000000  0  8G13G 7G25G27G 1G11G31G20
 -17854029.171 7 -13912231.337 6  21162639.025    21162636.944    21162639.321
       135.000         118.000
  -9669058.059 4  -7534331.378 4  22995699.052    22995698.148    22995698.575
        27.000          17.000
   2124511.999 4   1655460.907 4  24923268.759    24923269.274    24923268.328
         8.000           4.000
  -3746342.850 4  -2919231.992 4  24175059.424    24175058.161    24175058.659
        12.000           7.000
 -24220989.051 9 -18873497.001 9  20144506.541    20144505.308    20144506.357
       231.000         225.000
 -21134881.093 8 -16468735.881 7  20615723.701    20615721.178    20615723.739
       196.000         169.000
 -14554799.141 4 -11341401.499 4  22879142.440    22879141.208    22879142.033
        31.000          23.000
 -11910008.852 5  -9280526.733 4  22454015.795    22454013.820    22454015.209
        74.000          34.000
 04  3  1  0  2 30.0000000  0  8G13G 7G25G27G 1G11G31G20
 -17897686.000 7 -13946249.668 6  21154331.351    21154329.342    21154331.658
       132.000         116.000
  -9722099.499 4  -7575662.395 4  22985605.758    22985604.709    22985605.332
        27.000          17.000
   2184900.363 4   1702516.745 4  24934760.287    24934760.576    24934760.071
         7.000           4.000
  -3843888.224 4  -2995241.426 4  24156496.277    24156496.161    24156497.148
        13.000           8.000
 -24198210.729 9 -18855747.684 9  20148841.202    20148839.910    20148840.950
       232.000         223.000
 -21131739.493 8 -16466287.919 7  20616321.666    20616319.058    20616321.615
       196.000         169.000
 -14456146.382 4 -11264529.304 4  22897915.104    22897913.928    22897914.878
        31.000          20.000
 -11892902.648 5  -9267197.264 4  22457270.935    22457269.039    22457270.499
        74.000          35.000
 04  3  1  0  3  0.0000000  0  8G13G 7G25G27G 1G11G31G20
 -17940847.229 7 -13979881.820 6  21146118.085    21146116.060    21146118.413
       136.000         119.000
  -9774675.122 4  -7616630.442 4  22975601.024    22975599.960    22975600.592
        26.000          17.000
   2245693.032 4   1749887.588 4  24946327.655    24946328.923    24946327.843
         8.000           7.000
  -3941583.092 4  -3071367.366 4  24137906.092    24137905.887    24137906.059
        16.000           9.000
 -24174907.028 9 -18837588.981 9  20153275.715    20153274.463    20153275.551
       236.000         224.000
 -21128163.619 8 -16463501.561 7  20617002.111    20616999.607    20617002.135
       196.000         169.000
 -14357403.800 4 -11187587.114 4  22916705.766    22916704.491    22916705.414
        31.000          20.000
 -11875872.350 5  -9253926.941 4  22460511.654    22460509.865    22460511.350
        72.000          33.000
 04  3  1  0  3 30.0000000  0  8G13G 7G25G27G 1G11G31G20
 -17983528.324 7 -14013139.839 6  21137996.118    21137994.155    21137996.387
       137.000         121.000
  -9826799.652 4  -7657246.984 4  22965681.836    22965681.068    22965681.317
        25.000          17.000
   2306872.256 4   1797559.649 4  24957970.611    24957971.296    24957970.222
         8.000           6.000
  -4039441.228 4  -3147620.545 4  24119284.165    24119283.585    24119283.964
        15.000           9.000
 -24151095.451 9 -18819034.530 9  20157806.903    20157805.707    20157806.774
       236.000         222.000
 -21124168.087 8 -16460388.196 7  20617762.450    20617760.024    20617762.514
       196.000         169.000
 -14258590.256 4 -11110589.636 4  22935509.260    22935508.142    22935508.708
        28.000          22.000
 -11858934.166 5  -9240728.398 4  22463734.853    22463733.149    22463734.517
        74.000          34.000
 04  3  1  0  4  0.0000000  0  8G13G 7G25G27G 1G11G31G20
 -18025728.619 7 -14046023.208 6  21129965.677    21129963.748    21129965.992
       137.000         121.000
  -9878471.739 4  -7697510.974 4  22955849.311    22955848.290    22955848.694
        25.000          18.000
   2368437.646 4   1845532.615 4  24969685.829    24969686.658    24969686.096
         6.000           6.000
  -4137460.113 4  -3223998.948 4  24100631.896    24100631.314    24100631.660
        16.000          11.000
 -24126777.392 9 -18800085.418 9  20162434.571    20162433.299    20162434.362
       235.000         221.000
 -21119751.701 8 -16456946.896 7  20618602.936    20618600.453    20618602.926
       196.000         166.000
 -14159708.314 4 -11033538.871 4  22954326.220    22954325.083    22954325.492
        30.000          23.000
 -11842088.238 5  -9227601.741 4  22466940.764    22466938.836    22466940.282
        74.000          34.000
 04  3  1  0  4 30.0000000  0  8G13G 7G25G27G 1G11G31G20
 -18067443.329 7 -14078528.202 6  21122027.714    21122025.702    21122028.003
       138.000         122.000
  -9929686.365 4  -7737418.506 4  22946102.888    22946102.519    22946102.618
        26.000          18.000
   2430391.624 4   1893808.368 4  24981475.561    24981476.250    24981475.115
         6.000           5.000
  -4235633.336 4  -3300497.633 4  24081950.822    24081949.940    24081950.474
        14.000          11.000
 -24101950.526 9 -18780739.834 9  20167158.906    20167157.717    20167158.725
       234.000         220.000
 -21114909.195 8 -16453173.549 7  20619524.453    20619521.882    20619524.444
       195.000         164.000
 -14060756.789 4 -10956433.879 4  22973155.338    22973154.919    22973155.117
        28.000          21.000
 -11825330.689 5  -9214543.953 4  22470129.735    22470127.738    22470129.229
        75.000          34.000
 04  3  1  0  5  0.0000000  0  8G13G 7G25G27G 1G11G31G20
 -18108671.516 7 -14110654.087 6  21114182.210    21114180.261    21114182.576
       138.000         122.000
  -9980441.754 4  -7776968.193 4  22936444.766    22936444.071    22936444.433
        26.000          18.000
   2492733.926 4   1942386.702 4  24993338.625    24993339.286    24993338.851
         5.000           4.000
  -4333958.212 4  -3377114.477 4  24063239.094    24063239.707    24063239.557
        11.000          12.000
 -24076615.990 9 -18760998.663 9  20171979.909    20171978.761    20171979.756
       235.000         220.000
 -21109638.779 8 -16449066.768 7  20620527.509    20620524.777    20620527.464
       196.000         163.000
 -13961737.966 4 -10879276.451 4  22991998.799    22991997.537    22991997.970
        24.000          18.000
 -11808661.600 5  -9201555.092 4  22473301.741    22473299.730    22473301.197
        75.000          34.000
 04  3  1  0  5 30.0000000  0  8G13G 7G25G27G 1G11G31G20
 -18149406.461 7 -14142395.628 6  21106430.767    21106428.651    21106431.017
       139.000         122.000
 -10030730.812 4  -7816154.501 4  22926875.141    22926874.408    22926874.773
        25.000          18.000
   2555469.172 4   1991271.265 4  25005277.064    25005277.958    25005277.274
         9.000           5.000
  -4432426.441 4  -3453843.012 4  24044502.560    24044501.127    24044502.123
        10.000          10.000
 -24050769.551 9 -18740858.608 9  20176898.401    20176897.180    20176898.199
       235.000         217.000
 -21103933.259 8 -16444620.946 7  20621613.238    20621610.622    20621613.179
       196.000         163.000
 -13862648.633 4 -10802064.075 4  23010854.994    23010853.589    23010854.136
        25.000          18.000
 -11792075.167 5  -9188630.641 4  22476458.182    22476456.165    22476457.600
        74.000          34.000
 04  3  1  0  6  0.0000000  0  8G13G 7G25G27G 1G11G31G20
 -18189659.832 7 -14173761.918 6  21098770.681    21098768.672    21098771.020
       140.000         122.000
 -10080564.556 4  -7854986.025 4  22917392.404    22917391.442    22917391.873
        26.000          19.000
   2618584.166 4   2040451.715 4  25017287.418    25017288.037    25017287.211
        12.000           7.000
  -4531047.571 4  -3530690.701 4  24025735.134    24025733.916    24025735.133
        12.000           9.000
 -24024424.803 9 -18720330.260 9  20181911.711    20181910.437    20181911.485
       236.000         217.000
 -21097803.217 8 -16439844.330 7  20622779.599    20622777.263    20622779.649
       194.000         164.000
 -13763503.521 4 -10724808.235 4  23029721.234    23029720.669    23029720.775
        27.000          21.000
 -11775583.749 5  -9175780.221 4  22479596.067    22479594.364    22479595.759
        74.000          34.000
 04  3  1  0  6 30.0000000  0  8G13G 7G25G27G 1G11G31G20
 -18229419.066 7 -14204743.164 6  21091204.767    21091202.798    21091205.105
       141.000         122.000
 -10129929.944 4  -7893452.596 4  22907998.097    22907997.731    22907997.851
        25.000          19.000
   2682089.459 4   2089936.317 4  25029371.739    25029372.893    25029372.406
        10.000           6.000
  -4629807.368 4  -3607646.468 4  24006940.824    24006941.062    24006941.262
        11.000          11.000
 -23997571.601 9 -18699405.714 9  20187021.696    20187020.440    20187021.470
       235.000         214.000
 -21091235.764 8 -16434726.872 7  20624029.378    20624027.048    20624029.389
       194.000         164.000
 -13664293.464 4 -10647501.786 4  23048600.848    23048599.905    23048600.102
        26.000          21.000
 -11759175.727 5  -9162994.788 4  22482718.575    22482716.826    22482718.147
        73.000          33.000
 04  3  1  0  7  0.0000000  0  8G13G 7G25G27G 1G11G31G20
 -18268684.448 7 -14235339.591 6  21083732.842    21083730.888    21083733.204
       142.000         125.000
 -10178826.432 4  -7931553.792 4  22898693.500    22898692.901    22898693.184
        25.000          19.000
   2745983.094 4   2139723.510 4  25041530.966    25041531.628    25041530.619
        14.000          10.000
  -4728704.039 4  -3684708.867 4  23988122.995    23988122.045    23988122.395
        12.000          13.000
 -23970212.308 9 -18678086.809 9  20192227.988    20192226.766    20192227.826
       234.000         213.000
 -21084230.392 8 -16429268.176 7  20625362.548    20625360.094    20625362.566
       196.000         163.000
 -13565021.857 4 -10570147.398 4  23067491.464    23067490.404    23067490.796
        22.000          19.000
 -11742851.879 5  -9150274.950 4  22485824.897    22485823.107    22485824.581
        74.000          33.000
 04  3  1  0  7 30.0000000  0  8G13G 7G25G27G 1G11G31G20
 -18307471.795 7 -14265563.523 6  21076351.921    21076349.955    21076352.265
       143.000         126.000
 -10227269.639 4  -7969301.781 4  22889475.208    22889474.572    22889474.745
        25.000          20.000
   2810247.126 4   2189799.344 4  25053759.638    25053761.106    25053759.650
        11.000           8.000
  -4827751.911 4  -3761889.091 4  23969274.302    23969274.619    23969274.426
        14.000          14.000
 -23942365.305 9 -18656387.871 8  20197527.094    20197525.911    20197526.944
       233.000         212.000
 -21076802.589 8 -16423480.314 7  20626776.067    20626773.483    20626776.141
       193.000         160.000
 -13465708.065 4 -10492760.115 4  23086390.630    23086389.443    23086389.833
        22.000          17.000
 -11726628.986 5  -9137633.779 4  22488912.118    22488910.242    22488911.616
        72.000          33.000
 04  3  1  0  8  0.0000000  0  8G13G 7G25G27G 1G11G31G20
 -18345774.549 7 -14295409.851 7  21069063.150    21069061.192    21069063.461
       143.000         128.000
 -10275252.135 4  -8006690.774 4  22880344.541    22880343.795    22880344.079
        25.000          20.000
   2874886.524 4   2240167.679 4  25066060.563    25066060.958    25066060.452
         8.000           4.000
  -4926942.122 4  -3839180.219 4  23950399.271    23950398.732    23950399.106
        11.000          12.000
 -23914025.906 9 -18634305.248 8  20202919.948    20202918.782    20202919.763
       234.000         212.000
 -21068944.819 8 -16417357.413 7  20628271.428    20628268.871    20628271.422
       197.000         163.000
 -13366348.365 4 -10415337.069 4  23105297.641    23105296.840    23105297.372
        25.000          16.000
 -11710500.845 5  -9125066.439 4  22491981.297    22491979.449    22491980.822
        75.000          34.000
 04  3  1  0  8 30.0000000  0  8G13G 7G25G27G 1G11G31G20
 -18383594.311 7 -14324879.819 6  21061866.345    21061864.353    21061866.617
       143.000         127.000
 -10322775.195 4  -8043721.761 4  22871301.134    22871300.413    22871300.743
        23.000          19.000
   2939898.513 4   2290826.318 4  25078431.868    25078432.293    25078431.460
         7.000           5.000
  -5026274.376 4  -3916582.050 4  23931497.277    23931496.505    23931496.754
        12.000          11.000
 -23885198.067 9 -18611842.025 8  20208405.717    20208404.550    20208405.556
       232.000         210.000
 -21060658.166 8 -16410900.316 7  20629848.210    20629845.920    20629848.238
       194.000         163.000
 -13266947.663 4 -10337882.072 4  23124213.189    23124212.336    23124212.706
        24.000          17.000
 -11694469.922 5  -9112574.858 4  22495031.904    22495030.067    22495031.431
        76.000          35.000
 04  3  1  0  9  0.0000000  0  8G13G 7G25G27G 1G11G31G20
 -18420911.717 7 -14353958.343 6  21054765.123    21054763.122    21054765.400
       143.000         127.000
 -10369818.722 4  -8080379.098 4  22862349.057    22862348.600    22862348.602
        25.000          21.000
   3005300.239 4   2341788.690 4  25090877.275    25090878.127    25090877.292
        10.000           6.000
  -5125727.352 4  -3994077.922 4  23912571.364    23912570.785    23912571.636
        12.000          10.000
 -23855864.641 9 -18588984.837 8  20213987.655    20213986.554    20213987.497
       231.000         207.000
 -21051922.466 8 -16404093.314 7  20631510.553    20631508.301    20631510.593
       194.000         162.000
 -13167489.780 4 -10260382.522 4  23143139.864    23143138.806    23143139.170
        21.000          17.000
 -11678517.439 5  -9100144.395 4  22498067.556    22498065.712    22498067.113
        75.000          33.000
 04  3  1  0  9 30.0000000  0  8G13G 7G25G27G 1G11G31G20
 -18457720.164 7 -14382640.276 7  21047760.641    21047758.712    21047760.996
       144.000         129.000
 -10416375.711 4  -8116657.302 4  22853489.429    22853488.888    22853488.963
        25.000          21.000
   3071096.446 4   2393058.396 4  25103398.118    25103399.212    25103397.687
         8.000           6.000
  -5225292.409 4  -4071661.139 4  23893626.027    23893624.636    23893625.169
        13.000          10.000
 -23826021.390 9 -18565730.383 8  20219666.713    20219665.568    20219666.535
       232.000         210.000
 -21042730.702 8 -16396930.935 7  20633259.770    20633257.398    20633259.795
       197.000         163.000
 -13067971.169 4 -10182835.672 4  23162077.435    23162076.605    23162077.060
        21.000          16.000
 -11662637.432 5  -9087770.403 4  22501089.580    22501087.616    22501089.066
        75.000          34.000
 04  3  1  0 10  0.0000000  0  8G13G 7G25G27G 1G11G31G20
 -18494050.682 7 -14410949.796 7  21040847.279    21040845.282    21040847.571
       144.000         130.000
 -10462476.151 4  -8152579.756 4  22844716.851    22844716.445    22844716.627
        25.000          22.000
   3137254.482 4   2444610.076 4  25115987.139    25115988.386    25115986.747
         4.000           2.000
  -5324998.282 4  -4149354.081 4  23874651.185    23874651.450    23874651.060
        12.000          10.000
 -23795701.217 9 -18542104.301 8  20225436.525    20225435.341    20225436.277
       231.000         209.000
 -21033112.648 8 -16389436.388 7  20635090.145    20635087.576    20635090.088
       198.000         162.000
 -12968425.739 4 -10105267.893 4  23181020.442    23181019.182    23181020.006
        23.000          14.000
 -11646861.247 5  -9075477.315 4  22504091.667    22504089.859    22504091.174
        73.000          33.000
 04  3  1  0 10 30.0000000  0  8G13G 7G25G27G 1G11G31G20
 -18529892.983 7 -14438878.886 7  21034026.760    21034024.737    21034027.052
       145.000         130.000
 -10508109.709 4  -8188138.406 4  22836033.259    22836032.620    22836032.888
        26.000          22.000
   3203783.103 4   2496450.553 4  25128647.405    25128647.518    25128648.631
         4.000           2.000
  -5424832.815 4  -4227147.280 4  23855653.943    23855653.327    23855653.530
        13.000          10.000
 -23764896.397 9 -18518100.572 8  20231298.425    20231297.341    20231298.238
       231.000         208.000
 -21023058.032 8 -16381601.660 7  20637003.361    20637001.003    20637003.380
       192.000         160.000
 -12868846.658 4 -10027673.906 4  23199968.874    23199968.787    23199968.760
        22.000          14.000
 -11631179.429 5  -9063257.757 4  22507075.893    22507073.983    22507075.317
        73.000          34.000
 04  3  1  0 11  0.0000000  0  8G13G 7G25G27G 1G11G31G20
 -18565244.706 7 -14466425.708 7  21027299.537    21027297.496    21027299.807
       147.000         134.000
 -10553273.300 4  -8223330.844 4  22827439.031    22827438.289    22827438.572
        26.000          23.000
   3270682.831 4   2548580.178 4  25141378.551    25141378.590    25141378.081
         4.000           1.000
  -5524791.375 4  -4305037.122 4  23836632.935    23836631.857    23836632.160
        14.000          10.000
 -23733606.753 9 -18493719.057 8  20237252.662    20237251.577    20237252.461
       231.000         208.000
 -21012563.297 8 -16373423.982 7  20639000.483    20638998.223    20639000.513
       195.000         163.000
 -12769234.346 4  -9950054.015 4  23218925.188    23218924.892    23218924.500
        22.000          15.000
 -11615589.828 5  -9051110.058 4  22510042.482    22510040.716    22510041.976
        72.000          33.000
 04  3  1  0 11 30.0000000  0  7G13G 7G27G31G20G 1G11
 -18600114.273 7 -14493596.823 7  21020664.160    21020662.085    21020664.348
       146.000         133.000
 -10597974.812 4  -8258163.218 4  22818932.242    22818932.051    22818932.179
        26.000          23.000
  -5624880.329 4  -4383028.585 4  23817585.914    23817585.766    23817586.079
        15.000           9.000
 -12669600.328 4  -9872417.236 4  23237885.246    23237884.324    23237884.618
        23.000          15.000
 -11600101.489 5  -9039041.270 4  22512989.806    22512988.062    22512989.411
        71.000          32.000
 -23701842.975 9 -18468968.088 8  20243297.107    20243296.056    20243296.975
       231.000         208.000
 -21001636.415 8 -16364909.565 7  20641079.989    20641077.637    20641079.931
       197.000         165.000
 04  3  1  0 12  0.0000000  0  7G13G 7G27G31G20G 1G11
 -18634494.519 7 -14520386.650 7  21014121.724    21014119.791    21014122.015
       147.000         135.000
 -10642206.393 4  -8292629.410 4  22810515.544    22810515.002    22810515.270
        27.000          24.000
  -5725090.183 4  -4461114.244 4  23798517.116    23798516.818    23798516.426
        13.000           9.000
 -12569940.263 4  -9794760.141 4  23256849.863    23256848.616    23256849.174
        23.000          14.000
 -11584707.291 5  -9027045.835 4  22515919.158    22515917.684    22515918.813
        69.000          33.000
 -23669599.763 9 -18443843.534 8  20249432.875    20249431.777    20249432.663
       232.000         207.000
 -20990269.755 8 -16356052.466 7  20643242.966    20643240.575    20643243.018
       195.000         162.000
 04  3  1  0 12 30.0000000  0  7G13G 7G27G31G20G 1G11
 -18668372.758 7 -14546785.298 7  21007674.926    21007673.024    21007675.253
       147.000         136.000
 -10685954.864 4  -8326719.154 4  22802190.350    22802189.864    22802189.902
        26.000          23.000
  -5825406.198 4  -4539282.618 4  23779426.964    23779426.715    23779426.885
        13.000           8.000
 -12470244.495 4  -9717075.245 4  23275821.734    23275820.596    23275821.070
        21.000          13.000
 -11569395.396 5  -9015114.533 4  22518832.926    22518831.173    22518832.543
        70.000          33.000
 -23636866.746 9 -18418337.312 8  20255661.778    20255660.661    20255661.594
       233.000         206.000
 -20978449.247 8 -16346841.721 7  20645492.305    20645489.897    20645492.353
       197.000         161.000
 04  3  1  0 13  0.0000000  0  7G13G 7G27G31G20G 1G11
 -18701761.609 7 -14572802.608 7  21001321.166    21001319.339    21001321.532
       147.000         138.000
 -10729232.253 4  -8360441.823 4  22793955.168    22793954.615    22793954.785
        26.000          23.000
  -5925838.461 4  -4617541.599 4  23760315.416    23760315.470    23760315.649
        14.000          10.000
 -12370528.438 4  -9639374.534 4  23294796.529    23294796.189    23294795.896
        22.000          12.000
 -11554178.394 5  -9003257.173 4  22521728.609    22521727.046    22521728.297
        71.000          33.000
 -23603658.639 9 -18392460.892 8  20261981.043    20261980.007    20261980.878
       234.000         206.000
 -20966187.103 8 -16337286.847 7  20647825.784    20647823.384    20647825.750
       197.000         162.000
 04  3  1  0 13 30.0000000  0  7G13G 7G27G31G20G 1G11
 -18734652.822 7 -14598432.146 7  20995062.120    20995060.340    20995062.540
       147.000         139.000
 -10772029.721 4  -8393790.526 4  22785810.816    22785810.500    22785810.633
        27.000          24.000
  -6026376.665 4  -4695883.095 4  23741184.307    23741183.832    23741183.616
        16.000          10.000
 -12270786.716 4  -9561653.809 4  23313777.513    23313776.601    23313776.789
        23.000          12.000
 -11539048.466 5  -8991467.661 4  22524607.867    22524606.182    22524607.525
        71.000          33.000
 -23569969.553 9 -18366209.681 8  20268391.886    20268390.809    20268391.719
       232.000         204.000
 -20953474.395 8 -16327380.885 7  20650244.946    20650242.627    20650244.935
       196.000         162.000
 04  3  1  0 14  0.0000000  0  7G13G 7G27G31G20G 1G11
 -18767052.995 7 -14623679.057 7  20988896.629    20988894.788    20988897.071
       149.000         139.000
 -10814353.080 4  -8426769.795 4  22777757.283    22777756.659    22777756.759
        27.000          24.000
  -6127024.680 4  -4774310.183 4  23722030.758    23722030.873    23722031.247
        17.000          12.000
 -12171028.612 4  -9483920.345 4  23332760.167    23332759.901    23332759.821
        23.000          12.000
 -11524012.283 5  -8979751.193 4  22527469.063    22527467.566    22527468.716
        70.000          33.000
 -23535808.046 9 -18339590.352 8  20274892.633    20274891.564    20274892.486
       231.000         203.000
 -20940316.741 8 -16317128.208 7  20652748.901    20652746.567    20652748.920
       198.000         162.000
 04  3  1  0 14 30.0000000  0  7G 7G27G31G20G 1G13G11
 -10856207.350 4  -8459383.548 4  22769792.696    22769792.105    22769792.396
        27.000          25.000
  -6227785.821 4  -4852825.414 4  23702858.046    23702856.484    23702857.179
        17.000          10.000
 -12071262.570 4  -9406180.690 4  23351745.057    23351745.679    23351744.759
        22.000          14.000
 -11509075.641 5  -8968112.292 4  22530311.559    22530309.961    22530311.048
        69.000          34.000
 -23501181.987 9 -18312609.034 8  20281481.814    20281480.672    20281481.621
       232.000         200.000
 -18798967.527 7 -14648547.547 7  20982823.601    20982821.788    20982823.955
       149.000         142.000
 -20926719.261 8 -16306532.810 7  20655336.472    20655334.121    20655336.433
       197.000         163.000
 04  3  1  0 15  0.0000000  0  7G 7G27G31G20G 1G13G11
 -10897593.213 4  -8491632.307 4  22761917.207    22761916.737    22761916.662
        27.000          25.000
  -6328658.809 4  -4931427.803 4  23683660.976    23683661.211    23683661.999
        17.000          10.000
 -11971492.576 4  -9328437.945 4  23370730.828    23370730.951    23370730.838
        23.000          11.000
 -11494239.983 5  -8956552.081 4  22533134.651    22533133.178    22533134.371
        70.000          33.000
 -23466094.733 9 -18285268.344 8  20288158.704    20288157.600    20288158.535
       228.000         197.000
 -18830397.723 7 -14673038.634 7  20976842.708    20976840.723    20976842.998
       150.000         141.000
 -20912682.323 8 -16295594.978 7  20658007.586    20658005.245    20658007.604
       196.000         161.000
 04  3  1  0 15 30.0000000  0  7G 7G27G31G20G 1G13G11
 -10938502.449 4  -8523509.665 4  22754132.223    22754132.114    22754131.957
        28.000          26.000
  -6429633.815 4  -5010109.657 4  23664447.338    23664446.250    23664446.542
        16.000           9.000
 -11871713.749 4  -9250688.315 4  23389718.419    23389718.042    23389717.911
        23.000          11.000
 -11479498.102 5  -8945064.943 4  22535940.059    22535938.436    22535939.646
        68.000          32.000
 -23430540.771 9 -18257563.985 8  20294924.391    20294923.300    20294924.227
       226.000         195.000
 -18861336.176 7 -14697146.546 7  20970955.343    20970953.398    20970955.700
       150.000         142.000
 -20898197.630 8 -16284308.244 7  20660763.930    20660761.597    20660763.911
       197.000         162.000
 04  3  1  0 16  0.0000000  0  7G 7G27G31G20G 1G13G11
 -10978920.365 4  -8555004.182 4  22746441.015    22746440.790    22746440.771
        27.000          26.000
  -6530694.123 4  -5088858.004 4  23645215.784    23645215.320    23645215.624
        18.000           9.000
 -11771914.842 4  -9172923.028 4  23408710.139    23408709.162    23408709.140
        21.000          10.000
 -11464835.731 5  -8933639.761 4  22538730.137    22538728.688    22538729.749
        69.000          33.000
 -23394508.384 9 -18229486.826 8  20301781.165    20301780.083    20301780.980
       230.000         197.000
 -18891768.537 7 -14720860.099 7  20965164.341    20965162.367    20965164.606
       152.000         143.000
 -20883250.409 8 -16272661.097 7  20663608.361    20663606.022    20663608.310
       199.000         162.000
 04  3  1  0 16 30.0000000  0  7G 7G27G31G20G 1G13G11
 -11018862.928 4  -8586128.288 4  22738840.310    22738840.087    22738840.004
        27.000          26.000
  -6631853.651 4  -5167683.664 4  23625965.551    23625965.721    23625965.746
        22.000          10.000
 -11672114.871 4  -9095156.928 4  23427701.162    23427700.107    23427700.459
        21.000           9.000
 -11450269.369 5  -8922289.391 4  22541502.180    22541500.527    22541501.703
        69.000          33.000
 -23358016.034 9 -18201051.253 8  20308725.451    20308724.413    20308725.264
       227.000         194.000
 -18921711.285 7 -14744192.137 7  20959466.521    20959464.430    20959466.718
       151.000         142.000
 -20867856.205 8 -16260665.655 7  20666537.765    20666535.506    20666537.798
       198.000         161.000
 04  3  1  0 17  0.0000000  0  7G 7G27G31G20G 1G13G11
 -11058324.376 4  -8616877.507 4  22731331.392    22731330.917    22731330.862
        28.000          25.000
  -6733104.910 4  -5246580.800 4  23606699.139    23606698.224    23606698.408
        19.000          12.000
 -11572311.479 4  -9017388.174 4  23446692.840    23446692.593    23446692.719
        20.000          11.000
 -11435794.248 5  -8911010.118 4  22544256.842    22544255.114    22544256.383
        69.000          33.000
 -23321060.655 9 -18172254.881 8  20315757.864    20315756.793    20315757.650
       226.000         195.000
 -18951159.466 7 -14767138.799 7  20953862.640    20953860.788    20953862.871
       150.000         146.000
 -20852009.135 8 -16248317.331 7  20669553.396    20669551.197    20669553.434
       199.000         161.000
 04  3  1  0 17 30.0000000  0  7G 7G27G31G20G 1G13G11
 -11097310.596 4  -8647256.415 4  22723912.263    22723911.846    22723911.942
        28.000          25.000
  -6834451.604 4  -5325552.289 4  23587412.682    23587412.285    23587412.505
        19.000          13.000
 -11472513.597 4  -8939623.699 4  23465683.584    23465684.278    23465683.267
        18.000          10.000
 -11421416.574 5  -8899806.781 4  22546992.779    22546991.198    22546992.331
        70.000          33.000
 -23283650.863 9 -18143104.420 8  20322876.645    20322875.678    20322876.477
       225.000         194.000
 -18980119.300 7 -14789704.930 7  20948351.771    20948349.827    20948352.024
       150.000         146.000
 -20835714.889 8 -16235620.555 7  20672654.046    20672651.902    20672654.065
       199.000         159.000
 04  3  1  0 18  0.0000000  0  7G 7G27G31G20G 1G13G11
 -11135824.614 4  -8677267.374 4  22716583.160    22716583.076    22716582.877
        27.000          25.000
  -6935894.877 4  -5404599.026 4  23568108.784    23568108.579    23568108.505
        19.000          13.000
 -11372727.718 4  -8861868.572 4  23484672.733    23484672.803    23484672.524
        23.000          10.000
 -11407140.236 5  -8888682.400 4  22549709.359    22549707.936    22549709.100
        69.000          32.000
 -23245792.590 9 -18113604.494 8  20330080.836    20330079.884    20330080.675
       222.000         191.000
 -19008594.780 7 -14811893.640 7  20942933.027    20942931.167    20942933.317
       148.000         147.000
 -20818976.701 8 -16222577.846 7  20675839.203    20675837.018    20675839.261
       198.000         158.000
 04  3  1  0 18 30.0000000  0  7G 7G27G31G20G 1G13G11
 -11173845.011 4  -8706893.694 4  22709348.210    22709347.964    22709347.896
        28.000          25.000
  -7037411.075 4  -5483702.580 4  23548791.262    23548790.371    23548790.734
        18.000          11.000
 -11272935.280 4  -8784108.329 4  23503662.605    23503662.540    23503662.256
        21.000          10.000
 -11392944.189 5  -8877620.588 4  22552411.224    22552409.342    22552410.464
        70.000          32.000
 -23207467.023 9 -18083740.443 8  20337374.003    20337373.011    20337373.816
       222.000         191.000
 -19036564.985 7 -14833688.630 7  20937610.477    20937608.702    20937610.773
       149.000         149.000
 -20801772.556 8 -16209172.055 7  20679113.158    20679110.854    20679113.178
       197.000         155.000
 04  3  1  0 19  0.0000000  0  7G 7G27G31G20G 1G13G11
 -11211390.491 4  -8736149.949 4  22702203.726    22702203.310    22702203.421
        29.000          24.000
  -7139016.848 4  -5562875.962 4  23529455.999    23529455.813    23529455.418
        19.000          13.000
 -11173158.237 4  -8706360.081 4  23522649.798    23522649.517    23522649.233
        21.000           9.000
 -11378847.738 5  -8866636.383 4  22555093.501    22555091.852    22555093.044
        69.000          31.000
 -23168695.441 9 -18053528.848 8  20344752.049    20344751.021    20344751.871
       223.000         190.000
 -19064049.030 7 -14855104.797 7  20932380.488    20932378.585    20932380.748
       148.000         148.000
 -20784121.219 8 -16195417.806 7  20682472.112    20682469.840    20682472.154
       199.000         156.000
 04  3  1  0 19 30.0000000  0  7G 7G27G31G20G 1G13G11
 -11248459.874 4  -8765035.223 4  22695149.670    22695149.296    22695149.401
        29.000          25.000
  -7240708.935 4  -5642116.581 4  23510104.363    23510104.395    23510104.187
        19.000          13.000
 -11073398.518 4  -8628625.340 4  23541633.912    23541633.324    23541633.172
        20.000          10.000
 -11364850.176 5  -8855729.235 4  22557757.247    22557755.671    22557756.675
        69.000          32.000
 -23129479.427 9 -18022970.939 8  20352214.625    20352213.628    20352214.433
       220.000         187.000
 -19091046.384 7 -14876141.721 7  20927242.988    20927241.335    20927243.326
       149.000         150.000
 -20766021.319 8 -16181314.023 7  20685916.324    20685914.205    20685916.396
       199.000         155.000
 04  3  1  0 20  0.0000000  0  7G 7G27G31G20G 1G13G11
 -11285045.148 4  -8793543.269 4  22688187.634    22688187.372    22688187.465
        30.000          25.000
  -7342477.238 4  -5721416.602 4  23490738.912    23490738.617    23490738.910
        19.000          15.000
 -10973651.024 4  -8550900.153 4  23560614.257    23560614.789    23560614.193
        19.000          10.000
 -11350943.833 5  -8844893.168 4  22560403.552    22560401.779    22560403.035
        70.000          32.000
 -23089813.536 9 -17992062.478 8  20359762.823    20359761.846    20359762.633
       220.000         187.000
 -19117549.597 7 -14896793.598 7  20922199.624    20922197.833    20922199.983
       150.000         151.000
 -20747464.607 8 -16166854.283 7  20689447.757    20689445.514    20689447.748
       200.000         155.000
 04  3  1  0 20 30.0000000  0  7G 7G27G31G20G 1G13G11
 -11321167.129 4  -8821690.306 4  22681314.333    22681313.754    22681313.776
        30.000          25.000
  -7444340.273 4  -5800790.410 4  23471355.341    23471355.100    23471354.984
        18.000          15.000
 -10873939.791 4  -8473203.188 4  23579589.030    23579589.256    23579588.976
        20.000          10.000
 -11337149.858 5  -8834144.659 4  22563028.251    22563026.929    22563027.779
        67.000          32.000
 -23049721.253 9 -17960821.764 8  20367392.137    20367391.167    20367391.908
       221.000         186.000
 -19143579.979 7 -14917077.037 7  20917246.247    20917244.484    20917246.556
       150.000         152.000
 -20728472.054 8 -16152054.930 7  20693061.819    20693059.728    20693061.919
       200.000         154.000
 04  3  1  0 21  0.0000000  0  7G 7G27G31G20G 1G13G11
 -11356795.491 4  -8849452.707 4  22674534.206    22674533.910    22674533.857
        31.000          25.000
  -7546265.728 4  -5880212.867 4  23451959.469    23451959.366    23451959.246
        21.000          16.000
 -10774237.414 4  -8395513.146 4  23598562.411    23598562.183    23598561.649
        17.000          10.000
 -11323438.444 5  -8823460.486 4  22565637.705    22565635.995    22565637.246
        69.000          31.000
 -23009175.120 9 -17929227.402 8  20375107.806    20375106.818    20375107.632
       220.000         184.000
 -19169108.023 7 -14936969.041 7  20912388.458    20912386.700    20912388.809
       152.000         153.000
 -20709012.798 8 -16136891.915 7  20696764.911    20696762.713    20696764.938
       201.000         152.000
 04  3  1  0 21 30.0000000  0  7G 7G27G31G20G 1G13G11
 -11391938.461 4  -8876836.881 4  22667846.425    22667846.584    22667846.355
        31.000          25.000
  -7648259.393 4  -5959688.487 4  23432550.469    23432550.543    23432550.330
        20.000          15.000
 -10674555.213 4  -8317838.805 4  23617531.106    23617531.120    23617530.507
        17.000          10.000
 -11309818.258 5  -8812847.401 4  22568229.502    22568228.021    22568229.031
        68.000          31.000
 -22968185.916 9 -17897287.791 8  20382907.865    20382906.880    20382907.635
       219.000         182.000
 -19194142.627 7 -14956476.549 7  20907624.524    20907622.790    20907624.875
       152.000         152.000
 -20689094.409 8 -16121371.134 7  20700555.362    20700553.011    20700555.333
       200.000         151.000
 04  3  1  0 22  0.0000000  0  7G 7G27G31G20G 1G13G11
 -11426585.893 4  -8903834.921 4  22661253.670    22661253.253    22661253.395
        32.000          26.000
  -7750308.937 4  -6039207.645 4  23413130.910    23413130.878    23413130.417
        18.000          15.000
 -10574885.808 4  -8240174.457 4  23636496.580    23636497.528    23636496.784
        15.000          10.000
 -11296279.411 5  -8802297.697 4  22570805.842    22570804.358    22570805.466
        68.000          31.000
 -22926746.243 9 -17864997.166 8  20390793.506    20390792.575    20390793.371
       220.000         181.000
 -19218674.251 7 -14975592.125 7  20902956.494    20902954.574    20902956.774
       153.000         151.000
 -20668707.274 8 -16105485.089 7  20704434.891    20704432.588    20704434.848
       200.000         150.000
 04  3  1  0 22 30.0000000  0  7G 7G27G31G20G 1G13G11
 -11460762.993 4  -8930466.474 4  22654750.125    22654749.616    22654749.755
        32.000          27.000
  -7852437.145 4  -6118788.092 4  23393696.197    23393696.567    23393696.402
        17.000          16.000
 -10475257.323 4  -8162541.999 4  23655456.423    23655456.140    23655455.913
        15.000           9.000
 -11282847.184 5  -8791831.074 4  22573361.873    22573360.559    22573361.422
        65.000          31.000
 -22884883.780 9 -17832377.097 8  20398759.695    20398758.774    20398759.568
       217.000         179.000
 -19242728.408 7 -14994335.647 7  20898378.858    20898377.271    20898379.295
       153.000         153.000
 -20647876.253 8 -16089253.165 7  20708399.006    20708396.685    20708398.978
       205.000         151.000
 04  3  1  0 23  0.0000000  0  7G 7G27G31G20G 1G13G11
 -11494453.016 4  -8956718.485 4  22648338.975    22648338.868    22648338.689
        33.000          27.000
  -7954625.116 4  -6198415.102 4  23374251.457    23374251.337    23374251.197
        21.000          16.000
 -10375656.154 4  -8084930.783 4  23674409.885    23674410.157    23674409.109
        15.000           9.000
 -11269505.145 5  -8781434.727 4  22575900.949    22575899.533    22575900.549
        66.000          30.000
 -22842584.607 9 -17799416.733 8  20406808.966    20406808.066    20406808.865
       218.000         178.000
 -19266289.302 7 -15012694.803 7  20893895.541    20893893.751    20893895.888
       152.000         152.000
 -20626584.364 8 -16072662.121 7  20712450.729    20712448.490    20712450.732
       202.000         151.000
 04  3  1  0 23 30.0000000  0  7G 7G27G31G20G 1G13G11
 -11527670.932 4  -8982602.619 4  22642017.677    22642017.668    22642017.496
        32.000          26.000
  -8056884.984 4  -6278098.168 4  23354791.759    23354791.594    23354791.713
        22.000          16.000
 -10276099.666 4  -8007354.436 4  23693355.601    23693355.042    23693355.009
        14.000           9.000
 -11256268.348 5  -8771120.391 4  22578419.918    22578418.385    22578419.357
        66.000          31.000
 -22799866.052 9 -17766129.579 8  20414938.225    20414937.200    20414937.966
       218.000         177.000
 -19289372.101 7 -15030681.418 7  20889502.959    20889501.286    20889503.381
       153.000         153.000
 -20604846.233 8 -16055723.358 7  20716587.285    20716585.195    20716587.299
       203.000         152.000
 04  3  1  0 24  0.0000000  0  7G 7G27G31G20G 1G13G11
 -11560395.913 4  -9008102.648 4  22635790.354    22635790.222    22635790.017
        32.000          26.000
  -8159193.879 4  -6357819.411 4  23335322.585    23335323.061    23335322.847
        19.000          15.000
 -10176570.115 4  -7929799.040 4  23712295.753    23712295.028    23712294.825
        15.000           9.000
 -11243116.275 5  -8760872.068 4  22580922.528    22580921.132    22580922.155
        66.000          30.000
 -22756710.175 9 -17732501.656 8  20423150.436    20423149.489    20423150.291
       217.000         175.000
 -19311956.641 7 -15048279.779 7  20885205.488    20885203.601    20885205.731
       155.000         153.000
 -20582641.363 8 -16038420.903 7  20720812.847    20720810.647    20720812.845
       202.000         151.000
 04  3  1  0 24 30.0000000  0  7G 7G27G31G20G 1G13G11
 -11592636.854 4  -9033225.501 4  22629655.497    22629655.030    22629655.060
        31.000          26.000
  -8261558.255 4  -6437583.884 4  23315843.935    23315843.552    23315843.413
        20.000          16.000
 -10077079.213 4  -7852273.787 4  23731227.929    23731227.299    23731227.523
        14.000          10.000
 -11230057.845 5  -8750696.714 4  22583407.639    22583406.207    22583407.128
        66.000          31.000
 -22713128.422 9 -17698541.881 8  20431443.801    20431442.894    20431443.653
       217.000         173.000
 -19334052.713 7 -15065497.516 7  20881000.698    20880998.884    20881001.044
       155.000         154.000
 -20559977.765 8 -16020760.995 7  20725125.632    20725123.399    20725125.599
       202.000         150.000
 04  3  1  0 25  0.0000000  0  7G 7G27G31G20G 1G13G11
 -11624389.109 4  -9057967.558 4  22623613.099    22623612.988    22623612.846
        33.000          26.000
  -8363970.827 4  -6517385.908 4  23296354.775    23296355.011    23296354.801
        21.000          17.000
  -9977624.969 4  -7774777.107 4  23750153.012    23750153.378    23750152.682
        15.000           9.000
 -11217088.454 5  -8740590.744 4  22585875.676    22585874.228    22585875.141
        67.000          30.000
 -22669118.641 9 -17664248.574 8  20439818.685    20439817.701    20439818.479
       218.000         172.000
 -19355656.277 7 -15082331.480 7  20876889.677    20876887.870    20876889.963
       153.000         154.000
 -20536850.936 8 -16002740.128 7  20729526.655    20729524.283    20729526.625
       203.000         149.000
 04  3  1  0 25 30.0000000  0  7G 7G27G31G20G 1G13G11
 -11655668.224 4  -9082340.935 4  22617660.741    22617660.733    22617660.628
        34.000          26.000
  -8466444.638 4  -6597235.665 4  23276854.901    23276855.020    23276854.888
        21.000          16.000
  -9878225.639 4  -7697323.191 4  23769068.060    23769068.973    23769067.664
        14.000           9.000
 -11204223.889 5  -8730566.449 4  22588323.886    22588322.300    22588323.245
        66.000          30.000
 -22624698.881 9 -17629635.806 7  20448271.394    20448270.513    20448271.231
       216.000         169.000
 -19376782.989 7 -15098793.872 7  20872869.409    20872867.597    20872869.700
       152.000         154.000
 -20513276.121 8 -15984370.183 7  20734012.863    20734010.486    20734012.801
       203.000         149.000
 04  3  1  0 26  0.0000000  0  7G 7G27G31G20G 1G13G11
 -11686447.346 4  -9106324.708 4  22611803.760    22611803.576    22611803.384
        34.000          25.000
  -8568950.196 4  -6677110.156 4  23257349.141    23257348.997    23257348.996
        22.000          16.000
  -9778857.003 4  -7619893.211 4  23787977.779    23787978.142    23787976.759
        12.000           7.000
 -11191437.383 5  -8720602.986 4  22590756.893    22590755.629    22590756.446
        65.000          30.000
 -22579845.002 9 -17594684.761 7  20456806.841    20456805.976    20456806.681
       217.000         168.000
 -19397407.116 7 -15114864.638 7  20868944.747    20868943.050    20868945.072
       151.000         155.000
 -20489226.270 8 -15965630.076 7  20738589.249    20738587.144    20738589.222
       204.000         149.000
 04  3  1  0 26 30.0000000  0  7G 7G27G31G20G 1G13G11
 -11716744.464 4  -9129932.892 4  22606038.526    22606038.386    22606038.147
        34.000          25.000
  -8671503.062 4  -6757021.510 4  23237833.835    23237834.056    23237833.476
        21.000          17.000
  -9679539.704 4  -7542503.222 4  23806877.230    23806877.118    23806876.814
        15.000           8.000
 -11178746.794 5  -8710714.262 4  22593172.099    22593170.464    22593171.496
        64.000          29.000
 -22534577.632 9 -17559411.518 7  20465421.038    20465420.071    20465420.855
       217.000         167.000
 -19417546.972 7 -15130558.047 7  20865112.356    20865110.519    20865112.621
       152.000         154.000
 -20464719.067 8 -15946533.589 7  20743252.732    20743250.826    20743252.778
       201.000         148.000
 04  3  1  0 27  0.0000000  0  7G 7G27G31G20G 1G13G11
 -11746568.626 4  -9153172.534 4  22600363.213    22600363.080    22600362.870
        34.000          25.000
  -8774109.741 4  -6836974.786 4  23218308.426    23218308.484    23218308.223
        24.000          17.000
  -9580285.575 4  -7465162.470 4  23825764.316    23825765.101    23825764.174
        12.000          10.000
 -11166161.132 5  -8700907.298 4  22595566.931    22595565.565    22595566.330
        64.000          30.000
 -22488908.407 9 -17523825.140 7  20474111.629    20474110.679    20474111.423
       216.000         166.000
 -19437212.387 7 -15145881.766 7  20861370.145    20861368.331    20861370.455
       152.000         156.000
 -20439763.449 8 -15927087.692 7  20748001.786    20747999.746    20748001.766
       201.000         147.000
 04  3  1  0 27 30.0000000  0  7G 7G27G31G20G 1G13G11
 -11775907.596 4  -9176034.110 4  22594780.113    22594780.019    22594779.926
        35.000          26.000
  -8876755.184 4  -6916958.269 4  23198775.628    23198775.650    23198775.393
        24.000          18.000
  -9481084.885 4  -7387863.365 4  23844640.915    23844641.871    23844641.237
        11.000           8.000
 -11153668.116 5  -8691172.528 4  22597944.331    22597942.786    22597943.847
        65.000          29.000
 -22442827.345 9 -17487917.847 7  20482880.574    20482879.617    20482880.403
       217.000         164.000
 -19456391.495 7 -15160826.544 7  20857720.607    20857718.660    20857720.786
       152.000         156.000
 -20414347.131 8 -15907282.817 7  20752838.426    20752836.268    20752838.415
       199.000         145.000
 04  3  1  0 28  0.0000000  0  7G 7G27G31G20G 1G13G11
 -11804755.770 4  -9198513.240 4  22589290.691    22589290.451    22589290.328
        35.000          26.000
  -8979431.263 4  -6996965.622 4  23179237.486    23179237.370    23179236.953
        23.000          19.000
  -9381934.551 4  -7310603.472 4  23863510.181    23863510.011    23863509.528
        11.000           8.000
 -11141261.990 5  -8681505.459 4  22600305.212    22600303.777    22600304.622
        65.000          30.000
 -22396331.588 9 -17451687.415 7  20491728.365    20491727.506    20491728.230
       215.000         164.000
 -19475079.287 7 -15175388.477 7  20854164.374    20854162.577    20854164.669
       153.000         158.000
 -20388463.875 8 -15887114.091 7  20757763.774    20757761.715    20757763.799
       200.000         145.000
 04  3  1  0 28 30.0000000  0  7G 7G27G31G20G 1G13G11
 -11833125.731 4  -9220619.740 4  22583891.996    22583891.896    22583891.750
        36.000          26.000
  -9082147.773 4  -7077004.464 4  23159690.949    23159690.855    23159690.703
        24.000          18.000
  -9282849.782 4  -7233394.673 4  23882364.344    23882365.696    23882364.517
        11.000           9.000
 -11128955.081 5  -8671915.707 4  22602647.072    22602645.813    22602646.675
        65.000          29.000
 -22349436.060 9 -17415145.474 7  20500652.415    20500651.473    20500652.196
       217.000         163.000
 -19493289.075 7 -15189577.940 7  20850699.183    20850697.362    20850699.460
       152.000         159.000
 -20362126.337 8 -15866591.375 7  20762775.694    20762773.606    20762775.647
       200.000         144.000
 04  3  1  0 29  0.0000000  0  7G 7G27G31G20G 1G13G11
 -11861002.929 4  -9242342.268 4  22578587.343    22578586.873    22578586.910
        36.000          25.000
  -9184887.478 4  -7157061.410 4  23140139.780    23140139.769    23140139.697
        23.000          17.000
  -9183818.462 4  -7156227.553 4  23901210.330    23901211.467    23901209.457
         9.000          10.000
 -11116732.885 5  -8662391.962 4  22604973.013    22604971.637    22604972.498
        65.000          30.000
 -22302128.810 9 -17378282.712 7  20509654.680    20509653.763    20509654.484
       216.000         162.000
 -19511006.843 7 -15203384.014 7  20847327.449    20847325.784    20847327.857
       151.000         158.000
 -20335319.645 8 -15845703.080 7  20767876.779    20767874.764    20767876.814
       201.000         143.000
 04  3  1  0 29 30.0000000  0  7G 7G27G31G20G 1G13G11
 -11888404.549 4  -9263694.219 4  22573372.919    22573372.729    22573372.650
        37.000          26.000
  -9287664.744 4  -7237147.610 4  23120582.503    23120582.336    23120582.160
        24.000          19.000
  -9084860.238 4  -7079117.379 4  23920041.360    23920042.352    23920041.068
        12.000           9.000
 -11104612.291 5  -8652947.390 4  22607279.414    22607278.131    22607279.000
        65.000          29.000
 -22254429.472 9 -17341114.424 7  20518731.529    20518730.673    20518731.380
       215.000         160.000
 -19528250.539 7 -15216820.680 7  20844046.309    20844044.454    20844046.603
       152.000         160.000
 -20308060.837 8 -15824462.485 7  20773064.039    20773062.039    20773064.030
       200.000         143.000
 04  3  1  0 30  0.0000000  0  7G 7G27G31G20G 1G13G11
 -11915325.630 4  -9284671.728 4  22568249.951    22568249.917    22568249.746
        38.000          27.000
  -9390471.751 4  -7317256.979 4  23101018.564    23101018.635    23101018.791
        25.000          20.000
  -8985972.593 4  -7002062.201 4  23938859.777    23938860.009    23938859.224
        13.000          11.000
 -11092588.211 5  -8643578.022 4  22609567.699    22609566.226    22609567.165
        65.000          29.000
 -22206335.622 9 -17303638.723 7  20527883.573    20527882.687    20527883.351
       214.000         159.000
 -19545015.813 7 -15229884.549 7  20840855.946    20840854.131    20840856.243
       152.000         161.000
 -20280344.739 8 -15802865.566 7  20778338.300    20778336.299    20778338.270
       201.000         142.000
 04  3  1  0 30 30.0000000  0  7G 7G27G31G20G 1G13G11
 -11941752.740 4  -9305264.319 4  22563221.074    22563220.990    22563220.860
        37.000          26.000
  -9493292.166 4  -7397376.787 4  23081452.551    23081452.566    23081452.379
        23.000          19.000
  -8887144.377 4  -6925053.350 4  23957666.369    23957666.517    23957665.930
        15.000          11.000
 -11080646.656 5  -8634272.955 4  22611840.015    22611838.595    22611839.658
        64.000          28.000
 -22157836.103 9 -17265846.918 7  20537112.732    20537111.836    20537112.537
       214.000         157.000
 -19561289.329 7 -15242565.229 7  20837759.235    20837757.402    20837759.505
       151.000         162.000
 -20252157.446 8 -15780901.486 7  20783702.160    20783700.245    20783702.203
       200.000         141.000
 04  3  1  0 31  0.0000000  0  7G 7G27G31G20G 1G13G11
 -11967693.482 4  -9325477.923 4  22558284.615    22558284.617    22558284.594
        37.000          26.000
  -9596130.857 4  -7477510.849 4  23061883.605    23061883.100    23061883.197
        25.000          20.000
  -8788385.675 4  -6848098.654 4  23976459.439    23976459.537    23976459.079
        14.000          10.000
 -11068794.824 5  -8625037.810 4  22614095.333    22614094.043    22614094.891
        63.000          29.000
 -22108941.201 9 -17227747.022 7  20546417.105    20546416.231    20546416.928
       213.000         156.000
 -19577079.656 7 -15254869.399 7  20834754.478    20834752.645    20834754.743
       151.000         163.000
 -20223506.549 8 -15758576.154 7  20789154.422    20789152.334    20789154.401
       201.000         140.000
 04  3  1  0 31 30.0000000  0  7G 7G27G31G20G 1G13G11
 -11993152.754 4  -9345316.358 4  22553440.101    22553440.012    22553439.771
        39.000          27.000
  -9698989.760 4  -7557660.649 4  23042309.787    23042310.053    23042309.538
        25.000          22.000
  -8689703.745 4  -6771203.784 4  23995238.100    23995238.219    23995237.244
        14.000           7.000
 -11057037.546 5  -8615876.339 4  22616332.825    22616331.465    22616332.392
        64.000          29.000
 -22059658.245 9 -17189344.749 7  20555795.401    20555794.525    20555795.214
       213.000         155.000
 -19592392.388 7 -15266801.419 7  20831840.546    20831838.744    20831840.812
       151.000         164.000
 -20194396.609 8 -15735893.122 7  20794693.880    20794691.800    20794693.827
       201.000         139.000
 04  3  1  0 32  0.0000000  0  7G 7G27G31G20G 1G13G11
 -12018132.046 4  -9364780.785 4  22548686.858    22548686.391    22548686.506
        39.000          26.000
  -9801867.455 4  -7637825.090 4  23022732.679    23022732.835    23022732.556
        24.000          22.000
  -8591102.315 4  -6694371.646 4  24014000.261    24014001.876    24014000.546
        13.000           8.000
 -11045375.875 5  -8606789.367 4  22618551.823    22618550.576    22618551.414
        63.000          29.000
 -22009991.124 8 -17150643.128 7  20565246.758    20565245.940    20565246.540
       212.000         155.000
 -19607229.244 7 -15278362.628 7  20829017.155    20829015.445    20829017.402
       149.000         167.000
 -20164828.772 8 -15712853.278 7  20800320.508    20800318.376    20800320.454
       202.000         139.000
 04  3  1  0 32 30.0000000  0  7G 7G27G31G20G 1G13G11
 -12042614.107 4  -9383857.756 4  22544028.110    22544027.760    22544027.693
        39.000          26.000
  -9904743.754 4  -7717988.448 4  23003155.991    23003156.146    23003155.833
        25.000          20.000
  -8492566.389 4  -6617590.546 4  24032752.362    24032752.727    24032751.770
        12.000           8.000
 -11033792.327 5  -8597763.266 4  22620756.405    22620754.893    22620755.794
        65.000          29.000
 -21959925.021 8 -17111630.612 7  20574774.065    20574773.199    20574773.856
       211.000         152.000
 -19621573.910 7 -15289540.313 7  20826287.513    20826285.720    20826287.743
       149.000         167.000
 -20134785.738 8 -15689443.156 7  20806037.399    20806035.446    20806037.430
       201.000         139.000
 04  3  1  0 33  0.0000000  0  7G 7G27G31G20G 1G13G11
 -12066621.400 4  -9402564.784 4  22539459.319    22539459.416    22539459.309
        39.000          27.000
 -10007638.173 4  -7798165.921 4  22983575.997    22983575.939    22983575.721
        26.000          20.000
  -8394120.825 4  -6540879.877 4  24051485.993    24051486.164    24051485.908
        16.000           7.000
 -11022308.668 5  -8588815.003 4  22622941.468    22622940.283    22622941.109
        65.000          29.000
 -21909484.856 8 -17072326.620 7  20584372.448    20584371.657    20584372.303
       211.000         150.000
 -19635448.997 7 -15300352.088 7  20823647.153    20823645.466    20823647.375
       149.000         169.000
 -20104289.734 8 -15665680.069 7  20811840.640    20811838.686    20811840.590
       199.000         138.000
 04  3  1  0 33 30.0000000  0  7G 7G27G31G20G 1G13G11
 -12090141.573 4  -9420892.234 4  22534983.816    22534983.552    22534983.703
        40.000          26.000
