     2.10           OBSERVATION DATA    G (GPS)             RINEX VERSION / TYPE
teqc  2002Mar18     WCDA Operator       20040302 01:05:48UTCPGM / RUN BY / DATE
Solaris 2.7|Ultra 2|cc SC5.0|=+-|*Sparc                     COMMENT
BIT 2 OF LLI FLAGS DATA COLLECTED UNDER A/S CONDITION       COMMENT
CC2nonCC ESOC Version 6.5, 21 Mar 2012                      COMMENT
CC2nonCC executed 20151123 090128.509                       COMMENT
CC C1, P2 converted to non-CC type                          COMMENT
 average P1-C1 biases applied by CC2nonCC by PRN (ps):      COMMENT
    49          83  1603  -814   652  -551  -447   516 -1531COMMENT
   775        1649   460  -880  -283  -808   141 -5558  -931COMMENT
  -171   683         375   779  1373    84  -124   942  2124COMMENT
  -193                                                      COMMENT
dubo  WCDA-ACP   924000   Lac Du Bonnet MAN Canada          MARKER NAME
40137M001                                                   MARKER NUMBER
PGC-WCDA            GEOL. SURV. CANADA                      OBSERVER / AGENCY
386                 ROGUE SNR-8000      3.2.32.11           REC # / TYPE / VERS
98381               AOAD/M_T        SCIS                    ANT # / TYPE
  -417603.5980 -4064529.8010  4881432.1610                  APPROX POSITION XYZ
        0.1000        0.0000        0.0000                  ANTENNA: DELTA H/E/N
     1     1                                                WAVELENGTH FACT L1/2
     5    C1    P1    P2    L1    L2                        # / TYPES OF OBSERV
    30.0000                                                 INTERVAL
STATION INFORMATION EFFECTIVE FROM: 2001/01/23 20:04:00     COMMENT
                                TO: CURRENT DATE (above)    COMMENT
BIT 2 OF LLI FLAGS (+4) DATA COLLECTED UNDER 'AS' CONDITION COMMENT
L1 PHASE CENTRE 0.110m ABOVE ARP                            COMMENT
L2 PHASE CENTRE 0.128m ABOVE ARP                            COMMENT
where ARP is the Antenna Reference Point for HI measurement COMMENT
CONTACT gps@pgc.nrcan.gc.ca FOR ADDITIONAL INFORMATION      COMMENT
 SNR is mapped to RINEX snr flag value [1,4-9]              COMMENT
    SNR:  >=316 >=100 >=31.6 >=10 >=3.2    >0 bad=0         COMMENT
L1 & L2:      9     8     7     6     5     4     1         COMMENT
  2004     3     1     0     0    0.0000000     GPS         TIME OF FIRST OBS
                                                            END OF HEADER
  4  3  1  0  0  0.0000000  0  8G10G 6G22G18G21G17G26G15
  24753622.2374          0.000    24753620.8204   -1606363.01448  -1251678.35744
  23234740.7494          0.000    23234743.8544  -11026127.38448  -8591780.20046
  23910581.0884          0.000    23910581.8994   -6771985.83248  -5276859.18545
  21231864.2794          0.000    21231863.7184  -21481387.16149 -16738718.37047
  20137849.5434          0.000    20137848.4184  -27590534.41649 -21499091.09547
  24113602.0174          0.000    24113605.5404   -5362574.01548  -4178618.45844
  20531766.7874          0.000    20531767.3084  -21517252.22949 -16766662.18947
  22727065.8014          0.000    22727068.2904  -12569150.20049  -9794129.08746
  4  3  1  0  0 30.0000000  0  8G10G 6G22G18G21G17G26G15
  24773088.5554          0.000    24773087.9484   -1504061.07648  -1171962.45244
  23254431.2264          0.000    23254434.6694  -10922653.01648  -8511150.91445
  23892742.0774          0.000    23892742.3514   -6865735.25048  -5349910.56045
  21220538.6854          0.000    21220538.0254  -21540903.33249 -16785094.59347
  20133920.4934          0.000    20133919.2324  -27611182.68149 -21515180.64447
  24133004.4514          0.000    24133004.9404   -5260611.82748  -4099167.35744
  20536336.0804          0.000    20536336.8584  -21493239.85549 -16747951.25047
  22708566.5994          0.000    22708569.4024  -12666361.73449  -9869878.28546
  4  3  1  0  1  0.0000000  0  8G10G 6G22G18G21G17G26G15
  24792556.4184          0.000    24792555.7294   -1401756.79948  -1092244.73244
  23274157.7284          0.000    23274160.9134  -10818988.21548  -8430373.21345
  23874928.4444          0.000    23874929.0654   -6959342.83048  -5422851.41745
  21209273.9324          0.000    21209273.4954  -21600100.22649 -16831222.02547
  20130077.1504          0.000    20130075.7874  -27631379.20149 -21530918.17047
  24152434.8034          0.000    24152434.7234   -5158494.53748  -4019595.44544
  20541032.7104          0.000    20541033.1814  -21468560.60049 -16728720.66447
  22690096.8864          0.000    22690099.5884  -12763417.25549  -9945505.96846
  4  3  1  0  1 30.0000000  0  8G10G 6G22G18G21G17G26G15
  24812026.5024          0.000    24812026.1484   -1299445.18448  -1012521.35044
  23293920.9794          0.000    23293924.5594  -10715129.30748  -8349444.26545
  23857144.6754          0.000    23857145.3654   -7052801.90048  -5495676.52045
  21198071.0094          0.000    21198070.3754  -21658971.28649 -16877095.55847
  20126320.9214          0.000    20126319.8194  -27651116.73749 -21546298.03047
  24171898.0554          0.000           0.000    -5056217.06748  -3939898.73644
  20545856.4714          0.000    20545857.1594  -21443209.59849 -16708966.63847
  22671659.0314          0.000    22671661.9624  -12860308.69549 -10021005.82046
  4  3  1  0  2  0.0000000  0  8G10G 6G22G18G21G17G26G15
  24831497.7614          0.000    24831498.9644   -1197121.65448   -932788.58044
  23313723.6744          0.000    23313727.9154  -10611073.83648  -8268362.15246
  23839389.0854          0.000    23839388.9804   -7146105.86748  -5568380.77545
  21186931.6644          0.000    21186930.6494  -21717510.22649 -16922710.29847
  20122653.7374          0.000    20122652.4074  -27670388.89149 -21561315.27347
  24191390.5284          0.000    24191394.8494   -4953775.10848  -3860073.83744
  20550809.4384          0.000    20550810.1074  -21417182.72049 -16688685.94547
  22653254.5904          0.000    22653257.7634  -12957028.36749 -10096371.76146
  4  3  1  0  2 30.0000000  0  8G10G 6G22G18G21G17G26G15
  24850966.3914          0.000    24850962.9524   -1094803.40648   -853059.99544
  23333558.3484          0.000    23333561.2484  -10506840.22348  -8187141.23246
  23821660.3204          0.000    23821660.5114   -7239269.73548  -5640975.90845
  21175852.6444          0.000    21175852.1344  -21775732.54349 -16968078.31747
  20119072.1294          0.000    20119070.9744  -27689210.79049 -21575981.69547
  24210913.5774          0.000    24210919.1494   -4851186.08148  -3780134.28744
  20555887.8064          0.000    20555887.9734  -21390497.57049 -16667892.30847
  22634879.5164          0.000    22634882.5034  -13053590.53249 -10171614.93046
  4  3  1  0  3  0.0000000  0  8G10G 6G22G18G21G17G26G15
  24870439.1944          0.000           0.000     -992481.48548   -773328.47844
  23353428.7644          0.000    23353432.0864  -10402421.30548  -8105775.92145
  23803959.9794          0.000    23803958.6844   -7332282.81048  -5713453.49445
  21164835.2244          0.000    21164834.5254  -21833627.58549 -17013191.31947
  20115578.3474          0.000    20115577.2784  -27707570.23949 -21590287.76147
  24230466.3424          0.000    24230472.7854   -4748440.89548  -3700073.08544
  20561092.5124          0.000    20561092.8784  -21363145.20149 -16646578.76247
  22616536.0344          0.000    22616539.3974  -13149983.38649 -10246726.17746
  4  3  1  0  3 30.0000000  0  8G10G 6G22G18G21G17G26G15
  24889908.8724          0.000           0.000     -890165.93648         0.000
  23373332.0304          0.000    23373335.4454  -10297828.76148  -8024275.31345
  23786287.3064          0.000    23786286.5854   -7425153.17248  -5785819.88445
  21153878.4584          0.000    21153878.0364  -21891203.83749 -17058055.91547
  20112171.1104          0.000    20112170.0044  -27725475.88449 -21604240.22547
  24250044.6304          0.000    24250049.2154   -4645549.76348  -3619898.17444
  20566422.3624          0.000    20566423.0614  -21335136.41949 -16624753.73247
  22598224.0874          0.000    22598226.9594  -13246214.07449 -10321711.05746
  4  3  1  0  4  0.0000000  0  8G10G 6G22G18G21G17G26G15
  24909378.2274          0.000           0.000     -787843.69148   -613870.40144
  23393269.9984          0.000    23393273.5034  -10193051.20648  -7942630.53045
  23768644.2884          0.000    23768642.6064   -7517866.19548  -5858063.65245
  21142985.6354          0.000    21142985.3194  -21948446.46849 -17102660.53647
  20108853.1904          0.000    20108851.8064  -27742912.16649 -21617826.95047
  24269656.3734          0.000    24269661.5354   -4542500.14048  -3539599.78744
  20571879.3244          0.000    20571880.0344  -21306458.75849 -16602407.49747
  22579946.0454          0.000    22579949.2324  -13342266.85249 -10396557.32546
  4  3  1  0  4 30.0000000  0  8G10G 6G22G18G21G17G26G15
  24928850.2324          0.000           0.000     -685518.99948   -534136.83644
  23413242.9094          0.000    23413246.4594  -10088094.46548  -7860846.12845
  23751032.0704          0.000    23751031.2834   -7610423.90249  -5930186.43045
  21132155.8254          0.000    21132155.4654  -22005358.15349 -17147007.27247
  20105623.9234          0.000    20105622.9054  -27759881.02549 -21631049.43547
  24289294.1404          0.000    24289297.8864   -4439295.99048  -3459180.98344
  20577462.9854          0.000    20577463.7114  -21277116.69149 -16579543.54047
  22561700.8704          0.000    22561703.8934  -13438142.62749 -10471265.58646
  4  3  1  0  5  0.0000000  0  8G10G 6G22G18G21G17G26G15
  24948327.3904          0.000    24948328.9524    -583174.42048   -454387.75944
  23433251.5804          0.000    23433257.0214   -9982943.04148  -7778910.02245
  23733452.0964          0.000    23733453.0394   -7702807.24949  -6002173.31745
  21121392.5664          0.000    21121391.9164  -22061919.99549 -17191081.40847
  20102487.7944          0.000    20102486.5904  -27776363.24349 -21643892.71547
  24308966.8364          0.000    24308970.5034   -4335920.49748  -3378628.67144
  20583176.3114          0.000    20583176.8874  -21247093.52649 -16556148.87147
  22543494.0644          0.000    22543496.7354  -13533821.74449 -10545820.65846
  4  3  1  0  5 30.0000000  0  8G10G 6G22G18G21G17G26G15
  24967799.4684          0.000    24967796.3124    -480851.48948   -374655.60944
  23453289.1454          0.000    23453294.5474   -9877640.05648  -7696855.81445
  23715898.1014          0.000    23715897.5694   -7795056.01349  -6074055.36445
  21110687.7294          0.000    21110687.3994  -22118172.27049 -17234914.31747
  20099436.2344          0.000    20099434.7624  -27792398.28649 -21656387.53447
  24328663.7074          0.000    24328668.6224   -4232415.43648  -3297975.36744
  20589011.0244          0.000    20589011.5154  -21216431.42449 -16532256.34247
  22525316.7994          0.000    22525319.5124  -13629342.61249 -10620252.43546
  4  3  1  0  6  0.0000000  0  8G10G 6G22G18G21G17G26G15
  24987267.1684          0.000    24987271.8054    -378532.07148   -294926.18544
  23473361.3574          0.000    23473365.5304   -9772169.04348  -7614670.65845
  23698372.4014          0.000    23698371.7864   -7887149.72249  -6145816.60145
  21100046.2694          0.000    21100045.6604  -22174094.79549 -17278490.27247
  20096473.7954          0.000    20096472.5604  -27807965.46449 -21668517.78847
  24348387.2084          0.000    24348391.1714   -4128762.44048  -3217206.74344
  20594970.9234          0.000    20594971.3054  -21185112.32849 -16507851.85647
  22507173.3664          0.000    22507175.7914  -13724683.60349 -10694544.07946
  4  3  1  0  6 30.0000000  0  8G10G 6G22G18G21G17G26G15
  25006738.4374          0.000           0.000     -276213.79247         0.000
  23493463.5344          0.000    23493467.0734   -9666529.64848  -7532354.30245
  23680877.6464          0.000    23680877.1244   -7979084.57549  -6217454.04045
  21089468.1484          0.000    21089467.4324  -22229683.87449 -17321806.39047
  20093601.2104          0.000    20093600.0234  -27823060.68149 -21680280.30847
  24368139.3934          0.000    24368140.5524   -4024959.74548  -3136321.53444
  20601056.1384          0.000    20601056.7004  -21153135.01949 -16482934.47847
  22489066.7604          0.000    22489068.2804  -13819840.13049 -10768691.96546
  4  3  1  0  7  0.0000000  0  8G10G 6G22G18G21G17G26G15
  25026208.5634          0.000           0.000     -173894.57447         0.000
  23513598.5064          0.000    23513602.6114   -9560721.55648  -7449906.49945
  23663414.4304          0.000    23663414.1974   -8070856.68949  -6288964.65245
  21078953.8584          0.000    21078953.1704  -22284935.78149 -17364859.77647
  20090819.4464          0.000    20090818.1584  -27837679.68249 -21691671.74647
  24387921.5034          0.000           0.000    -3921005.48148  -3055318.09444
  20607266.6624          0.000    20607267.3954  -21120497.92249 -16457502.97047
  22470995.1714          0.000    22470997.3264  -13914806.96449 -10842691.98546
  4  3  1  0  7 30.0000000  0  8G10G 6G22G18G21G17G26G15
  25045679.8574          0.000           0.000      -71591.04348         0.000
  23533761.4584          0.000    23533766.1804   -9454762.52848  -7367341.08445
  23645977.8504          0.000    23645977.7864   -8162480.88349  -6360360.05445
  21068501.2574          0.000    21068500.7484  -22339865.65249 -17407662.22847
  20088125.1834          0.000    20088123.9934  -27851837.13249 -21702703.53147
  24407728.9354          0.000           0.000    -3816916.25248         0.000
  20613599.8314          0.000    20613600.3144  -21087218.34249 -16431570.80347
  22452956.8004          0.000    22452959.0844  -14009597.75149 -10916554.83246
  4  3  1  0  8  0.0000000  0  8G10G 6G22G18G21G17G26G15
  25065146.2924          0.000           0.000       30715.98748         0.000
  23553958.1774          0.000    23553962.2614   -9348635.61448  -7284644.84845
  23628574.8674          0.000    23628575.3034   -8253936.18549  -6431623.83645
  21058113.3374          0.000    21058112.7444  -22394453.13949 -17450197.88247
  20085523.2834          0.000    20085521.8414  -27865511.50949 -21713358.92047
  24427566.2084          0.000           0.000    -3712673.61348  -2892981.49144
  20620058.0964          0.000    20620058.4474  -21053278.00849 -16405123.76047
  22434956.2604          0.000    22434957.9824  -14104190.67349 -10990263.56246
  4  3  1  0  8 30.0000000  0  8G10G 6G22G18G21G17G26G15
  25084611.1204          0.000           0.000      133014.12647         0.000
  23574182.3424          0.000    23574186.0464   -9242354.61748  -7201828.54145
  23611201.6294          0.000    23611201.6224   -8345233.05949  -6502764.15245
  21047789.1284          0.000    21047788.3794  -22448708.51849 -17492474.76047
  20083010.9744          0.000    20083009.7184  -27878713.21649 -21723645.93147
  24447428.1434          0.000           0.000    -3608289.92648  -2811643.55244
  20626640.1464          0.000    20626640.3324  -21018689.76849 -16378171.85247
  22416991.2914          0.000    22416993.5344  -14198594.81349 -11063825.14046
  4  3  1  0  9  0.0000000  0  8G10G 6G22G18G21G17G26G15
  25104075.2894          0.000           0.000      235293.38347         0.000
  23594433.0824          0.000    23594437.5114   -9135931.83148  -7118901.76345
  23593856.8144          0.000    23593854.9744   -8436379.81349  -6573787.51145
  21037525.8704          0.000    21037525.0914  -22502640.24149 -17534499.45347
  20080587.2414          0.000    20080586.0054  -27891450.50549 -21733571.13747
  24467320.2274          0.000           0.000    -3503775.22948  -2730203.49044
  20633343.2104          0.000    20633343.6214  -20983464.34149 -16350723.40047
  22399061.6294          0.000    22399063.4874  -14292817.32149 -11137245.14046
  4  3  1  0  9 30.0000000  0  8G10G 6G22G18G21G17G26G15
  25123537.0074          0.000           0.000      337567.16747         0.000
  23614714.2004          0.000    23614718.2944   -9029354.76348  -7035854.76345
  23576543.4054          0.000    23576542.1424   -8527361.01449  -6644681.88545
  21027327.7274          0.000    21027326.8424  -22556233.51849 -17576260.43347
  20078254.6464          0.000    20078253.4314  -27903707.51849 -21743122.05447
  24487236.3954          0.000           0.000    -3399116.48648         0.000
  20640170.0114          0.000    20640170.0864  -20947589.26849 -16322768.71947
  22381169.7314          0.000    22381171.5684  -14386841.73049 -11210510.73846
  4  3  1  0 10  0.0000000  0  8G10G 6G22G18G21G17G26G15
  25143003.2134          0.000           0.000      439843.20348         0.000
  23635025.5304          0.000    23635029.6084   -8922618.35148  -6952683.58045
  23559262.8604          0.000    23559263.8084   -8618167.16548  -6715439.85745
  21017194.7284          0.000    21017193.9444  -22609479.18749 -17617750.56147
  20076015.5154          0.000    20076014.0594  -27915474.85049 -21752291.36947
  24507177.4104          0.000           0.000    -3294306.42847         0.000
  20647121.8504          0.000    20647122.1484  -20911057.62949 -16294302.42647
  22363317.8174          0.000    22363319.2044  -14480657.67249 -11283613.94846
  4  3  1  0 10 30.0000000  0  8G10G 6G22G18G21G17G26G15
  25162460.8824          0.000    25162459.6294     542101.66048    422450.53844
  23655363.3184          0.000    23655365.7914   -8815743.57148  -6869404.57345
  23542012.8484          0.000    23542013.4804   -8708816.84349  -6786075.88545
  21007125.1474          0.000    21007124.3514  -22662395.76749 -17658984.25847
  20073865.9774          0.000    20073864.7754  -27926770.63749 -21761093.28447
  24527148.6944          0.000           0.000    -3189365.33947         0.000
  20654194.1624          0.000    20654194.6124  -20873890.37649 -16265340.85247
  22345501.2204          0.000    22345502.9074  -14574282.13949 -11356567.92646
  4  3  1  0 11  0.0000000  0  8G10G 6G22G18G21G17G26G15
  25181915.2404          0.000           0.000      644335.85848         0.000
  23675725.6824          0.000    23675729.1254   -8708739.41548  -6786024.76845
  23524792.1134          0.000    23524790.9564   -8799314.71949  -6856593.64445
  20997117.2034          0.000    20997116.5194  -22714988.62349 -17699965.69747
  20071805.4064          0.000    20071804.4344  -27937599.43849 -21769531.35247
  24547142.4974          0.000           0.000    -3084300.16448         0.000
  20661386.2884          0.000    20661386.7594  -20836095.03649 -16235889.83347
  22327720.0994          0.000    22327722.1294  -14667718.91349 -11429375.68446
  4  3  1  0 11 30.0000000  0  8G10G 6G22G18G21G17G26G15
  25201369.3144          0.000           0.000      746571.44948         0.000
  23696117.8524          0.000    23696120.6754   -8601581.83248  -6702525.41745
  23507605.1794          0.000    23507604.5894   -8889633.45049  -6926971.81845
  20987176.1774          0.000    20987175.5094  -22767230.66449 -17740673.76947
  20069838.7494          0.000    20069837.5994  -27947933.22949 -21777583.67447
  24567164.0874          0.000           0.000    -2979085.52448         0.000
  20668702.6114          0.000    20668703.2454  -20797646.71749 -16205929.99047
  22309979.9644          0.000    22309982.2924  -14760939.76249 -11502015.30946
  4  3  1  0 12  0.0000000  0  8G10G 6G22G18G21G17G26G15
  25220820.4294          0.000           0.000      848789.61948         0.000
  23716534.6694          0.000    23716537.6214   -8494291.57448  -6618922.69845
  23490448.5954          0.000    23490447.8104   -8979790.21649  -6997223.78245
  20977298.1714          0.000    20977297.5184  -22819139.19749 -17781121.96647
  20067963.3504          0.000    20067962.1474  -27957789.57949 -21785263.96147
  24587209.6204          0.000           0.000    -2873740.77348         0.000
  20676139.6184          0.000    20676140.0744  -20758565.52349 -16175476.98747
  22292279.1454          0.000    22292281.4954  -14853960.25549 -11574498.76846
  4  3  1  0 12 30.0000000  0  8G10G 6G22G18G21G17G26G15
  25240270.1494          0.000           0.000      950991.71048         0.000
  23736976.9304          0.000    23736978.7264   -8386869.14748  -6535216.95645
  23473324.6144          0.000    23473322.4224   -9069781.87349  -7067347.10945
  20967484.3834          0.000    20967483.4534  -22870711.55449 -17821308.20347
  20066179.2124          0.000    20066177.8694  -27967164.92649 -21792569.43447
  24607280.1304          0.000           0.000    -2768264.63047         0.000
  20683696.8994          0.000    20683697.2754  -20718850.81449 -16144530.31247
  22274616.9324          0.000    22274619.6504  -14946776.49449 -11646823.13246
  4  3  1  0 13  0.0000000  0  8G10G 6G22G18G21G17G26G15
  25259713.4794          0.000           0.000     1053170.10848    820685.79344
  23757442.7164          0.000    23757444.4304   -8279323.78448  -6451415.43545
  23456229.7794          0.000    23456229.4504   -9159614.14949  -7137346.21746
  20957733.4714          0.000    20957732.5524  -22921953.60249 -17861237.05147
  20064485.6714          0.000    20064484.2954  -27976065.00349 -21799504.56247
  24627376.9664          0.000           0.000    -2662665.13547         0.000
  20691373.4724          0.000    20691373.2334  -20678511.20049 -16113096.69547
  22256992.6664          0.000    22256994.9454  -15039392.39849 -11718991.31246
  4  3  1  0 13 30.0000000  0  8G10G 6G22G18G21G17G26G15
  25279155.4954          0.000           0.000     1155343.06448    900301.07644
  23777934.8004          0.000    23777937.4654   -8171638.49648  -6367504.87145
  23439168.7274          0.000    23439167.8404   -9249267.18249  -7207205.67046
  20948048.8474          0.000    20948048.2354  -22972845.66249 -17900893.17047
  20062886.1934          0.000    20062885.0944  -27984469.48449 -21806053.50947
  24647499.3774          0.000           0.000    -2556924.01147         0.000
  20699171.5984          0.000    20699171.4734  -20637529.49949 -16081162.77347
  22239410.1664          0.000    22239413.1284  -15131787.09749 -11790987.17046
  4  3  1  0 14  0.0000000  0  8G10G 6G22G18G21G17G26G15
  25298593.4344          0.000           0.000     1257490.94848    979896.83444
  23798448.6384          0.000    23798452.6594   -8063834.88448  -6283502.09245
  23422140.2814          0.000    23422139.3644   -9338758.81149  -7276939.34846
  20938427.4234          0.000    20938426.6684  -23023406.03449 -17940290.81947
  20061377.7854          0.000    20061376.4854  -27992396.33249 -21812230.26847
  24667644.9534          0.000           0.000    -2451061.50947         0.000
  20707088.0614          0.000    20707088.2914  -20595926.54249 -16048744.74147
  22221867.0084          0.000    22221869.2594  -15223977.47649 -11862823.80846
  4  3  1  0 14 30.0000000  0  8G10G 6G22G18G21G17G26G15
  25318029.0394          0.000           0.000     1359621.44448   1059479.05844
  23818986.2324          0.000    23818990.0314   -7955907.41748  -6199402.82545
  23405142.7824          0.000    23405142.3144   -9428079.84649  -7346540.07646
  20928870.9144          0.000    20928870.2254  -23073625.71149 -17979422.98947
  20059961.9214          0.000    20059960.7724  -27999836.13849 -21818027.50447
  24687811.3804          0.000           0.000    -2345070.69047         0.000
  20715124.8224          0.000    20715124.7724  -20553695.67249 -16015837.37347
  22204364.4204          0.000    22204366.6674  -15315953.07849 -11934493.16646
  4  3  1  0 15  0.0000000  0  8G10G 6G22G18G21G17G26G15
  25337458.8944          0.000           0.000     1461730.71848   1139044.73944
  23839547.0074          0.000    23839549.3784   -7847861.95948  -6115211.61445
  23388176.1764          0.000    23388176.0994   -9517232.27249  -7416009.42146
  20919378.6984          0.000    20919377.9754  -23123507.41049 -18018291.81547
  20058638.5224          0.000    20058637.3324  -28006790.94649 -21823446.83647
  24708005.6004          0.000           0.000    -2238955.47648         0.000
  20723279.4604          0.000    20723279.5484  -20510841.88249 -15982444.62947
  22186903.2544          0.000    22186905.5574  -15407714.28949 -12005995.38446
  4  3  1  0 15 30.0000000  0  8G10G 6G22G18G21G17G26G15
  25356888.3174          0.000           0.000     1563825.59948         0.000
  23860130.7424          0.000    23860133.8534   -7739693.86148  -6030924.82245
  23371245.5394          0.000    23371244.3974   -9606207.62549  -7485340.77346
  20909952.3854          0.000    20909951.6814  -23173042.51549 -18056890.58747
  20057409.2824          0.000    20057407.9594  -28013252.08949 -21828481.51047
  24728222.2824          0.000           0.000    -2132709.47948         0.000
  20731553.4004          0.000    20731553.5444  -20467359.54649 -15948562.12247
  22169483.9474          0.000    22169486.4964  -15499251.66549 -12077323.23446
  4  3  1  0 16  0.0000000  0  8G10G 6G22G18G21G17G26G15
  25376311.8854          0.000           0.000     1665889.50548         0.000
  23880734.8894          0.000    23880736.1224   -7631421.19048  -5946556.55945
  23354345.0264          0.000    23354344.1924   -9695020.84949  -7554545.79946
  20900589.5444          0.000    20900588.7024  -23222246.68049 -18095231.48947
  20056270.5824          0.000    20056269.4394  -28019234.53549 -21833143.18647
  24748461.4804          0.000           0.000    -2026349.72947         0.000
  20739943.6544          0.000    20739943.7944  -20423266.16249 -15914203.33747
  22152105.2174          0.000    22152107.1364  -15590578.91949 -12148487.30446
  4  3  1  0 16 30.0000000  0  6G 6G22G18G21G26G15
  23901361.3314          0.000    23901363.1114   -7523024.17948  -5862091.38845
  23337478.7674          0.000    23337478.0724   -9783649.31449  -7623606.85746
  20891293.0934          0.000    20891292.4924  -23271097.04749 -18133296.71847
  20055227.6264          0.000    20055226.4004  -28024715.19249 -21837413.85347
  20748454.0444          0.000    20748454.2924  -20378542.05249 -15879353.11147
  22134771.0624          0.000    22134773.8904  -15681671.99549 -12219468.86146
  4  3  1  0 17  0.0000000  0  8G 9G 6G22G18G21G 3G26G15
  24794146.0294          0.000           0.000          -0.08958         0.000
  23922010.9174          0.000    23922012.6784   -7414513.45948  -5777537.63245
  23320647.6584          0.000    23320647.1624   -9872100.15249  -7692529.50246
  20882062.9044          0.000    20882062.5424  -23319601.40749 -18171092.32947
  20054279.0604          0.000    20054277.8724  -28029701.15249 -21841299.01447
  23604566.9674          0.000    23604569.2534          0.01358        -0.38155
  20757082.8214          0.000    20757082.8694  -20333197.45249 -15844019.51647
  22117480.0144          0.000    22117481.5364  -15772536.46749 -12290272.18046
  4  3  1  0 17 30.0000000  0  8G 9G 6G22G18G21G 3G26G15
  24773539.2784          0.000           0.000     -108289.29348         0.000
  23942676.8794          0.000    23942680.0364   -7305911.71048  -5692912.93445
  23303846.8244          0.000    23303845.3894   -9960392.70249  -7761328.80446
  20872895.2114          0.000    20872894.7594  -23367779.57049 -18208633.75847
  20053420.6064          0.000    20053419.4514  -28034211.52449 -21844813.59447
  23592694.8874          0.000    23592695.9044     -62383.30448    -48610.89345
  20765825.7714          0.000    20765825.4444  -20287254.67149 -15808219.91547
  22100228.9894          0.000    22100230.4304  -15863191.27049 -12360912.35546
  4  3  1  0 18  0.0000000  0  8G 9G 6G22G18G21G 3G26G15
  24752938.6704          0.000           0.000     -216537.09248         0.000
  23963362.7354          0.000    23963365.8394   -7197202.64448  -5608204.59245
  23287078.9384          0.000    23287078.1754  -10048506.21449  -7829988.61546
  20863793.4824          0.000    20863792.6554  -23415610.73549 -18245904.79647
  20052656.8024          0.000    20052655.5144  -28038225.85849 -21847941.64147
  23580913.1474          0.000    23580914.9124    -124291.24348    -96851.10045
  20774685.4804          0.000    20774685.1674  -20240695.53249 -15771939.95047
  22083022.0464          0.000    22083023.7464  -15953613.92949 -12431371.66246
  4  3  1  0 18 30.0000000  0  8G 9G 6G22G18G21G 3G26G15
  24732347.6584          0.000           0.000     -324743.11948   -253045.98944
  23984068.2914          0.000    23984070.8984   -7088391.67348  -5523416.84445
  23270344.7974          0.000    23270344.3984  -10136442.85049  -7898510.57846
  20854756.9174          0.000    20854755.9064  -23463097.51949 -18282907.46847
  20051987.0364          0.000    20051985.6454  -28041745.90849 -21850684.53247
  23569223.4974          0.000    23569227.3674    -185722.56448   -144719.34745
  20783661.5264          0.000    20783661.1584  -20193525.33549 -15735183.78547
  22065859.4184          0.000    22065861.8414  -16043805.48849 -12501650.87646
  4  3  1  0 19  0.0000000  0  8G 9G 6G22G18G21G 3G26G15
  24711766.1674          0.000           0.000     -432904.17248         0.000
  24004793.7284          0.000    24004796.1374   -6979481.17248  -5438551.53445
  23253644.1584          0.000    23253643.8304  -10224201.67249  -7966894.00546
  20845785.6664          0.000    20845785.0674  -23510239.35749 -18319641.36147
  20051411.5054          0.000    20051410.1044  -28044770.68749 -21853041.47947
  23557625.6594          0.000    23557628.9444    -246676.37249   -192215.44445
  20792753.3674          0.000    20792753.3194  -20145745.92849 -15697952.90847
  22048740.4014          0.000    22048743.2434  -16133763.52549 -12571748.14946
  4  3  1  0 19 30.0000000  0  8G 9G 6G22G18G21G 3G26G15
  24691190.0644          0.000           0.000     -541019.95647         0.000
  24025537.8214          0.000    24025540.6294   -6870476.86448  -5353613.13545
  23236977.5274          0.000    23236977.5484  -10311785.01549  -8035140.71346
  20836880.2954          0.000    20836879.7614  -23557038.86549 -18356108.52847
  20050929.4924          0.000    20050928.2184  -28047303.03549 -21855014.71647
  23546116.7974          0.000    23546118.3604    -307154.90049   -239341.54345
  20801960.5484          0.000    20801960.2924  -20097363.25249 -15660252.13047
  22031666.2214          0.000    22031668.8624  -16223488.99649 -12641664.14746
  4  3  1  0 20  0.0000000  0  8G 9G 6G22G18G21G 3G26G15
  24670632.0234          0.000           0.000     -649069.37148         0.000
  24046301.7934          0.000    24046304.1354   -6761363.68848  -5268589.91545
  23220346.9914          0.000    23220347.2494  -10399174.20949  -8103236.13746
  20828043.3114          0.000    20828042.5034  -23603477.95649 -18392294.86147
  20050544.8454          0.000    20050543.6724  -28049323.84949 -21856589.37247
  23534701.9454          0.000    23534703.1204    -367137.13548   -286080.91945
  20811285.1664          0.000    20811284.9774  -20048361.20449 -15622068.77547
  22014640.6394          0.000    22014642.6274  -16312961.99449 -12711383.31646
  4  3  1  0 20 30.0000000  0  8G 9G 6G22G18G21G 3G26G15
  24650073.0604          0.000           0.000     -757092.66747   -589941.62244
  24067076.1154          0.000    24067080.0064   -6652187.82948  -5183517.81745
  23203746.4074          0.000    23203746.0804  -10486412.04749  -8171213.61146
  20819266.9834          0.000    20819266.1034  -23649599.24649 -18428233.54647
  20050249.4834          0.000    20050248.1384  -28050875.83649 -21857798.71147
  23523373.9754          0.000    23523376.0724    -426665.23148   -332466.50445
  20820719.0944          0.000    20820718.7024  -19998785.07149 -15583437.92647
  21997654.1734          0.000    21997656.7154  -16402224.06349 -12780938.14546
  4  3  1  0 21  0.0000000  0  8G 9G 6G22G18G21G 3G26G15
  24629529.1764          0.000           0.000     -865050.49348   -674064.57644
  24087869.2774          0.000    24087873.5144   -6542915.34548  -5098370.45245
  23187182.8044          0.000    23187181.0104  -10573461.49549  -8239044.30946
  20810557.5864          0.000    20810556.8134  -23695366.19749 -18463896.10247
  20050050.7034          0.000    20050049.2794  -28051921.91949 -21858613.81847
  23512140.4434          0.000    23512143.7294    -485700.31248   -378467.73645
  20830268.6144          0.000    20830268.2384  -19948601.13549 -15544333.39947
  21980715.6784          0.000    21980717.8414  -16491236.87449 -12850298.74146
  4  3  1  0 21 30.0000000  0  8G 9G 6G22G18G21G 3G26G15
  24609001.7124          0.000    24609005.1614    -972933.68448   -758129.39544
  24108682.0804          0.000    24108685.6154   -6433543.75348  -5013145.83345
  23170655.1034          0.000    23170653.3324  -10660315.98549  -8306723.08046
  20801917.1554          0.000    20801916.1924  -23740772.77349 -18499277.87447
  20049948.7484          0.000    20049947.7054  -28052455.63449 -21859029.67847
  23501000.5954          0.000    23501004.3304    -544234.64348   -424078.66045
  20839934.5934          0.000    20839934.1354  -19897806.09049 -15504752.69147
  21963825.8484          0.000    21963828.7464  -16579992.29149 -12919458.71946
  4  3  1  0 22  0.0000000  0  8G 9G 6G22G18G21G 3G26G15
  24588484.6974          0.000    24588490.4394   -1080754.87748   -842145.88944
  24129510.2024          0.000    24129513.7214   -6324091.45748  -4927858.35645
  23154161.2354          0.000    23154160.5644  -10746990.55349  -8374261.65746
  20793342.2504          0.000    20793341.5574  -23785834.12949 -18534390.64547
  20049941.9384          0.000    20049940.6164  -28052492.11349 -21859058.08947
  23489953.6524          0.000    23489956.6964    -602282.55848   -469310.64945
  20849713.4724          0.000    20849713.0014  -19846417.72449 -15464709.64147
  21946982.7284          0.000    21946985.4874  -16668503.99949 -12988428.73346
  4  3  1  0 22 30.0000000  0  8G 9G 6G22G18G21G 3G26G15
  24567976.8184          0.000    24567974.3684   -1188521.79848   -926120.01544
  24150350.0254          0.000    24150353.5314   -6214572.00148  -4842518.54845
  23137699.4044          0.000    23137699.4344  -10833495.31249  -8441667.92746
  20784831.1214          0.000    20784830.3024  -23830561.06649 -18569242.80247
  20050027.6794          0.000    20050026.3794  -28052041.53849 -21858706.96947
  23478999.3904          0.000    23479001.8464    -659853.70648   -514171.25445
  20859602.3584          0.000    20859602.2334  -19794449.68049 -15424214.91147
  21930184.3424          0.000    21930186.4984  -16756781.01249 -13057215.80546
  4  3  1  0 23  0.0000000  0  8G 9G 6G22G18G21G 3G26G15
  24547486.5604          0.000    24547485.4924   -1296203.31648  -1010027.64244
  24171208.4834          0.000    24171215.4704   -6104960.08348  -4757106.71145
  23121274.9084          0.000    23121275.0014  -10919801.67049  -8508919.61746
  20776388.9694          0.000    20776387.9574  -23874925.40549 -18603812.41647
  20050211.4494          0.000    20050210.3444  -28051075.42749 -21857954.13847
  23468140.2864          0.000    23468143.1324    -716917.46248   -558636.36945
  20869606.6484          0.000    20869606.5634  -19741876.47749 -15383248.70247
  21913436.0924          0.000    21913437.8254  -16844793.66149 -13125796.94946
  4  3  1  0 23 30.0000000  0  8G 9G 6G22G18G21G 3G26G15
  24527005.3774          0.000    24527006.3844   -1403814.38248  -1093880.38044
  24192080.8774          0.000    24192085.7084   -5995276.40348  -4671638.95944
  23104886.8364          0.000    23104886.1584  -11005927.39849  -8576030.54746
  20768012.5004          0.000    20768011.3464  -23918944.67949 -18638113.15247
  20050490.0004          0.000    20050488.7484  -28049611.30049 -21856813.24147
  23457374.0234          0.000    23457378.3244    -773490.63348   -602719.25445
  20879722.3234          0.000    20879721.7964  -19688718.61349 -15341826.94347
  21896734.7784          0.000    21896736.4644  -16932557.83549 -13194184.54646
  4  3  1  0 24  0.0000000  0  8G 9G 6G22G18G21G 3G26G15
  24506541.8654          0.000    24506544.9394   -1511363.63648  -1177684.90744
  24212963.9304          0.000    24212966.2484   -5885536.19948  -4586127.15444
  23088530.1174          0.000    23088528.8284  -11091883.32449  -8643009.17246
  20759699.3104          0.000    20759698.6044  -23962630.14749 -18672153.76547
  20050861.5014          0.000    20050860.2544  -28047660.17249 -21855292.86247
  23446700.9444          0.000    23446703.9104    -829582.88048   -646427.30545
  20889946.4314          0.000    20889945.7684  -19634990.22449 -15299960.63047
  21880079.2744          0.000    21880081.8174  -17020083.23949 -13262386.11646
  4  3  1  0 24 30.0000000  0  8G 9G 6G22G18G21G 3G26G15
  24486089.3714          0.000           0.000    -1618831.61048  -1261426.03844
  24233860.6254          0.000    24233861.8084   -5775725.43148  -4500560.33444
  23072208.4344          0.000    23072206.4014  -11177652.54249  -8709842.30846
  20751452.2524          0.000    20751451.8444  -24005965.76649 -18705921.76847
  20051328.6504          0.000    20051327.4244  -28045205.17649 -21853379.86047
  23436121.6784          0.000    23436124.1994    -885176.57549   -689746.85345
  20900281.9994          0.000    20900280.8784  -19580677.53449 -15257639.01047
  21863472.3834          0.000    21863474.6094  -17107351.71249 -13330387.49146
  4  3  1  0 25  0.0000000  0  8G 9G 6G22G18G21G 3G26G15
  24465657.0614          0.000           0.000    -1726202.69448         0.000
  24254773.1074          0.000    24254776.0284   -5665834.95948  -4414931.43444
  23055925.5034          0.000    23055923.5244  -11263222.33649  -8776520.05746
  20743274.6614          0.000    20743274.1684  -24048938.84349 -18739407.28447
  20051893.9414          0.000    20051892.7194  -28042233.72649 -21851064.43747
  23425639.9944          0.000    23425642.0614    -940257.62849   -732666.88645
  20910730.2284          0.000    20910729.4534  -19525770.81849 -15214854.51747
  21846916.8544          0.000    21846919.2714  -17194349.10049 -13398177.69746
  4  3  1  0 25 30.0000000  0  8G 9G 6G22G18G21G 3G26G15
  24445241.5434          0.000    24445239.9974   -1833503.86848  -1428702.97044
  24275692.7814          0.000    24275699.5904   -5555897.80948  -4329266.16044
  23039674.3264          0.000    23039673.2014  -11348622.00149  -8843065.22446
  20735160.7274          0.000    20735160.1034  -24091578.96849 -18772633.33647
  20052552.2604          0.000    20052550.8444  -28038775.18849 -21848369.46447
  23415249.8204          0.000    23415253.1064    -994854.75649   -775209.90245
  20921285.5374          0.000    20921284.8754  -19470302.75049 -15171632.68847
  21830408.1634          0.000    21830410.1154  -17281103.24649 -13465778.31646
  4  3  1  0 26  0.0000000  0  8G 9G 6G22G18G21G 3G26G15
  24424843.0584          0.000    24424842.3084   -1940699.32148  -1512231.80044
  24296627.4584          0.000    24296631.6304   -5445883.41448  -4243540.69744
  23023462.1234          0.000    23023461.0214  -11433818.17349  -8909451.82146
  20727116.1184          0.000    20727115.4154  -24133853.41049 -18805574.43747
  20053309.3154          0.000    20053308.0924  -28034796.10449 -21845268.87247
  23404958.6344          0.000    23404961.6214   -1048933.28249   -817348.83546
  20931953.3824          0.000    20931952.7504  -19414243.01049 -15127949.82347
  21813952.9094          0.000    21813954.4104  -17367579.59449 -13533162.47546
  4  3  1  0 26 30.0000000  0  8G 9G 6G22G18G21G 3G26G15
  24404459.8214          0.000    24404463.5204   -2047801.01148  -1595687.55244
  24317573.9114          0.000    24317576.5454   -5335809.81348  -4157769.14044
  23007284.9284          0.000    23007284.0374  -11518825.40449  -8975691.20046
  20719138.3874          0.000    20719137.5844  -24175777.04549 -18838242.18047
  20054162.8794          0.000    20054161.3914  -28030311.59749 -21841774.43547
  23394764.6024          0.000    23394766.4474   -1102507.17249   -859094.55846
  20942730.2924          0.000    20942729.4824  -19357609.41349 -15083819.78547
  21797547.2104          0.000    21797549.1934  -17453790.92349 -13600340.13846
  4  3  1  0 27  0.0000000  0  8G 9G 6G22G18G21G 3G26G15
  24384096.2344          0.000    24384099.5614   -2154813.78648  -1679074.01644
  24338529.2314          0.000    24338536.6174   -5225688.25248  -4071960.14844
  22991143.5404          0.000    22991141.8104  -11603650.95849  -9041788.98946
  20711225.8744          0.000    20711225.3264  -24217357.17149 -18870642.27947
  20055110.9414          0.000    20055109.6394  -28025328.77549 -21837891.71547
  23384664.4844          0.000    23384667.9974   -1155582.62349   -900451.92946
  20953614.4884          0.000    20953613.6624  -19300412.49049 -15039250.76547
  21781190.6954          0.000    21781193.2104  -17539743.21149 -13667315.92446
  4  3  1  0 27 30.0000000  0  8G 9G 6G22G18G21G 3G26G15
  24363751.4234          0.000    24363755.9144   -2261730.05948  -1762385.31844
  24359494.7884          0.000    24359498.1274   -5115516.96148  -3986112.40944
  22975037.5344          0.000    22975035.6004  -11688290.19349  -9107741.61346
  20703379.6114          0.000    20703379.1514  -24258589.96349 -18902771.75547
  20056154.7994          0.000    20056153.6944  -28019842.91949 -21833617.01347
  23374658.2474          0.000    23374661.9144   -1208153.21048   -941415.82545
  20964606.6244          0.000    20964605.4524  -19242650.51549 -14994241.44547
  21764885.0614          0.000    21764887.6754  -17625430.24049 -13734084.99846
  4  3  1  0 28  0.0000000  0  8G 9G 6G22G18G21G 3G26G15
  24343425.1074          0.000    24343428.5634   -2368542.69348  -1845615.88744
  24380469.5314          0.000    24380469.5394   -5005294.95348  -3900225.18944
  22958967.5554          0.000    22958965.7504  -11772738.48249  -9173545.44046
  20695600.0574          0.000    20695599.4624  -24299470.89749 -18934627.02747
  20057295.4574          0.000    20057293.9764  -28013849.81249 -21828947.05047
  23364752.6614          0.000    23364755.8994   -1260213.81048   -981982.30545
  20975705.9964          0.000    20975705.1774  -19184322.15649 -14948790.76447
  21748630.9414          0.000    21748633.6564  -17710846.32649 -13800642.93746
  4  3  1  0 28 30.0000000  0  8G 9G 6G22G18G21G 3G26G15
  24323120.0494          0.000    24323117.4924   -2475244.34248  -1928759.90844
  24401454.6424          0.000    24401455.7004   -4895020.82348  -3814297.31344
  22942934.6334          0.000    22942933.3644  -11856990.73949  -9239196.51746
  20687888.6814          0.000    20687888.0874  -24339995.17249 -18966204.32047
  20058533.1194          0.000    20058531.5684  -28007344.92749 -21823878.29847
  23354944.4244          0.000    23354946.5664   -1311759.12849  -1022147.41945
  20986913.8554          0.000    20986912.6514  -19125426.02149 -14902897.68747
  21732429.7044          0.000    21732431.8424  -17795985.08249 -13866984.76746
  4  3  1  0 29  0.0000000  0  8G 9G 6G22G18G21G 3G26G15
  24302836.6174          0.000    24302838.0724   -2581839.12148  -2011820.66844
  24422445.5964          0.000    24422446.6574   -4784704.73948  -3728336.75544
  22926936.9944          0.000    22926936.6794  -11941053.89049  -9304700.22846
  20680243.5374          0.000    20680242.9484  -24380170.19749 -18997509.46847
  20059866.8984          0.000    20059865.8414  -28000334.59349 -21818415.69147
  23345232.8074          0.000    23345234.5204   -1362794.42349  -1061915.13445
  20998227.4294          0.000    20998226.7434  -19065971.73549 -14856569.67747
  21716280.3214          0.000    21716282.4084  -17880851.70049 -13933114.53146
  4  3  1  0 29 30.0000000  0  8G 9G 6G22G18G21G 3G26G15
  24282569.1194          0.000    24282572.9544   -2688337.39848  -2094806.25344
  24443444.0174          0.000    24443445.2494   -4674362.12248  -3642355.47944
  22910974.0284          0.000    22910973.6234  -12024940.96249  -9370066.72746
  20672662.5354          0.000    20672661.6664  -24420009.24649 -19028552.85847
  20061294.9424          0.000    20061293.4874  -27992832.30149 -21812569.74247
  23335615.2284          0.000    23335617.8324   -1413331.76648  -1101294.81745
  21009643.8054          0.000    21009643.7134  -19005975.74349 -14809819.53547
  21700180.0924          0.000    21700182.1184  -17965457.57249 -13999041.11446
  4  3  1  0 30  0.0000000  0  8G 9G 6G22G18G21G 3G26G15
  24262331.0894          0.000    24262335.0414   -2794699.35148  -2177685.59345
  24464453.6124          0.000    24464456.9314   -4563960.13248  -3556327.94244
  22895051.5494          0.000    22895051.1364  -12108614.78849  -9435267.04846
  20665152.1764          0.000    20665151.7264  -24459475.51249 -19059305.78147
  20062822.9454          0.000    20062821.4684  -27984801.17249 -21806311.71747
  23326100.6254          0.000    23326102.9864   -1463333.47549  -1140257.16245
  21021170.2364          0.000    21021169.7854  -18945404.37149 -14762621.08047
  21684136.6064          0.000    21684138.7044  -18049764.48249 -14064734.75346
  4  3  1  0 30 30.0000000  0  8G 9G 6G22G18G21G 3G26G15
  24242115.8914          0.000    24242117.8214   -2900922.96148  -2260457.13344
  24485472.3814          0.000    24485475.9554   -4453502.70848  -3470257.26644
  22879169.2674          0.000    22879168.9104  -12192075.81549  -9500301.56546
  20657712.5344          0.000    20657711.8474  -24498570.06749 -19089769.06147
  20064451.7244          0.000    20064450.4494  -27976242.06149 -21799642.27647
  23316687.7364          0.000    23316689.7634   -1512799.07149  -1178801.74845
  21032806.0434          0.000    21032805.2974  -18884261.10749 -14714976.98447
  21668151.0334          0.000    21668153.0764  -18133771.39849 -14130194.62346
  4  3  1  0 31  0.0000000  0  8G 9G 6G22G18G21G 3G26G15
  24221918.5144          0.000    24221923.0614   -3007053.01348  -2343155.74344
  24506491.3564          0.000           0.000    -4343040.40648  -3384182.72344
  22863318.5534          0.000    22863318.0554  -12275371.55649  -9565207.27946
  20650334.8474          0.000    20650334.1454  -24537340.85149 -19119980.02447
  20066171.9914          0.000    20066170.5174  -27967202.39749 -21792598.37747
  23307367.5044          0.000    23307370.4034   -1561774.88849  -1216964.71145
  21044539.6544          0.000    21044538.7254  -18822596.98249 -14666926.99747
  21652213.0954          0.000    21652215.3804  -18217524.29449 -14195456.55447
  4  3  1  0 31 30.0000000  0  8G 9G 6G22G18G21G 3G26G15
  24201747.7584          0.000    24201750.2844   -3113055.81348  -2425755.21445
  24527517.7644          0.000           0.000    -4232545.57748         0.000
  22847505.7884          0.000    22847504.6554  -12358471.03849  -9629960.05346
  20643024.8784          0.000    20643024.0234  -24575757.08249 -19149914.69947
  20067989.2224          0.000    20067987.8754  -27957651.48949 -21785156.09847
  23298147.1934          0.000    23298149.4614   -1610229.18949  -1254721.31945
  21056378.5244          0.000    21056377.6874  -18760384.02949 -14618449.31547
  21636330.3354          0.000    21636332.4084  -18300990.65149 -14260495.22147
  4  3  1  0 32  0.0000000  0  8G 9G 6G22G18G21G 3G26G15
  24181602.2334          0.000    24181603.9194   -3218926.79748  -2508251.99945
  24548548.6524          0.000           0.000    -4122019.41948         0.000
  22831730.2594          0.000    22831728.7724  -12441372.32749  -9694558.38646
  20635781.9424          0.000    20635781.1804  -24613817.53449 -19179572.16647
  20069904.4774          0.000    20069902.9674  -27947588.14849 -21777314.52647
  23289026.2164          0.000    23289028.6244   -1658159.11449  -1292069.27646
  21068321.5224          0.000    21068320.4974  -18697623.90449 -14569545.28447
  21620502.2134          0.000    21620504.2034  -18384167.20849 -14325308.08347
  4  3  1  0 32 30.0000000  0  8G 9G 6G22G18G21G 3G26G15
  24161484.5784          0.000    24161487.6614   -3324641.37048  -2590626.90645
  24569592.3184          0.000           0.000    -4011443.82048  -3125795.91544
  22815996.7024          0.000    22815995.9214  -12524053.38449  -9758985.11346
  20628611.1104          0.000    20628610.4734  -24651500.28949 -19208935.32047
  20071921.2714          0.000    20071919.9534  -27936989.70249 -21769055.98947
  23280009.5094          0.000    23280011.1794   -1705542.10449  -1328991.08545
  21080372.0834          0.000    21080371.1244  -18634297.91849 -14520200.33747
  21604733.7964          0.000    21604735.6404  -18467030.48949 -14389876.84647
  4  3  1  0 33  0.0000000  0  8G 9G 6G22G18G21G 3G26G15
  24141393.2314          0.000    24141395.1944   -3430220.13348  -2672895.98245
  24590640.3704          0.000           0.000    -3900845.03448  -3039615.08344
  22800299.7244          0.000    22800299.9794  -12606537.42649  -9823258.22946
  20621507.8574          0.000    20621506.9304  -24688829.04449 -19238022.65447
  20074035.4004          0.000    20074034.0664  -27925880.03549 -21760399.10047
  23271092.6434          0.000    23271094.0044   -1752400.11249  -1365503.82745
  21092525.0834          0.000    21092523.7804  -18570432.45949 -14470434.95947
  21589020.8904          0.000    21589023.0544  -18549602.07749 -14454218.33747
  4  3  1  0 33 30.0000000  0  8G 9G 6G22G18G21G 3G26G15
  24121326.6384          0.000    24121328.1664   -3535671.83648  -2755066.03545
  24611689.2694          0.000           0.000    -3790238.18348         0.000
  22784638.9074          0.000    22784638.5364  -12688835.98949  -9887387.06346
  20614469.5334          0.000    20614468.6634  -24725815.30349 -19266843.11147
  20076244.5064          0.000    20076243.0764  -27914271.04149 -21751353.12547
  23262273.6934          0.000    23262275.7254   -1798744.18749  -1401616.10245
  21104777.8434          0.000    21104776.9434  -18506042.57349 -14420260.94347
  21573361.3374          0.000    21573363.6574  -18631891.97549 -14518340.30747
  4  3  1  0 34  0.0000000  0  8G 9G 6G22G18G21G 3G26G15
  24101287.2674          0.000    24101289.6554   -3640981.86148  -2837125.71345
  24632738.3784          0.000           0.000    -3679614.17248         0.000
  22769015.3284          0.000    22769014.7334  -12770937.05649  -9951361.80846
  20607498.4534          0.000    20607497.5534  -24762447.66449 -19295387.78647
  20078550.9064          0.000    20078549.3524  -27902151.05349 -21741908.97747
  23253554.6094          0.000    23253556.7234   -1844561.56849  -1437317.96846
  21117132.2804          0.000    21117131.4524  -18441119.51349 -14369671.47147
  21557758.1664          0.000    21557760.1884  -18713886.96049 -14582232.48147
  4  3  1  0 34 30.0000000  0  8G 9G 6G22G18G21G 3G26G15
  24081276.0644          0.000    24081277.7714   -3746144.67448  -2919070.69645
  24653793.4474          0.000           0.000    -3568973.83148         0.000
  22753430.8254          0.000    22753428.8044  -12852837.59749 -10015180.32046
  20600595.2164          0.000    20600594.5544  -24798723.63249 -19323654.74247
  20080954.7854          0.000    20080953.3544  -27889517.34249 -21732064.52047
  23244936.6314          0.000    23244939.6944   -1889848.27149  -1472606.28246
  21129587.9824          0.000    21129587.1454  -18375663.74749 -14318666.87747
  21542211.8634          0.000    21542213.3504  -18795582.14749 -14645891.03047
  4  3  1  0 35  0.0000000  0  8G 9G 6G22G18G21G 3G26G15
  24061291.3664          0.000    24061294.5694   -3851159.16948  -3000900.06345
  24674849.7324          0.000           0.000    -3458321.60448         0.000
  22737883.2404          0.000    22737881.7424  -12934539.24649 -10078843.86046
  20593759.6624          0.000    20593758.8244  -24834645.44549 -19351645.72447
  20083456.3064          0.000    20083455.1774  -27876371.69149 -21721821.15447
  23236419.8954          0.000    23236422.3154   -1934605.44149  -1507481.99246
  21142144.2564          0.000    21142143.3904  -18309680.20249 -14267250.98547
  21526722.9234          0.000    21526724.8464  -18876978.04349 -14709316.37547
  4  3  1  0 35 30.0000000  0  8G 9G 6G22G18G21G 3G26G15
  24041337.7564          0.000    24041341.0154   -3956015.80248  -3082606.49045
  24695906.7194          0.000           0.000    -3347654.84347         0.000
  22722375.3904          0.000    22722373.5654  -13016035.28849 -10142347.18946
  20586992.3744          0.000    20586991.6344  -24870206.69549 -19379355.76647
  20086056.5744          0.000    20086055.4174  -27862707.87149 -21711174.01647
  23228005.1284          0.000    23228007.0024   -1978825.53949  -1541939.15046
  21154801.7354          0.000    21154800.3804  -18243165.65049 -14215421.32247
  21511292.3174          0.000    21511294.2764  -18958066.32249 -14772502.00347
  4  3  1  0 36  0.0000000  0  8G 9G 6G22G18G21G 3G26G15
  24021415.1334          0.000    24021417.0954   -4060708.44648  -3164185.12845
  24716970.5564          0.000           0.000    -3236972.89247         0.000
  22706906.3894          0.000    22706904.9994  -13097322.53049 -10205687.83246
  20580294.6314          0.000    20580293.8214  -24905404.27349 -19406782.43347
  20088755.8834          0.000    20088754.4874  -27848522.65949 -21700120.59947
  23219693.9124          0.000    23219695.9294   -2022504.21749  -1575974.41246
  21167559.8824          0.000    21167558.7724  -18176120.19849 -14163177.99247
  21495920.8444          0.000    21495923.3124  -19038841.96449 -14835443.99847
  4  3  1  0 36 30.0000000  0  8G 9G 6G22G18G21G 3G26G15
  24001520.7204          0.000    24001523.2424   -4165253.40748  -3245648.69544
  24738031.9324          0.000           0.000    -3126297.91047         0.000
  22691474.7644          0.000    22691472.9804  -13178419.55549 -10268880.24846
  20573662.4654          0.000    20573661.1794  -24940257.51449 -19433940.78347
  20091550.7334          0.000    20091549.2314  -27833835.51149 -21688676.06547
  23211481.1334          0.000    23211483.8984   -2065659.50649  -1609601.78546
  21180414.5264          0.000    21180413.2214  -18108565.73549 -14110537.98647
  21480606.1754          0.000    21480608.5414  -19119322.40649 -14898155.97547
  4  3  1  0 37  0.0000000  0  8G 9G 6G22G18G21G 3G26G15
  23981658.8524          0.000    23981659.6384   -4269629.39848  -3326980.60344
  24759091.9544          0.000           0.000    -3015614.92447         0.000
  22676081.9574          0.000    22676080.3744  -13259307.96949 -10331910.10846
  20567098.8664          0.000    20567097.8104  -24974748.41349 -19460816.80747
  20094444.5914          0.000    20094443.1344  -27818628.60249 -21676826.52047
  23203371.9104          0.000    23203374.0584   -2108272.97849  -1642806.97145
  21193369.4804          0.000    21193368.3424  -18040487.46549 -14057489.80047
  21465351.4514          0.000    21465353.4324  -19199487.81649 -14960622.44447
  4  3  1  0 37 30.0000000  0  8G 9G 6G22G18G21G 3G26G15
  23961829.6814          0.000    23961831.4344   -4373830.88248  -3408176.52844
  24780156.3354          0.000           0.000    -2904924.08047         0.000
  22660729.9394          0.000    22660727.5364  -13339984.94049 -10394775.20746
  20560604.9104          0.000    20560604.0224  -25008874.27449 -19487408.37847
  20097437.7564          0.000    20097436.4614  -27802898.86049 -21664569.57047
  23195367.1574          0.000    23195368.4174   -2150340.78649  -1675586.96645
  21206423.6684          0.000    21206422.8054  -17971886.06749 -14004034.00147
  21450157.0064          0.000    21450158.9194  -19279333.58749 -15022839.78947
  4  3  1  0 38  0.0000000  0  8G 9G 6G22G18G21G 3G26G15
  23942033.3664          0.000    23942035.3854   -4477865.88248  -3489242.74145
  24801219.2064          0.000           0.000    -2794239.45747         0.000
  22645415.5294          0.000    22645414.3474  -13420461.09549 -10457483.83146
  20554178.0874          0.000    20554177.3584  -25042646.41249 -19513724.33547
  20100528.2714          0.000    20100527.0504  -27786657.60749 -21651914.03947
  23187463.6224          0.000    23187465.2144   -2191873.01249  -1707949.68046
  21219575.2454          0.000    21219573.8344  -17902775.73849 -13950181.68847
  21435021.7794          0.000    21435023.9064  -19358869.01749 -15084815.31647
  4  3  1  0 38 30.0000000  0  8G 9G 6G22G18G21G 3G26G15
  23922267.5374          0.000    23922270.3884   -4581735.18148  -3570179.82645
  24822279.9744          0.000           0.000    -2683567.77847         0.000
  22630138.6784          0.000    22630136.9614  -13500740.06049 -10520038.81246
  20547818.1074          0.000    20547817.4904  -25076068.66049 -19539767.66947
  20103715.4884          0.000    20103714.2974  -27769908.92549 -21638863.10547
  23179660.7714          0.000    23179663.7504   -2232872.50149  -1739897.30746
  21232821.5464          0.000    21232820.2374  -17833163.41749 -13895938.23647
  21419945.5874          0.000    21419947.6324  -19438096.09749 -15146550.55947
  4  3  1  0 39  0.0000000  0  8G 9G 6G22G18G21G 3G26G15
  23902535.2204          0.000    23902538.3634   -4685423.14948  -3650975.59945
  24843341.4024          0.000           0.000    -2572900.01548         0.000
  22614901.3654          0.000    22614900.3884  -13580809.06849 -10582430.19046
  20541527.1024          0.000    20541526.4084  -25109128.59349 -19565528.68147
  20107001.6764          0.000    20107000.1664  -27752640.49149 -21625407.16947
  23171962.8174          0.000    23171965.3834   -2273326.10249  -1771419.68946
  21246165.7944          0.000    21246164.2334  -17763039.72049 -13841296.29647
  21404930.2914          0.000    21404932.3764  -19517000.12549 -15208033.93747
  4  3  1  0 39 30.0000000  0  8G 9G 6G22G18G21G 3G26G15
  23882838.9034          0.000    23882840.0974   -4788927.85448  -3731628.58744
  24864397.8554          0.000           0.000    -2462239.22347         0.000
  22599704.2094          0.000    22599703.0714  -13660668.54449 -10644658.28646
  20535304.8274          0.000    20535303.9044  -25141827.63249 -19591008.47047
  20110386.4584          0.000    20110385.0744  -27734853.18649 -21611546.92147
  23164369.4474          0.000    23164371.4094   -2313233.50349  -1802516.46946
  21259606.1994          0.000    21259605.0624  -17692408.61349 -13786258.98647
  21389976.6244          0.000    21389978.3694  -19595580.22349 -15269264.80147
  4  3  1  0 40  0.0000000  0  8G 9G 6G22G18G21G 3G26G15
  23863179.0864          0.000    23863182.4104   -4892244.48948  -3812135.00645
  24885452.7744          0.000           0.000    -2351587.50447         0.000
  22584547.8604          0.000    22584546.3774  -13740316.33849 -10706721.44446
  20529151.6264          0.000    20529150.8464  -25174163.68849 -19616205.39247
  20113870.3984          0.000    20113868.9804  -27716545.17149 -21597280.92247
  23156879.4484          0.000    23156881.8644   -2352592.25349  -1833185.76845
  21273143.2544          0.000    21273141.9934  -17621271.51349 -13730827.41247
  21375085.4784          0.000    21375087.1074  -19673832.97649 -15330240.59347
  4  3  1  0 40 30.0000000  0  8G 9G 6G22G18G21G 3G26G15
  23843551.8684          0.000    23843554.9794   -4995382.66948  -3892502.38345
  24906504.2024          0.000           0.000    -2240959.87447         0.000
  22569430.3804          0.000    22569428.2714  -13819764.98349 -10768629.42146
  20523064.9164          0.000    20523063.8774  -25206149.67849 -19641129.52447
  20117450.8434          0.000    20117449.4054  -27697729.23749 -21582619.14047
  23149492.5374          0.000    23149494.3504   -2391413.68849  -1863436.26346
  21286773.4454          0.000    21286772.0924  -17549644.20449 -13675013.80947
  21360254.5694          0.000    21360255.5444  -19751769.63949 -15390970.20247
