     2.10           OBSERVATION DATA    G (GPS)             RINEX VERSION / TYPE
teqc  2002Mar18     WCDA Operator       20040302 01:05:48UTCPGM / RUN BY / DATE
Solaris 2.7|Ultra 2|cc SC5.0|=+-|*Sparc                     COMMENT
BIT 2 OF LLI FLAGS DATA COLLECTED UNDER A/S CONDITION       COMMENT
dubo  WCDA-ACP   924000   Lac Du Bonnet MAN Canada          MARKER NAME
40137M001                                                   MARKER NUMBER
PGC-WCDA            GEOL. SURV. CANADA                      OBSERVER / AGENCY
386                 ROGUE SNR-8000      3.2.32.11           REC # / TYPE / VERS
98381               AOAD/M_T        SCIS                    ANT # / TYPE
  -417603.5980 -4064529.8010  4881432.1610                  APPROX POSITION XYZ
        0.1000        0.0000        0.0000                  ANTENNA: DELTA H/E/N
     1     1                                                WAVELENGTH FACT L1/2
     5    C1    P1    P2    L1    L2                        # / TYPES OF OBSERV
    30.0000                                                 INTERVAL
STATION INFORMATION EFFECTIVE FROM: 2001/01/23 20:04:00     COMMENT
                                TO: CURRENT DATE (above)    COMMENT
BIT 2 OF LLI FLAGS (+4) DATA COLLECTED UNDER 'AS' CONDITION COMMENT
L1 PHASE CENTRE 0.110m ABOVE ARP                            COMMENT
L2 PHASE CENTRE 0.128m ABOVE ARP                            COMMENT
where ARP is the Antenna Reference Point for HI measurement COMMENT
CONTACT gps@pgc.nrcan.gc.ca FOR ADDITIONAL INFORMATION      COMMENT
 SNR is mapped to RINEX snr flag value [1,4-9]              COMMENT
    SNR:  >=316 >=100 >=31.6 >=10 >=3.2    >0 bad=0         COMMENT
L1 & L2:      9     8     7     6     5     4     1         COMMENT
  2004     3     1     0     0    0.0000000     GPS         TIME OF FIRST OBS
                                                            END OF HEADER
 04  3  1  0  0  0.0000000  0  8G10G 6G22G18G21G17G26G15
  24753622.6964                   24753621.2794   -1606363.01448  -1251678.35744
  23234740.5544                   23234743.6594  -11026127.38448  -8591780.20046
  23910580.8834                   23910581.6944   -6771985.83248  -5276859.18545
  21231864.2374                   21231863.6764  -21481387.16149 -16738718.37047
  20137849.5944                   20137848.4694  -27590534.41649 -21499091.09547
  24113602.2594                   24113605.7824   -5362574.01548  -4178618.45844
  20531766.3754                   20531766.8964  -21517252.22949 -16766662.18947
  22727066.0654                   22727068.5544  -12569150.20049  -9794129.08746
 04  3  1  0  0 30.0000000  0  8G10G 6G22G18G21G17G26G15
  24773089.0144                   24773088.4074   -1504061.07648  -1171962.45244
  23254431.0314                   23254434.4744  -10922653.01648  -8511150.91445
  23892741.8724                   23892742.1464   -6865735.25048  -5349910.56045
  21220538.6434                   21220537.9834  -21540903.33249 -16785094.59347
  20133920.5444                   20133919.2834  -27611182.68149 -21515180.64447
  24133004.6934                   24133005.1824   -5260611.82748  -4099167.35744
  20536335.6684                   20536336.4464  -21493239.85549 -16747951.25047
  22708566.8634                   22708569.6664  -12666361.73449  -9869878.28546
 04  3  1  0  1  0.0000000  0  8G10G 6G22G18G21G17G26G15
  24792556.8774                   24792556.1884   -1401756.79948  -1092244.73244
  23274157.5334                   23274160.7184  -10818988.21548  -8430373.21345
  23874928.2394                   23874928.8604   -6959342.83048  -5422851.41745
  21209273.8904                   21209273.4534  -21600100.22649 -16831222.02547
  20130077.2014                   20130075.8384  -27631379.20149 -21530918.17047
  24152435.0454                   24152434.9654   -5158494.53748  -4019595.44544
  20541032.2984                   20541032.7694  -21468560.60049 -16728720.66447
  22690097.1504                   22690099.8524  -12763417.25549  -9945505.96846
 04  3  1  0  1 30.0000000  0  8G10G 6G22G18G21G17G26G15
  24812026.9614                   24812026.6074   -1299445.18448  -1012521.35044
  23293920.7844                   23293924.3644  -10715129.30748  -8349444.26545
  23857144.4704                   23857145.1604   -7052801.90048  -5495676.52045
  21198070.9674                   21198070.3334  -21658971.28649 -16877095.55847
  20126320.9724                   20126319.8704  -27651116.73749 -21546298.03047
  24171898.2974                                   -5056217.06748  -3939898.73644
  20545856.0594                   20545856.7474  -21443209.59849 -16708966.63847
  22671659.2954                   22671662.2264  -12860308.69549 -10021005.82046
 04  3  1  0  2  0.0000000  0  8G10G 6G22G18G21G17G26G15
  24831498.2204                   24831499.4234   -1197121.65448   -932788.58044
  23313723.4794                   23313727.7204  -10611073.83648  -8268362.15246
  23839388.8804                   23839388.7754   -7146105.86748  -5568380.77545
  21186931.6224                   21186930.6074  -21717510.22649 -16922710.29847
  20122653.7884                   20122652.4584  -27670388.89149 -21561315.27347
  24191390.7704                   24191395.0914   -4953775.10848  -3860073.83744
  20550809.0264                   20550809.6954  -21417182.72049 -16688685.94547
  22653254.8544                   22653258.0274  -12957028.36749 -10096371.76146
 04  3  1  0  2 30.0000000  0  8G10G 6G22G18G21G17G26G15
  24850966.8504                   24850963.4114   -1094803.40648   -853059.99544
  23333558.1534                   23333561.0534  -10506840.22348  -8187141.23246
  23821660.1154                   23821660.3064   -7239269.73548  -5640975.90845
  21175852.6024                   21175852.0924  -21775732.54349 -16968078.31747
  20119072.1804                   20119071.0254  -27689210.79049 -21575981.69547
  24210913.8194                   24210919.3914   -4851186.08148  -3780134.28744
  20555887.3944                   20555887.5614  -21390497.57049 -16667892.30847
  22634879.7804                   22634882.7674  -13053590.53249 -10171614.93046
 04  3  1  0  3  0.0000000  0  8G10G 6G22G18G21G17G26G15
  24870439.6534                                    -992481.48548   -773328.47844
  23353428.5694                   23353431.8914  -10402421.30548  -8105775.92145
  23803959.7744                   23803958.4794   -7332282.81048  -5713453.49445
  21164835.1824                   21164834.4834  -21833627.58549 -17013191.31947
  20115578.3984                   20115577.3294  -27707570.23949 -21590287.76147
  24230466.5844                   24230473.0274   -4748440.89548  -3700073.08544
  20561092.1004                   20561092.4664  -21363145.20149 -16646578.76247
  22616536.2984                   22616539.6614  -13149983.38649 -10246726.17746
 04  3  1  0  3 30.0000000  0  8G10G 6G22G18G21G17G26G15
  24889909.3314                                    -890165.93648
  23373331.8354                   23373335.2504  -10297828.76148  -8024275.31345
  23786287.1014                   23786286.3804   -7425153.17248  -5785819.88445
  21153878.4164                   21153877.9944  -21891203.83749 -17058055.91547
  20112171.1614                   20112170.0554  -27725475.88449 -21604240.22547
  24250044.8724                   24250049.4574   -4645549.76348  -3619898.17444
  20566421.9504                   20566422.6494  -21335136.41949 -16624753.73247
  22598224.3514                   22598227.2234  -13246214.07449 -10321711.05746
 04  3  1  0  4  0.0000000  0  8G10G 6G22G18G21G17G26G15
  24909378.6864                                    -787843.69148   -613870.40144
  23393269.8034                   23393273.3084  -10193051.20648  -7942630.53045
  23768644.0834                   23768642.4014   -7517866.19548  -5858063.65245
  21142985.5934                   21142985.2774  -21948446.46849 -17102660.53647
  20108853.2414                   20108851.8574  -27742912.16649 -21617826.95047
  24269656.6154                   24269661.7774   -4542500.14048  -3539599.78744
  20571878.9124                   20571879.6224  -21306458.75849 -16602407.49747
  22579946.3094                   22579949.4964  -13342266.85249 -10396557.32546
 04  3  1  0  4 30.0000000  0  8G10G 6G22G18G21G17G26G15
  24928850.6914                                    -685518.99948   -534136.83644
  23413242.7144                   23413246.2644  -10088094.46548  -7860846.12845
  23751031.8654                   23751031.0784   -7610423.90249  -5930186.43045
  21132155.7834                   21132155.4234  -22005358.15349 -17147007.27247
  20105623.9744                   20105622.9564  -27759881.02549 -21631049.43547
  24289294.3824                   24289298.1284   -4439295.99048  -3459180.98344
  20577462.5734                   20577463.2994  -21277116.69149 -16579543.54047
  22561701.1344                   22561704.1574  -13438142.62749 -10471265.58646
 04  3  1  0  5  0.0000000  0  8G10G 6G22G18G21G17G26G15
  24948327.8494                   24948329.4114    -583174.42048   -454387.75944
  23433251.3854                   23433256.8264   -9982943.04148  -7778910.02245
  23733451.8914                   23733452.8344   -7702807.24949  -6002173.31745
  21121392.5244                   21121391.8744  -22061919.99549 -17191081.40847
  20102487.8454                   20102486.6414  -27776363.24349 -21643892.71547
  24308967.0784                   24308970.7454   -4335920.49748  -3378628.67144
  20583175.8994                   20583176.4754  -21247093.52649 -16556148.87147
  22543494.3284                   22543496.9994  -13533821.74449 -10545820.65846
 04  3  1  0  5 30.0000000  0  8G10G 6G22G18G21G17G26G15
  24967799.9274                   24967796.7714    -480851.48948   -374655.60944
  23453288.9504                   23453294.3524   -9877640.05648  -7696855.81445
  23715897.8964                   23715897.3644   -7795056.01349  -6074055.36445
  21110687.6874                   21110687.3574  -22118172.27049 -17234914.31747
  20099436.2854                   20099434.8134  -27792398.28649 -21656387.53447
  24328663.9494                   24328668.8644   -4232415.43648  -3297975.36744
  20589010.6124                   20589011.1034  -21216431.42449 -16532256.34247
  22525317.0634                   22525319.7764  -13629342.61249 -10620252.43546
 04  3  1  0  6  0.0000000  0  8G10G 6G22G18G21G17G26G15
  24987267.6274                   24987272.2644    -378532.07148   -294926.18544
  23473361.1624                   23473365.3354   -9772169.04348  -7614670.65845
  23698372.1964                   23698371.5814   -7887149.72249  -6145816.60145
  21100046.2274                   21100045.6184  -22174094.79549 -17278490.27247
  20096473.8464                   20096472.6114  -27807965.46449 -21668517.78847
  24348387.4504                   24348391.4134   -4128762.44048  -3217206.74344
  20594970.5114                   20594970.8934  -21185112.32849 -16507851.85647
  22507173.6304                   22507176.0554  -13724683.60349 -10694544.07946
 04  3  1  0  6 30.0000000  0  8G10G 6G22G18G21G17G26G15
  25006738.8964                                    -276213.79247
  23493463.3394                   23493466.8784   -9666529.64848  -7532354.30245
  23680877.4414                   23680876.9194   -7979084.57549  -6217454.04045
  21089468.1064                   21089467.3904  -22229683.87449 -17321806.39047
  20093601.2614                   20093600.0744  -27823060.68149 -21680280.30847
  24368139.6354                   24368140.7944   -4024959.74548  -3136321.53444
  20601055.7264                   20601056.2884  -21153135.01949 -16482934.47847
  22489067.0244                   22489068.5444  -13819840.13049 -10768691.96546
 04  3  1  0  7  0.0000000  0  8G10G 6G22G18G21G17G26G15
  25026209.0224                                    -173894.57447
  23513598.3114                   23513602.4164   -9560721.55648  -7449906.49945
  23663414.2254                   23663413.9924   -8070856.68949  -6288964.65245
  21078953.8164                   21078953.1284  -22284935.78149 -17364859.77647
  20090819.4974                   20090818.2094  -27837679.68249 -21691671.74647
  24387921.7454                                   -3921005.48148  -3055318.09444
  20607266.2504                   20607266.9834  -21120497.92249 -16457502.97047
  22470995.4354                   22470997.5904  -13914806.96449 -10842691.98546
 04  3  1  0  7 30.0000000  0  8G10G 6G22G18G21G17G26G15
  25045680.3164                                     -71591.04348
  23533761.2634                   23533765.9854   -9454762.52848  -7367341.08445
  23645977.6454                   23645977.5814   -8162480.88349  -6360360.05445
  21068501.2154                   21068500.7064  -22339865.65249 -17407662.22847
  20088125.2344                   20088124.0444  -27851837.13249 -21702703.53147
  24407729.1774                                   -3816916.25248
  20613599.4194                   20613599.9024  -21087218.34249 -16431570.80347
  22452957.0644                   22452959.3484  -14009597.75149 -10916554.83246
 04  3  1  0  8  0.0000000  0  8G10G 6G22G18G21G17G26G15
  25065146.7514                                      30715.98748
  23553957.9824                   23553962.0664   -9348635.61448  -7284644.84845
  23628574.6624                   23628575.0984   -8253936.18549  -6431623.83645
  21058113.2954                   21058112.7024  -22394453.13949 -17450197.88247
  20085523.3344                   20085521.8924  -27865511.50949 -21713358.92047
  24427566.4504                                   -3712673.61348  -2892981.49144
  20620057.6844                   20620058.0354  -21053278.00849 -16405123.76047
  22434956.5244                   22434958.2464  -14104190.67349 -10990263.56246
 04  3  1  0  8 30.0000000  0  8G10G 6G22G18G21G17G26G15
  25084611.5794                                     133014.12647
  23574182.1474                   23574185.8514   -9242354.61748  -7201828.54145
  23611201.4244                   23611201.4174   -8345233.05949  -6502764.15245
  21047789.0864                   21047788.3374  -22448708.51849 -17492474.76047
  20083011.0254                   20083009.7694  -27878713.21649 -21723645.93147
  24447428.3854                                   -3608289.92648  -2811643.55244
  20626639.7344                   20626639.9204  -21018689.76849 -16378171.85247
  22416991.5554                   22416993.7984  -14198594.81349 -11063825.14046
 04  3  1  0  9  0.0000000  0  8G10G 6G22G18G21G17G26G15
  25104075.7484                                     235293.38347
  23594432.8874                   23594437.3164   -9135931.83148  -7118901.76345
  23593856.6094                   23593854.7694   -8436379.81349  -6573787.51145
  21037525.8284                   21037525.0494  -22502640.24149 -17534499.45347
  20080587.2924                   20080586.0564  -27891450.50549 -21733571.13747
  24467320.4694                                   -3503775.22948  -2730203.49044
  20633342.7984                   20633343.2094  -20983464.34149 -16350723.40047
  22399061.8934                   22399063.7514  -14292817.32149 -11137245.14046
 04  3  1  0  9 30.0000000  0  8G10G 6G22G18G21G17G26G15
  25123537.4664                                     337567.16747
  23614714.0054                   23614718.0994   -9029354.76348  -7035854.76345
  23576543.2004                   23576541.9374   -8527361.01449  -6644681.88545
  21027327.6854                   21027326.8004  -22556233.51849 -17576260.43347
  20078254.6974                   20078253.4824  -27903707.51849 -21743122.05447
  24487236.6374                                   -3399116.48648
  20640169.5994                   20640169.6744  -20947589.26849 -16322768.71947
  22381169.9954                   22381171.8324  -14386841.73049 -11210510.73846
 04  3  1  0 10  0.0000000  0  8G10G 6G22G18G21G17G26G15
  25143003.6724                                     439843.20348
  23635025.3354                   23635029.4134   -8922618.35148  -6952683.58045
  23559262.6554                   23559263.6034   -8618167.16548  -6715439.85745
  21017194.6864                   21017193.9024  -22609479.18749 -17617750.56147
  20076015.5664                   20076014.1104  -27915474.85049 -21752291.36947
  24507177.6524                                   -3294306.42847
  20647121.4384                   20647121.7364  -20911057.62949 -16294302.42647
  22363318.0814                   22363319.4684  -14480657.67249 -11283613.94846
 04  3  1  0 10 30.0000000  0  8G10G 6G22G18G21G17G26G15
  25162461.3414                   25162460.0884     542101.66048    422450.53844
  23655363.1234                   23655365.5964   -8815743.57148  -6869404.57345
  23542012.6434                   23542013.2754   -8708816.84349  -6786075.88545
  21007125.1054                   21007124.3094  -22662395.76749 -17658984.25847
  20073866.0284                   20073864.8264  -27926770.63749 -21761093.28447
  24527148.9364                                   -3189365.33947
  20654193.7504                   20654194.2004  -20873890.37649 -16265340.85247
  22345501.4844                   22345503.1714  -14574282.13949 -11356567.92646
 04  3  1  0 11  0.0000000  0  8G10G 6G22G18G21G17G26G15
  25181915.6994                                     644335.85848
  23675725.4874                   23675728.9304   -8708739.41548  -6786024.76845
  23524791.9084                   23524790.7514   -8799314.71949  -6856593.64445
  20997117.1614                   20997116.4774  -22714988.62349 -17699965.69747
  20071805.4574                   20071804.4854  -27937599.43849 -21769531.35247
  24547142.7394                                   -3084300.16448
  20661385.8764                   20661386.3474  -20836095.03649 -16235889.83347
  22327720.3634                   22327722.3934  -14667718.91349 -11429375.68446
 04  3  1  0 11 30.0000000  0  8G10G 6G22G18G21G17G26G15
  25201369.7734                                     746571.44948
  23696117.6574                   23696120.4804   -8601581.83248  -6702525.41745
  23507604.9744                   23507604.3844   -8889633.45049  -6926971.81845
  20987176.1354                   20987175.4674  -22767230.66449 -17740673.76947
  20069838.8004                   20069837.6504  -27947933.22949 -21777583.67447
  24567164.3294                                   -2979085.52448
  20668702.1994                   20668702.8334  -20797646.71749 -16205929.99047
  22309980.2284                   22309982.5564  -14760939.76249 -11502015.30946
 04  3  1  0 12  0.0000000  0  8G10G 6G22G18G21G17G26G15
  25220820.8884                                     848789.61948
  23716534.4744                   23716537.4264   -8494291.57448  -6618922.69845
  23490448.3904                   23490447.6054   -8979790.21649  -6997223.78245
  20977298.1294                   20977297.4764  -22819139.19749 -17781121.96647
  20067963.4014                   20067962.1984  -27957789.57949 -21785263.96147
  24587209.8624                                   -2873740.77348
  20676139.2064                   20676139.6624  -20758565.52349 -16175476.98747
  22292279.4094                   22292281.7594  -14853960.25549 -11574498.76846
 04  3  1  0 12 30.0000000  0  8G10G 6G22G18G21G17G26G15
  25240270.6084                                     950991.71048
  23736976.7354                   23736978.5314   -8386869.14748  -6535216.95645
  23473324.4094                   23473322.2174   -9069781.87349  -7067347.10945
  20967484.3414                   20967483.4114  -22870711.55449 -17821308.20347
  20066179.2634                   20066177.9204  -27967164.92649 -21792569.43447
  24607280.3724                                   -2768264.63047
  20683696.4874                   20683696.8634  -20718850.81449 -16144530.31247
  22274617.1964                   22274619.9144  -14946776.49449 -11646823.13246
 04  3  1  0 13  0.0000000  0  8G10G 6G22G18G21G17G26G15
  25259713.9384                                    1053170.10848    820685.79344
  23757442.5214                   23757444.2354   -8279323.78448  -6451415.43545
  23456229.5744                   23456229.2454   -9159614.14949  -7137346.21746
  20957733.4294                   20957732.5104  -22921953.60249 -17861237.05147
  20064485.7224                   20064484.3464  -27976065.00349 -21799504.56247
  24627377.2084                                   -2662665.13547
  20691373.0604                   20691372.8214  -20678511.20049 -16113096.69547
  22256992.9304                   22256995.2094  -15039392.39849 -11718991.31246
 04  3  1  0 13 30.0000000  0  8G10G 6G22G18G21G17G26G15
  25279155.9544                                    1155343.06448    900301.07644
  23777934.6054                   23777937.2704   -8171638.49648  -6367504.87145
  23439168.5224                   23439167.6354   -9249267.18249  -7207205.67046
  20948048.8054                   20948048.1934  -22972845.66249 -17900893.17047
  20062886.2444                   20062885.1454  -27984469.48449 -21806053.50947
  24647499.6194                                   -2556924.01147
  20699171.1864                   20699171.0614  -20637529.49949 -16081162.77347
  22239410.4304                   22239413.3924  -15131787.09749 -11790987.17046
 04  3  1  0 14  0.0000000  0  8G10G 6G22G18G21G17G26G15
  25298593.8934                                    1257490.94848    979896.83444
  23798448.4434                   23798452.4644   -8063834.88448  -6283502.09245
  23422140.0764                   23422139.1594   -9338758.81149  -7276939.34846
  20938427.3814                   20938426.6264  -23023406.03449 -17940290.81947
  20061377.8364                   20061376.5364  -27992396.33249 -21812230.26847
  24667645.1954                                   -2451061.50947
  20707087.6494                   20707087.8794  -20595926.54249 -16048744.74147
  22221867.2724                   22221869.5234  -15223977.47649 -11862823.80846
 04  3  1  0 14 30.0000000  0  8G10G 6G22G18G21G17G26G15
  25318029.4984                                    1359621.44448   1059479.05844
  23818986.0374                   23818989.8364   -7955907.41748  -6199402.82545
  23405142.5774                   23405142.1094   -9428079.84649  -7346540.07646
  20928870.8724                   20928870.1834  -23073625.71149 -17979422.98947
  20059961.9724                   20059960.8234  -27999836.13849 -21818027.50447
  24687811.6224                                   -2345070.69047
  20715124.4104                   20715124.3604  -20553695.67249 -16015837.37347
  22204364.6844                   22204366.9314  -15315953.07849 -11934493.16646
 04  3  1  0 15  0.0000000  0  8G10G 6G22G18G21G17G26G15
  25337459.3534                                    1461730.71848   1139044.73944
  23839546.8124                   23839549.1834   -7847861.95948  -6115211.61445
  23388175.9714                   23388175.8944   -9517232.27249  -7416009.42146
  20919378.6564                   20919377.9334  -23123507.41049 -18018291.81547
  20058638.5734                   20058637.3834  -28006790.94649 -21823446.83647
  24708005.8424                                   -2238955.47648
  20723279.0484                   20723279.1364  -20510841.88249 -15982444.62947
  22186903.5184                   22186905.8214  -15407714.28949 -12005995.38446
 04  3  1  0 15 30.0000000  0  8G10G 6G22G18G21G17G26G15
  25356888.7764                                    1563825.59948
  23860130.5474                   23860133.6584   -7739693.86148  -6030924.82245
  23371245.3344                   23371244.1924   -9606207.62549  -7485340.77346
  20909952.3434                   20909951.6394  -23173042.51549 -18056890.58747
  20057409.3334                   20057408.0104  -28013252.08949 -21828481.51047
  24728222.5244                                   -2132709.47948
  20731552.9884                   20731553.1324  -20467359.54649 -15948562.12247
  22169484.2114                   22169486.7604  -15499251.66549 -12077323.23446
 04  3  1  0 16  0.0000000  0  8G10G 6G22G18G21G17G26G15
  25376312.3444                                    1665889.50548
  23880734.6944                   23880735.9274   -7631421.19048  -5946556.55945
  23354344.8214                   23354343.9874   -9695020.84949  -7554545.79946
  20900589.5024                   20900588.6604  -23222246.68049 -18095231.48947
  20056270.6334                   20056269.4904  -28019234.53549 -21833143.18647
  24748461.7224                                   -2026349.72947
  20739943.2424                   20739943.3824  -20423266.16249 -15914203.33747
  22152105.4814                   22152107.4004  -15590578.91949 -12148487.30446
 04  3  1  0 16 30.0000000  0  6G 6G22G18G21G26G15
  23901361.1364                   23901362.9164   -7523024.17948  -5862091.38845
  23337478.5624                   23337477.8674   -9783649.31449  -7623606.85746
  20891293.0514                   20891292.4504  -23271097.04749 -18133296.71847
  20055227.6774                   20055226.4514  -28024715.19249 -21837413.85347
  20748453.6324                   20748453.8804  -20378542.05249 -15879353.11147
  22134771.3264                   22134774.1544  -15681671.99549 -12219468.86146
 04  3  1  0 17  0.0000000  0  8G 9G 6G22G18G21G 3G26G15
  24794145.8744                                          -.08958
  23922010.7224                   23922012.4834   -7414513.45948  -5777537.63245
  23320647.4534                   23320646.9574   -9872100.15249  -7692529.50246
  20882062.8624                   20882062.5004  -23319601.40749 -18171092.32947
  20054279.1114                   20054277.9234  -28029701.15249 -21841299.01447
  23604566.9424                   23604569.2284           .01358         -.38155
  20757082.4094                   20757082.4574  -20333197.45249 -15844019.51647
  22117480.2784                   22117481.8004  -15772536.46749 -12290272.18046
 04  3  1  0 17 30.0000000  0  8G 9G 6G22G18G21G 3G26G15
  24773539.1234                                    -108289.29348
  23942676.6844                   23942679.8414   -7305911.71048  -5692912.93445
  23303846.6194                   23303845.1844   -9960392.70249  -7761328.80446
  20872895.1694                   20872894.7174  -23367779.57049 -18208633.75847
  20053420.6574                   20053419.5024  -28034211.52449 -21844813.59447
  23592694.8624                   23592695.8794     -62383.30448    -48610.89345
  20765825.3594                   20765825.0324  -20287254.67149 -15808219.91547
  22100229.2534                   22100230.6944  -15863191.27049 -12360912.35546
 04  3  1  0 18  0.0000000  0  8G 9G 6G22G18G21G 3G26G15
  24752938.5154                                    -216537.09248
  23963362.5404                   23963365.6444   -7197202.64448  -5608204.59245
  23287078.7334                   23287077.9704  -10048506.21449  -7829988.61546
  20863793.4404                   20863792.6134  -23415610.73549 -18245904.79647
  20052656.8534                   20052655.5654  -28038225.85849 -21847941.64147
  23580913.1224                   23580914.8874    -124291.24348    -96851.10045
  20774685.0684                   20774684.7554  -20240695.53249 -15771939.95047
  22083022.3104                   22083024.0104  -15953613.92949 -12431371.66246
 04  3  1  0 18 30.0000000  0  8G 9G 6G22G18G21G 3G26G15
  24732347.5034                                    -324743.11948   -253045.98944
  23984068.0964                   23984070.7034   -7088391.67348  -5523416.84445
  23270344.5924                   23270344.1934  -10136442.85049  -7898510.57846
  20854756.8754                   20854755.8644  -23463097.51949 -18282907.46847
  20051987.0874                   20051985.6964  -28041745.90849 -21850684.53247
  23569223.4724                   23569227.3424    -185722.56448   -144719.34745
  20783661.1144                   20783660.7464  -20193525.33549 -15735183.78547
  22065859.6824                   22065862.1054  -16043805.48849 -12501650.87646
 04  3  1  0 19  0.0000000  0  8G 9G 6G22G18G21G 3G26G15
  24711766.0124                                    -432904.17248
  24004793.5334                   24004795.9424   -6979481.17248  -5438551.53445
  23253643.9534                   23253643.6254  -10224201.67249  -7966894.00546
  20845785.6244                   20845785.0254  -23510239.35749 -18319641.36147
  20051411.5564                   20051410.1554  -28044770.68749 -21853041.47947
  23557625.6344                   23557628.9194    -246676.37249   -192215.44445
  20792752.9554                   20792752.9074  -20145745.92849 -15697952.90847
  22048740.6654                   22048743.5074  -16133763.52549 -12571748.14946
 04  3  1  0 19 30.0000000  0  8G 9G 6G22G18G21G 3G26G15
  24691189.9094                                    -541019.95647
  24025537.6264                   24025540.4344   -6870476.86448  -5353613.13545
  23236977.3224                   23236977.3434  -10311785.01549  -8035140.71346
  20836880.2534                   20836879.7194  -23557038.86549 -18356108.52847
  20050929.5434                   20050928.2694  -28047303.03549 -21855014.71647
  23546116.7724                   23546118.3354    -307154.90049   -239341.54345
  20801960.1364                   20801959.8804  -20097363.25249 -15660252.13047
  22031666.4854                   22031669.1264  -16223488.99649 -12641664.14746
 04  3  1  0 20  0.0000000  0  8G 9G 6G22G18G21G 3G26G15
  24670631.8684                                    -649069.37148
  24046301.5984                   24046303.9404   -6761363.68848  -5268589.91545
  23220346.7864                   23220347.0444  -10399174.20949  -8103236.13746
  20828043.2694                   20828042.4614  -23603477.95649 -18392294.86147
  20050544.8964                   20050543.7234  -28049323.84949 -21856589.37247
  23534701.9204                   23534703.0954    -367137.13548   -286080.91945
  20811284.7544                   20811284.5654  -20048361.20449 -15622068.77547
  22014640.9034                   22014642.8914  -16312961.99449 -12711383.31646
 04  3  1  0 20 30.0000000  0  8G 9G 6G22G18G21G 3G26G15
  24650072.9054                                    -757092.66747   -589941.62244
  24067075.9204                   24067079.8114   -6652187.82948  -5183517.81745
  23203746.2024                   23203745.8754  -10486412.04749  -8171213.61146
  20819266.9414                   20819266.0614  -23649599.24649 -18428233.54647
  20050249.5344                   20050248.1894  -28050875.83649 -21857798.71147
  23523373.9504                   23523376.0474    -426665.23148   -332466.50445
  20820718.6824                   20820718.2904  -19998785.07149 -15583437.92647
  21997654.4374                   21997656.9794  -16402224.06349 -12780938.14546
 04  3  1  0 21  0.0000000  0  8G 9G 6G22G18G21G 3G26G15
  24629529.0214                                    -865050.49348   -674064.57644
  24087869.0824                   24087873.3194   -6542915.34548  -5098370.45245
  23187182.5994                   23187180.8054  -10573461.49549  -8239044.30946
  20810557.5444                   20810556.7714  -23695366.19749 -18463896.10247
  20050050.7544                   20050049.3304  -28051921.91949 -21858613.81847
  23512140.4184                   23512143.7044    -485700.31248   -378467.73645
  20830268.2024                   20830267.8264  -19948601.13549 -15544333.39947
  21980715.9424                   21980718.1054  -16491236.87449 -12850298.74146
 04  3  1  0 21 30.0000000  0  8G 9G 6G22G18G21G 3G26G15
  24609001.5574                   24609005.0064    -972933.68448   -758129.39544
  24108681.8854                   24108685.4204   -6433543.75348  -5013145.83345
  23170654.8984                   23170653.1274  -10660315.98549  -8306723.08046
  20801917.1134                   20801916.1504  -23740772.77349 -18499277.87447
  20049948.7994                   20049947.7564  -28052455.63449 -21859029.67847
  23501000.5704                   23501004.3054    -544234.64348   -424078.66045
  20839934.1814                   20839933.7234  -19897806.09049 -15504752.69147
  21963826.1124                   21963829.0104  -16579992.29149 -12919458.71946
 04  3  1  0 22  0.0000000  0  8G 9G 6G22G18G21G 3G26G15
  24588484.5424                   24588490.2844   -1080754.87748   -842145.88944
  24129510.0074                   24129513.5264   -6324091.45748  -4927858.35645
  23154161.0304                   23154160.3594  -10746990.55349  -8374261.65746
  20793342.2084                   20793341.5154  -23785834.12949 -18534390.64547
  20049941.9894                   20049940.6674  -28052492.11349 -21859058.08947
  23489953.6274                   23489956.6714    -602282.55848   -469310.64945
  20849713.0604                   20849712.5894  -19846417.72449 -15464709.64147
  21946982.9924                   21946985.7514  -16668503.99949 -12988428.73346
 04  3  1  0 22 30.0000000  0  8G 9G 6G22G18G21G 3G26G15
  24567976.6634                   24567974.2134   -1188521.79848   -926120.01544
  24150349.8304                   24150353.3364   -6214572.00148  -4842518.54845
  23137699.1994                   23137699.2294  -10833495.31249  -8441667.92746
  20784831.0794                   20784830.2604  -23830561.06649 -18569242.80247
  20050027.7304                   20050026.4304  -28052041.53849 -21858706.96947
  23478999.3654                   23479001.8214    -659853.70648   -514171.25445
  20859601.9464                   20859601.8214  -19794449.68049 -15424214.91147
  21930184.6064                   21930186.7624  -16756781.01249 -13057215.80546
 04  3  1  0 23  0.0000000  0  8G 9G 6G22G18G21G 3G26G15
  24547486.4054                   24547485.3374   -1296203.31648  -1010027.64244
  24171208.2884                   24171215.2754   -6104960.08348  -4757106.71145
  23121274.7034                   23121274.7964  -10919801.67049  -8508919.61746
  20776388.9274                   20776387.9154  -23874925.40549 -18603812.41647
  20050211.5004                   20050210.3954  -28051075.42749 -21857954.13847
  23468140.2614                   23468143.1074    -716917.46248   -558636.36945
  20869606.2364                   20869606.1514  -19741876.47749 -15383248.70247
  21913436.3564                   21913438.0894  -16844793.66149 -13125796.94946
 04  3  1  0 23 30.0000000  0  8G 9G 6G22G18G21G 3G26G15
  24527005.2224                   24527006.2294   -1403814.38248  -1093880.38044
  24192080.6824                   24192085.5134   -5995276.40348  -4671638.95944
  23104886.6314                   23104885.9534  -11005927.39849  -8576030.54746
  20768012.4584                   20768011.3044  -23918944.67949 -18638113.15247
  20050490.0514                   20050488.7994  -28049611.30049 -21856813.24147
  23457373.9984                   23457378.2994    -773490.63348   -602719.25445
  20879721.9114                   20879721.3844  -19688718.61349 -15341826.94347
  21896735.0424                   21896736.7284  -16932557.83549 -13194184.54646
 04  3  1  0 24  0.0000000  0  8G 9G 6G22G18G21G 3G26G15
  24506541.7104                   24506544.7844   -1511363.63648  -1177684.90744
  24212963.7354                   24212966.0534   -5885536.19948  -4586127.15444
  23088529.9124                   23088528.6234  -11091883.32449  -8643009.17246
  20759699.2684                   20759698.5624  -23962630.14749 -18672153.76547
  20050861.5524                   20050860.3054  -28047660.17249 -21855292.86247
  23446700.9194                   23446703.8854    -829582.88048   -646427.30545
  20889946.0194                   20889945.3564  -19634990.22449 -15299960.63047
  21880079.5384                   21880082.0814  -17020083.23949 -13262386.11646
 04  3  1  0 24 30.0000000  0  8G 9G 6G22G18G21G 3G26G15
  24486089.2164                                   -1618831.61048  -1261426.03844
  24233860.4304                   24233861.6134   -5775725.43148  -4500560.33444
  23072208.2294                   23072206.1964  -11177652.54249  -8709842.30846
  20751452.2104                   20751451.8024  -24005965.76649 -18705921.76847
  20051328.7014                   20051327.4754  -28045205.17649 -21853379.86047
  23436121.6534                   23436124.1744    -885176.57549   -689746.85345
  20900281.5874                   20900280.4664  -19580677.53449 -15257639.01047
  21863472.6474                   21863474.8734  -17107351.71249 -13330387.49146
 04  3  1  0 25  0.0000000  0  8G 9G 6G22G18G21G 3G26G15
  24465656.9064                                   -1726202.69448
  24254772.9124                   24254775.8334   -5665834.95948  -4414931.43444
  23055925.2984                   23055923.3194  -11263222.33649  -8776520.05746
  20743274.6194                   20743274.1264  -24048938.84349 -18739407.28447
  20051893.9924                   20051892.7704  -28042233.72649 -21851064.43747
  23425639.9694                   23425642.0364    -940257.62849   -732666.88645
  20910729.8164                   20910729.0414  -19525770.81849 -15214854.51747
  21846917.1184                   21846919.5354  -17194349.10049 -13398177.69746
 04  3  1  0 25 30.0000000  0  8G 9G 6G22G18G21G 3G26G15
  24445241.3884                   24445239.8424   -1833503.86848  -1428702.97044
  24275692.5864                   24275699.3954   -5555897.80948  -4329266.16044
  23039674.1214                   23039672.9964  -11348622.00149  -8843065.22446
  20735160.6854                   20735160.0614  -24091578.96849 -18772633.33647
  20052552.3114                   20052550.8954  -28038775.18849 -21848369.46447
  23415249.7954                   23415253.0814    -994854.75649   -775209.90245
  20921285.1254                   20921284.4634  -19470302.75049 -15171632.68847
  21830408.4274                   21830410.3794  -17281103.24649 -13465778.31646
 04  3  1  0 26  0.0000000  0  8G 9G 6G22G18G21G 3G26G15
  24424842.9034                   24424842.1534   -1940699.32148  -1512231.80044
  24296627.2634                   24296631.4354   -5445883.41448  -4243540.69744
  23023461.9184                   23023460.8164  -11433818.17349  -8909451.82146
  20727116.0764                   20727115.3734  -24133853.41049 -18805574.43747
  20053309.3664                   20053308.1434  -28034796.10449 -21845268.87247
  23404958.6094                   23404961.5964   -1048933.28249   -817348.83546
  20931952.9704                   20931952.3384  -19414243.01049 -15127949.82347
  21813953.1734                   21813954.6744  -17367579.59449 -13533162.47546
 04  3  1  0 26 30.0000000  0  8G 9G 6G22G18G21G 3G26G15
  24404459.6664                   24404463.3654   -2047801.01148  -1595687.55244
  24317573.7164                   24317576.3504   -5335809.81348  -4157769.14044
  23007284.7234                   23007283.8324  -11518825.40449  -8975691.20046
  20719138.3454                   20719137.5424  -24175777.04549 -18838242.18047
  20054162.9304                   20054161.4424  -28030311.59749 -21841774.43547
  23394764.5774                   23394766.4224   -1102507.17249   -859094.55846
  20942729.8804                   20942729.0704  -19357609.41349 -15083819.78547
  21797547.4744                   21797549.4574  -17453790.92349 -13600340.13846
 04  3  1  0 27  0.0000000  0  8G 9G 6G22G18G21G 3G26G15
  24384096.0794                   24384099.4064   -2154813.78648  -1679074.01644
  24338529.0364                   24338536.4224   -5225688.25248  -4071960.14844
  22991143.3354                   22991141.6054  -11603650.95849  -9041788.98946
  20711225.8324                   20711225.2844  -24217357.17149 -18870642.27947
  20055110.9924                   20055109.6904  -28025328.77549 -21837891.71547
  23384664.4594                   23384667.9724   -1155582.62349   -900451.92946
  20953614.0764                   20953613.2504  -19300412.49049 -15039250.76547
  21781190.9594                   21781193.4744  -17539743.21149 -13667315.92446
 04  3  1  0 27 30.0000000  0  8G 9G 6G22G18G21G 3G26G15
  24363751.2684                   24363755.7594   -2261730.05948  -1762385.31844
  24359494.5934                   24359497.9324   -5115516.96148  -3986112.40944
  22975037.3294                   22975035.3954  -11688290.19349  -9107741.61346
  20703379.5694                   20703379.1094  -24258589.96349 -18902771.75547
  20056154.8504                   20056153.7454  -28019842.91949 -21833617.01347
  23374658.2224                   23374661.8894   -1208153.21048   -941415.82545
  20964606.2124                   20964605.0404  -19242650.51549 -14994241.44547
  21764885.3254                   21764887.9394  -17625430.24049 -13734084.99846
 04  3  1  0 28  0.0000000  0  8G 9G 6G22G18G21G 3G26G15
  24343424.9524                   24343428.4084   -2368542.69348  -1845615.88744
  24380469.3364                   24380469.3444   -5005294.95348  -3900225.18944
  22958967.3504                   22958965.5454  -11772738.48249  -9173545.44046
  20695600.0154                   20695599.4204  -24299470.89749 -18934627.02747
  20057295.5084                   20057294.0274  -28013849.81249 -21828947.05047
  23364752.6364                   23364755.8744   -1260213.81048   -981982.30545
  20975705.5844                   20975704.7654  -19184322.15649 -14948790.76447
  21748631.2054                   21748633.9204  -17710846.32649 -13800642.93746
 04  3  1  0 28 30.0000000  0  8G 9G 6G22G18G21G 3G26G15
  24323119.8944                   24323117.3374   -2475244.34248  -1928759.90844
  24401454.4474                   24401455.5054   -4895020.82348  -3814297.31344
  22942934.4284                   22942933.1594  -11856990.73949  -9239196.51746
  20687888.6394                   20687888.0454  -24339995.17249 -18966204.32047
  20058533.1704                   20058531.6194  -28007344.92749 -21823878.29847
  23354944.3994                   23354946.5414   -1311759.12849  -1022147.41945
  20986913.4434                   20986912.2394  -19125426.02149 -14902897.68747
  21732429.9684                   21732432.1064  -17795985.08249 -13866984.76746
 04  3  1  0 29  0.0000000  0  8G 9G 6G22G18G21G 3G26G15
  24302836.4624                   24302837.9174   -2581839.12148  -2011820.66844
  24422445.4014                   24422446.4624   -4784704.73948  -3728336.75544
  22926936.7894                   22926936.4744  -11941053.89049  -9304700.22846
  20680243.4954                   20680242.9064  -24380170.19749 -18997509.46847
  20059866.9494                   20059865.8924  -28000334.59349 -21818415.69147
  23345232.7824                   23345234.4954   -1362794.42349  -1061915.13445
  20998227.0174                   20998226.3314  -19065971.73549 -14856569.67747
  21716280.5854                   21716282.6724  -17880851.70049 -13933114.53146
 04  3  1  0 29 30.0000000  0  8G 9G 6G22G18G21G 3G26G15
  24282568.9644                   24282572.7994   -2688337.39848  -2094806.25344
  24443443.8224                   24443445.0544   -4674362.12248  -3642355.47944
  22910973.8234                   22910973.4184  -12024940.96249  -9370066.72746
  20672662.4934                   20672661.6244  -24420009.24649 -19028552.85847
  20061294.9934                   20061293.5384  -27992832.30149 -21812569.74247
  23335615.2034                   23335617.8074   -1413331.76648  -1101294.81745
  21009643.3934                   21009643.3014  -19005975.74349 -14809819.53547
  21700180.3564                   21700182.3824  -17965457.57249 -13999041.11446
 04  3  1  0 30  0.0000000  0  8G 9G 6G22G18G21G 3G26G15
  24262330.9344                   24262334.8864   -2794699.35148  -2177685.59345
  24464453.4174                   24464456.7364   -4563960.13248  -3556327.94244
  22895051.3444                   22895050.9314  -12108614.78849  -9435267.04846
  20665152.1344                   20665151.6844  -24459475.51249 -19059305.78147
  20062822.9964                   20062821.5194  -27984801.17249 -21806311.71747
  23326100.6004                   23326102.9614   -1463333.47549  -1140257.16245
  21021169.8244                   21021169.3734  -18945404.37149 -14762621.08047
  21684136.8704                   21684138.9684  -18049764.48249 -14064734.75346
 04  3  1  0 30 30.0000000  0  8G 9G 6G22G18G21G 3G26G15
  24242115.7364                   24242117.6664   -2900922.96148  -2260457.13344
  24485472.1864                   24485475.7604   -4453502.70848  -3470257.26644
  22879169.0624                   22879168.7054  -12192075.81549  -9500301.56546
  20657712.4924                   20657711.8054  -24498570.06749 -19089769.06147
  20064451.7754                   20064450.5004  -27976242.06149 -21799642.27647
  23316687.7114                   23316689.7384   -1512799.07149  -1178801.74845
  21032805.6314                   21032804.8854  -18884261.10749 -14714976.98447
  21668151.2974                   21668153.3404  -18133771.39849 -14130194.62346
 04  3  1  0 31  0.0000000  0  8G 9G 6G22G18G21G 3G26G15
  24221918.3594                   24221922.9064   -3007053.01348  -2343155.74344
  24506491.1614                                   -4343040.40648  -3384182.72344
  22863318.3484                   22863317.8504  -12275371.55649  -9565207.27946
  20650334.8054                   20650334.1034  -24537340.85149 -19119980.02447
  20066172.0424                   20066170.5684  -27967202.39749 -21792598.37747
  23307367.4794                   23307370.3784   -1561774.88849  -1216964.71145
  21044539.2424                   21044538.3134  -18822596.98249 -14666926.99747
  21652213.3594                   21652215.6444  -18217524.29449 -14195456.55447
 04  3  1  0 31 30.0000000  0  8G 9G 6G22G18G21G 3G26G15
  24201747.6034                   24201750.1294   -3113055.81348  -2425755.21445
  24527517.5694                                   -4232545.57748
  22847505.5834                   22847504.4504  -12358471.03849  -9629960.05346
  20643024.8364                   20643023.9814  -24575757.08249 -19149914.69947
  20067989.2734                   20067987.9264  -27957651.48949 -21785156.09847
  23298147.1684                   23298149.4364   -1610229.18949  -1254721.31945
  21056378.1124                   21056377.2754  -18760384.02949 -14618449.31547
  21636330.5994                   21636332.6724  -18300990.65149 -14260495.22147
 04  3  1  0 32  0.0000000  0  8G 9G 6G22G18G21G 3G26G15
  24181602.0784                   24181603.7644   -3218926.79748  -2508251.99945
  24548548.4574                                   -4122019.41948
  22831730.0544                   22831728.5674  -12441372.32749  -9694558.38646
  20635781.9004                   20635781.1384  -24613817.53449 -19179572.16647
  20069904.5284                   20069903.0184  -27947588.14849 -21777314.52647
  23289026.1914                   23289028.5994   -1658159.11449  -1292069.27646
  21068321.1104                   21068320.0854  -18697623.90449 -14569545.28447
  21620502.4774                   21620504.4674  -18384167.20849 -14325308.08347
 04  3  1  0 32 30.0000000  0  8G 9G 6G22G18G21G 3G26G15
  24161484.4234                   24161487.5064   -3324641.37048  -2590626.90645
  24569592.1234                                   -4011443.82048  -3125795.91544
  22815996.4974                   22815995.7164  -12524053.38449  -9758985.11346
  20628611.0684                   20628610.4314  -24651500.28949 -19208935.32047
  20071921.3224                   20071920.0044  -27936989.70249 -21769055.98947
  23280009.4844                   23280011.1544   -1705542.10449  -1328991.08545
  21080371.6714                   21080370.7124  -18634297.91849 -14520200.33747
  21604734.0604                   21604735.9044  -18467030.48949 -14389876.84647
 04  3  1  0 33  0.0000000  0  8G 9G 6G22G18G21G 3G26G15
  24141393.0764                   24141395.0394   -3430220.13348  -2672895.98245
  24590640.1754                                   -3900845.03448  -3039615.08344
  22800299.5194                   22800299.7744  -12606537.42649  -9823258.22946
  20621507.8154                   20621506.8884  -24688829.04449 -19238022.65447
  20074035.4514                   20074034.1174  -27925880.03549 -21760399.10047
  23271092.6184                   23271093.9794   -1752400.11249  -1365503.82745
  21092524.6714                   21092523.3684  -18570432.45949 -14470434.95947
  21589021.1544                   21589023.3184  -18549602.07749 -14454218.33747
 04  3  1  0 33 30.0000000  0  8G 9G 6G22G18G21G 3G26G15
  24121326.4834                   24121328.0114   -3535671.83648  -2755066.03545
  24611689.0744                                   -3790238.18348
  22784638.7024                   22784638.3314  -12688835.98949  -9887387.06346
  20614469.4914                   20614468.6214  -24725815.30349 -19266843.11147
  20076244.5574                   20076243.1274  -27914271.04149 -21751353.12547
  23262273.6684                   23262275.7004   -1798744.18749  -1401616.10245
  21104777.4314                   21104776.5314  -18506042.57349 -14420260.94347
  21573361.6014                   21573363.9214  -18631891.97549 -14518340.30747
 04  3  1  0 34  0.0000000  0  8G 9G 6G22G18G21G 3G26G15
  24101287.1124                   24101289.5004   -3640981.86148  -2837125.71345
  24632738.1834                                   -3679614.17248
  22769015.1234                   22769014.5284  -12770937.05649  -9951361.80846
  20607498.4114                   20607497.5114  -24762447.66449 -19295387.78647
  20078550.9574                   20078549.4034  -27902151.05349 -21741908.97747
  23253554.5844                   23253556.6984   -1844561.56849  -1437317.96846
  21117131.8684                   21117131.0404  -18441119.51349 -14369671.47147
  21557758.4304                   21557760.4524  -18713886.96049 -14582232.48147
 04  3  1  0 34 30.0000000  0  8G 9G 6G22G18G21G 3G26G15
  24081275.9094                   24081277.6164   -3746144.67448  -2919070.69645
  24653793.2524                                   -3568973.83148
  22753430.6204                   22753428.5994  -12852837.59749 -10015180.32046
  20600595.1744                   20600594.5124  -24798723.63249 -19323654.74247
  20080954.8364                   20080953.4054  -27889517.34249 -21732064.52047
  23244936.6064                   23244939.6694   -1889848.27149  -1472606.28246
  21129587.5704                   21129586.7334  -18375663.74749 -14318666.87747
  21542212.1274                   21542213.6144  -18795582.14749 -14645891.03047
 04  3  1  0 35  0.0000000  0  8G 9G 6G22G18G21G 3G26G15
  24061291.2114                   24061294.4144   -3851159.16948  -3000900.06345
  24674849.5374                                   -3458321.60448
  22737883.0354                   22737881.5374  -12934539.24649 -10078843.86046
  20593759.6204                   20593758.7824  -24834645.44549 -19351645.72447
  20083456.3574                   20083455.2284  -27876371.69149 -21721821.15447
  23236419.8704                   23236422.2904   -1934605.44149  -1507481.99246
  21142143.8444                   21142142.9784  -18309680.20249 -14267250.98547
  21526723.1874                   21526725.1104  -18876978.04349 -14709316.37547
 04  3  1  0 35 30.0000000  0  8G 9G 6G22G18G21G 3G26G15
  24041337.6014                   24041340.8604   -3956015.80248  -3082606.49045
  24695906.5244                                   -3347654.84347
  22722375.1854                   22722373.3604  -13016035.28849 -10142347.18946
  20586992.3324                   20586991.5924  -24870206.69549 -19379355.76647
  20086056.6254                   20086055.4684  -27862707.87149 -21711174.01647
  23228005.1034                   23228006.9774   -1978825.53949  -1541939.15046
  21154801.3234                   21154799.9684  -18243165.65049 -14215421.32247
  21511292.5814                   21511294.5404  -18958066.32249 -14772502.00347
 04  3  1  0 36  0.0000000  0  8G 9G 6G22G18G21G 3G26G15
  24021414.9784                   24021416.9404   -4060708.44648  -3164185.12845
  24716970.3614                                   -3236972.89247
  22706906.1844                   22706904.7944  -13097322.53049 -10205687.83246
  20580294.5894                   20580293.7794  -24905404.27349 -19406782.43347
  20088755.9344                   20088754.5384  -27848522.65949 -21700120.59947
  23219693.8874                   23219695.9044   -2022504.21749  -1575974.41246
  21167559.4704                   21167558.3604  -18176120.19849 -14163177.99247
  21495921.1084                   21495923.5764  -19038841.96449 -14835443.99847
 04  3  1  0 36 30.0000000  0  8G 9G 6G22G18G21G 3G26G15
  24001520.5654                   24001523.0874   -4165253.40748  -3245648.69544
  24738031.7374                                   -3126297.91047
  22691474.5594                   22691472.7754  -13178419.55549 -10268880.24846
  20573662.4234                   20573661.1374  -24940257.51449 -19433940.78347
  20091550.7844                   20091549.2824  -27833835.51149 -21688676.06547
  23211481.1084                   23211483.8734   -2065659.50649  -1609601.78546
  21180414.1144                   21180412.8094  -18108565.73549 -14110537.98647
  21480606.4394                   21480608.8054  -19119322.40649 -14898155.97547
 04  3  1  0 37  0.0000000  0  8G 9G 6G22G18G21G 3G26G15
  23981658.6974                   23981659.4834   -4269629.39848  -3326980.60344
  24759091.7594                                   -3015614.92447
  22676081.7524                   22676080.1694  -13259307.96949 -10331910.10846
  20567098.8244                   20567097.7684  -24974748.41349 -19460816.80747
  20094444.6424                   20094443.1854  -27818628.60249 -21676826.52047
  23203371.8854                   23203374.0334   -2108272.97849  -1642806.97145
  21193369.0684                   21193367.9304  -18040487.46549 -14057489.80047
  21465351.7154                   21465353.6964  -19199487.81649 -14960622.44447
 04  3  1  0 37 30.0000000  0  8G 9G 6G22G18G21G 3G26G15
  23961829.5264                   23961831.2794   -4373830.88248  -3408176.52844
  24780156.1404                                   -2904924.08047
  22660729.7344                   22660727.3314  -13339984.94049 -10394775.20746
  20560604.8684                   20560603.9804  -25008874.27449 -19487408.37847
  20097437.8074                   20097436.5124  -27802898.86049 -21664569.57047
  23195367.1324                   23195368.3924   -2150340.78649  -1675586.96645
  21206423.2564                   21206422.3934  -17971886.06749 -14004034.00147
  21450157.2704                   21450159.1834  -19279333.58749 -15022839.78947
 04  3  1  0 38  0.0000000  0  8G 9G 6G22G18G21G 3G26G15
  23942033.2114                   23942035.2304   -4477865.88248  -3489242.74145
  24801219.0114                                   -2794239.45747
  22645415.3244                   22645414.1424  -13420461.09549 -10457483.83146
  20554178.0454                   20554177.3164  -25042646.41249 -19513724.33547
  20100528.3224                   20100527.1014  -27786657.60749 -21651914.03947
  23187463.5974                   23187465.1894   -2191873.01249  -1707949.68046
  21219574.8334                   21219573.4224  -17902775.73849 -13950181.68847
  21435022.0434                   21435024.1704  -19358869.01749 -15084815.31647
 04  3  1  0 38 30.0000000  0  8G 9G 6G22G18G21G 3G26G15
  23922267.3824                   23922270.2334   -4581735.18148  -3570179.82645
  24822279.7794                                   -2683567.77847
  22630138.4734                   22630136.7564  -13500740.06049 -10520038.81246
  20547818.0654                   20547817.4484  -25076068.66049 -19539767.66947
  20103715.5394                   20103714.3484  -27769908.92549 -21638863.10547
  23179660.7464                   23179663.7254   -2232872.50149  -1739897.30746
  21232821.1344                   21232819.8254  -17833163.41749 -13895938.23647
  21419945.8514                   21419947.8964  -19438096.09749 -15146550.55947
 04  3  1  0 39  0.0000000  0  8G 9G 6G22G18G21G 3G26G15
  23902535.0654                   23902538.2084   -4685423.14948  -3650975.59945
  24843341.2074                                   -2572900.01548
  22614901.1604                   22614900.1834  -13580809.06849 -10582430.19046
  20541527.0604                   20541526.3664  -25109128.59349 -19565528.68147
  20107001.7274                   20107000.2174  -27752640.49149 -21625407.16947
  23171962.7924                   23171965.3584   -2273326.10249  -1771419.68946
  21246165.3824                   21246163.8214  -17763039.72049 -13841296.29647
  21404930.5554                   21404932.6404  -19517000.12549 -15208033.93747
 04  3  1  0 39 30.0000000  0  8G 9G 6G22G18G21G 3G26G15
  23882838.7484                   23882839.9424   -4788927.85448  -3731628.58744
  24864397.6604                                   -2462239.22347
  22599704.0044                   22599702.8664  -13660668.54449 -10644658.28646
  20535304.7854                   20535303.8624  -25141827.63249 -19591008.47047
  20110386.5094                   20110385.1254  -27734853.18649 -21611546.92147
  23164369.4224                   23164371.3844   -2313233.50349  -1802516.46946
  21259605.7874                   21259604.6504  -17692408.61349 -13786258.98647
  21389976.8884                   21389978.6334  -19595580.22349 -15269264.80147
 04  3  1  0 40  0.0000000  0  8G 9G 6G22G18G21G 3G26G15
  23863178.9314                   23863182.2554   -4892244.48948  -3812135.00645
  24885452.5794                                   -2351587.50447
  22584547.6554                   22584546.1724  -13740316.33849 -10706721.44446
  20529151.5844                   20529150.8044  -25174163.68849 -19616205.39247
  20113870.4494                   20113869.0314  -27716545.17149 -21597280.92247
  23156879.4234                   23156881.8394   -2352592.25349  -1833185.76845
  21273142.8424                   21273141.5814  -17621271.51349 -13730827.41247
  21375085.7424                   21375087.3714  -19673832.97649 -15330240.59347
 04  3  1  0 40 30.0000000  0  8G 9G 6G22G18G21G 3G26G15
  23843551.7134                   23843554.8244   -4995382.66948  -3892502.38345
  24906504.0074                                   -2240959.87447
  22569430.1754                   22569428.0664  -13819764.98349 -10768629.42146
  20523064.8744                   20523063.8354  -25206149.67849 -19641129.52447
  20117450.8944                   20117449.4564  -27697729.23749 -21582619.14047
  23149492.5124                   23149494.3254   -2391413.68849  -1863436.26346
  21286773.0334                   21286771.6804  -17549644.20449 -13675013.80947
  21360254.8334                   21360255.8084  -19751769.63949 -15390970.20247
 04  3  1  0 41  0.0000000  0  8G 9G 6G22G18G21G 3G26G15
  23823964.1614                   23823964.8494   -5098316.04948  -3972710.17745
  24927557.1064                                   -2130336.15248
  22554353.3434                   22554351.5284  -13898990.92649 -10830363.87746
  20517048.8884                   20517047.9504  -25237762.35349 -19665762.76047
  20121132.1324                   20121131.0624  -27678382.85249 -21567544.02247
  23142211.5574                   23142213.3554   -2429674.19349  -1893249.66246
  21300499.8484                   21300498.6444  -17477506.88749 -13618802.87147
  21345488.4224                   21345489.6944  -19829365.36549 -15451434.35747
 04  3  1  0 41 30.0000000  0  8G 9G 6G22G18G21G 3G26G15
  23804414.2544                   23804416.0534   -5201057.92148  -4052768.73045
  24948602.4174                                   -2019735.57347
  22539316.8804                   22539315.3064  -13978010.45149 -10891937.47846
  20511101.0144                   20511100.2634  -25269018.53749 -19690118.20347
  20124911.6194                   20124910.3274  -27658522.69749 -21552068.56347
  23135034.3524                   23135036.7244   -2467389.00249  -1922637.80346
  21314320.6454                   21314319.4034  -17404879.06149 -13562209.69247
