     2.10           OBSERVATION DATA    G (GPS)             RINEX VERSION / TYPE
teqc  2002Mar18     WCDA Operator       20040302 00:07:36UTCPGM / RUN BY / DATE
Solaris 2.7|Ultra 2|cc SC5.0|=+-|*Sparc                     COMMENT
teqc  2002Mar18     WCDA Operator       20040302 00:07:27UTCCOMMENT
teqc  2002Mar18     WCDA Operator       20040302 00:07:12UTCCOMMENT
teqc  2002Mar18     WCDA Operator       20040301 01:04:03UTCCOMMENT
BIT 2 OF LLI FLAGS DATA COLLECTED UNDER A/S CONDITION       COMMENT
holb  WCDA-ACP   927005   Holberg BC Canada                 MARKER NAME
40130M001                                                   MARKER NUMBER
PGC-WCDA            GEOL. SURV. CANADA                      OBSERVER / AGENCY
30199               LEICA CRS1000       9.00 4.42 1.26 1.20 REC # / TYPE / VERS
00724          00023LEIAT504        SCIS                    ANT # / TYPE
 -2503040.4240 -3188233.3250  4908701.5430                  APPROX POSITION XYZ
        0.1000        0.0000        0.0000                  ANTENNA: DELTA H/E/N
     1     1                                                WAVELENGTH FACT L1/2
     7    C1    P1    P2    L1    L2    S1    S2            # / TYPES OF OBSERV
    30.0000                                                 INTERVAL
STATION INFORMATION EFFECTIVE FROM: 2002/05/15 15:27:00     COMMENT
                                TO: CURRENT DATE (above)    COMMENT
BIT 2 OF LLI FLAGS (+4) DATA COLLECTED UNDER 'AS' CONDITION COMMENT
L1 PHASE CENTRE 0.110m ABOVE ARP                            COMMENT
L2 PHASE CENTRE 0.128m ABOVE ARP                            COMMENT
where ARP is the Antenna Reference Point for HI measurement COMMENT
SCIGN dome installed on antenna                             COMMENT
No RF skirt used;                                           COMMENT
CONTACT gps@pgc.nrcan.gc.ca FOR ADDITIONAL INFORMATION      COMMENT
 SNR is mapped to RINEX snr flag value [2-9]                COMMENT
  L1 & L2: 25-27 dBHz = 2, ..., 49-55 dBHz = 9              COMMENT
  2004     3     1     0     0    0.0000000     GPS         TIME OF FIRST OBS
                                                            END OF HEADER
 04  3  1  0  0  0.0000000  0  9G26G29G15G21G18G22G16G 6G 3
  22071551.6714                   22071544.8634  115986853.62847  90379368.57146
        44.0004         41.0004
  23273348.2044                   23273341.6514  122302309.22246  95300506.70746
        41.0004         39.0004
  21076363.4264                   21076356.0254  110757101.66448  86304233.51948
        48.0004         46.0004
  20312952.2774                   20312942.8164  106745352.81248  83178199.79848
        48.0004         47.0004
  20539513.0284                   20539504.0954  107935964.47248  84105962.42148
        48.0004         47.0004
  22319728.3244                   22319719.4794  117291032.80248  91395613.51447
        45.0004         43.0004
  22933349.1774                   22933342.2184  120515563.46447  93908186.24146
        43.0004         41.0004
  23700176.9264                   23700172.3074  124545247.16746  97048212.76445
        39.0004         37.0004
  22486016.6574                   22486009.9774  118164849.57847  92076498.36947
        43.0004         42.0004
 04  3  1  0  0 30.0000000  0  9G26G29G15G21G18G22G16G 6G 3
  22074830.5154                   22074823.7204  116004084.07147  90392794.88047
        44.0004         42.0004
  23281760.5144                   23281753.9484  122346516.14947  95334953.65546
        42.0004         39.0004
  21063862.4844                   21063855.0834  110691408.89748  86253044.37548
        48.0004         46.0004
  20317670.6324                   20317661.1694  106770147.99848  83197520.72648
        48.0004         47.0004
  20533007.1024                   20532998.1544  107901775.65748  84079321.80848
        48.0004         47.0004
  22302616.2234                   22302607.3634  117201108.54148  91325542.75847
        46.0004         43.0004
  22945191.6434                   22945184.7124  120577795.85447  93956678.95946
        43.0004         40.0004
  23720541.3284                   23720536.7064  124652262.51345  97131601.26345
        38.0004         37.0004
  22470895.5724                   22470888.9224  118085387.80647  92014580.11047
        44.0004         42.0004
 04  3  1  0  1  0.0000000  0  9G26G29G15G21G18G22G16G 6G 3
  22078298.4074                   22078291.6244  116022307.96447  90406995.30846
        44.0004         41.0004
  23290331.8254                   23290325.2454  122391558.68846  95370051.74846
        41.0004         39.0004
  21051475.7624                   21051468.3484  110626316.48148  86202323.07948
        48.0004         46.0004
  20322520.2594                   20322510.8104  106795632.95848  83217379.13448
        48.0004         47.0004
  20526655.4094                   20526646.4474  107868397.34948  84053312.75448
        48.0004         47.0004
  22285621.2784                   22285612.4064  117111799.87748  91255951.68847
        46.0004         43.0004
  22957176.4994                   22957169.5834  120640776.44847  94005754.68946
        43.0004         40.0004
  23740996.1624                   23740991.5514  124759752.95345  97215359.93445
        38.0004         37.0004
  22455901.5274                   22455894.8624  118006593.68848  91953182.13047
        45.0004         42.0004
 04  3  1  0  1 30.0000000  0  9G26G29G15G21G18G22G16G 6G 3
  22081837.0374                   22081830.2554  116040903.59047  90421485.40947
        44.0004         42.0004
  23298943.6524                   23298937.0704  122436814.14546  95405315.73146
        41.0004         39.0004
  21039085.3104                   21039077.8824  110561204.40748  86151586.44348
        48.0004         46.0004
  20327382.8954                   20327373.4344  106821186.22348  83237290.76348
        47.0004         48.0004
  20520339.7854                   20520330.8244  107835208.64848  84027451.45648
        48.0004         47.0004
  22268625.5514                   22268616.6384  117022486.98448  91186357.29947
        46.0004         43.0004
  22969185.0304                   22969178.1294  120703881.51647  94054927.43146
        43.0004         40.0004
  23761422.9034                   23761418.3194  124867095.63846  97299003.44545
        39.0004         37.0004
  22440916.7274                   22440910.0374  117927848.22548  91891822.08747
        45.0004         42.0004
 04  3  1  0  2  0.0000000  0  9G26G29G15G21G18G22G16G 6G 3
  22085505.4244                   22085498.6404  116060180.96747  90436506.70847
        43.0004         42.0004
  23307654.8224                   23307648.2404  122482591.46746  95440986.32746
        41.0004         39.0004
  21026750.4724                   21026743.0304  110496384.58448  86101077.53548
        48.0004         46.0004
  20332317.5324                   20332308.0844  106847117.91248  83257497.26748
        48.0004         47.0004
  20514119.4654                   20514110.5024  107802520.70648  84001980.34348
        48.0004         47.0004
  22251688.4404                   22251679.5244  116933482.17348  91117002.95847
        46.0004         43.0004
  22981275.8874                   22981268.9874  120767419.15047  94104437.22146
        42.0004         40.0004
  23781880.1634                   23781875.5934  124974598.89345  97382772.12445
        38.0004         36.0004
  22426000.7224                   22425994.0314  117849464.27647  91830743.72547
        44.0004         42.0004
 04  3  1  0  2 30.0000000  0  9G26G29G15G21G18G22G16G 6G 3
  22089333.9124                   22089327.1274  116080299.81247  90452183.72246
        44.0004         41.0004
  23316495.5384                   23316488.9684  122529049.74046  95477187.57046
        41.0004         39.0004
  21014501.9984                   21014494.5434  110432018.54048  86050922.21848
        48.0004         46.0004
  20337354.6374                   20337345.1884  106873588.07749  83278123.36848
        49.0004         47.0004
  20508025.0254                   20508016.0634  107770494.33448  83977024.75748
        48.0004         47.0004
  22234840.8624                   22234831.9464  116844947.80448  91048015.19447
        46.0004         44.0004
  22993479.1074                   22993472.2074  120831547.25247  94154407.11746
        43.0004         40.0004
  23802398.2924                   23802393.7344  125082421.76045  97466789.79445
        38.0004         37.0004
  22411184.5054                   22411177.8004  117771604.71848  91770073.98447
        45.0004         42.0004
 04  3  1  0  3  0.0000000  0  9G26G29G15G21G18G22G16G 6G 3
  22093321.1364                   22093314.3504  116101252.68647  90468510.60947
        44.0004         42.0004
  23325464.2624                   23325457.6964  122576180.58046  95513912.88546
        41.0004         39.0004
  21002338.7454                   21002331.2784  110368100.33949  86001115.86648
        49.0004         46.0004
  20342492.9614                   20342483.4994  106900590.15348  83299163.95548
        48.0004         47.0004
  20502055.2034                   20502046.2414  107739122.77148  83952579.39648
        48.0004         48.0004
  22218081.7354                   22218072.8074  116756878.12648  90979389.50847
        46.0004         43.0004
  23005792.8774                   23005785.9894  120896256.30447  94204829.68546
        42.0004         40.0004
  23822975.4034                   23822970.8444  125190554.77245  97551049.18244
        38.0004         35.0004
  22396467.1774                   22396460.4324  117694264.82348  91709809.20047
        45.0004         42.0004
 04  3  1  0  3 30.0000000  0  9G26G29G15G21G18G22G16G 6G 3
  22097379.2374                   22097372.4504  116122578.09047  90485127.78747
        44.0004         42.0004
  23334472.9644                   23334466.4394  122623521.62746  95550801.99546
        41.0004         39.0004
  20990173.2894                   20990165.8094  110304170.62749  85951300.55748
        49.0004         46.0004
  20347644.7194                   20347635.2724  106927662.82348  83320259.54048
        48.0004         47.0004
  20496122.4414                   20496113.4674  107707945.89448  83928285.74348
        48.0004         47.0004
  22201323.7124                   22201314.7674  116668814.36748  90910768.45047
        47.0004         43.0004
  23018129.0094                   23018122.1184  120961083.11347  94255344.07146
        42.0004         39.0004
  23843523.5234                   23843518.9934  125298535.74545  97635190.16845
        38.0004         36.0004
  22381761.5534                   22381754.7964  117616986.43348  91649592.32947
        45.0004         42.0004
 04  3  1  0  4  0.0000000  0  9G26G29G15G21G18G22G16G 6G 3
  22101567.1564                   22101560.3714  116144585.63047  90502276.49747
        44.0004         42.0004
  23343580.4274                   23343573.8774  122671381.67146  95588095.55446
        41.0004         39.0004
  20978064.9234                   20978057.4304  110240540.92148  85901719.01648
        48.0004         46.0004
  20352868.9874                   20352859.5384  106955116.53748  83341652.03748
        48.0004         47.0004
  20490285.8764                   20490276.8884  107677274.66648  83904386.11248
        48.0004         47.0004
  22184626.1434                   22184617.1994  116581068.24048  90842394.88647
        46.0004         43.0004
  23030546.2164                   23030539.3514  121026335.59847  94306190.06346
        42.0004         40.0004
  23864101.4704                   23864096.9644  125406673.27445  97719453.08344
        38.0004         35.0004
  22367127.1244                   22367120.3264  117540082.24048  91589667.05647
        45.0004         42.0004
 04  3  1  0  4 30.0000000  0  9G26G29G15G21G18G22G16G 6G 3
  22105912.8664                   22105906.0694  116167422.36447  90520071.34047
        44.0004         42.0004
  23352814.4634                   23352807.9134  122719906.73446  95625907.26345
        40.0004         38.0004
  20966041.9574                   20966034.4504  110177359.99549  85852487.17448
        49.0004         47.0004
  20358193.8114                   20358184.3634  106983098.67749  83363456.30448
        49.0004         47.0004
  20484573.6684                   20484564.6814  107647256.87348  83880995.64448
        48.0004         47.0004
  22168017.4764                   22168008.5204  116493789.16848  90774385.24747
        47.0004         44.0004
  23043071.9764                   23043065.1394  121092158.79147  94357480.82146
        42.0004         39.0004
  23884736.9634                   23884732.4404  125515112.95845  97803951.40744
        38.0004         35.0004
  22352592.4434                   22352585.6294  117463702.35048  91530150.34247
        45.0004         42.0004
 04  3  1  0  5  0.0000000  0  9G26G29G15G21G18G22G16G 6G 3
  22110416.5024                   22110409.7074  116191089.00747  90538512.86146
        43.0004         41.0004
  23362175.0724                   23362168.5314  122769097.00046  95664237.30745
        41.0004         38.0004
  20954104.8634                   20954097.3554  110114630.32849  85803606.95448
        49.0004         46.0004
  20363619.4164                   20363609.9554  107011610.36048  83385673.19948
        48.0004         47.0004
  20478986.1804                   20478977.1814  107617894.42348  83858115.82848
        48.0004         48.0004
  22151498.2794                   22151489.3114  116406980.26548  90706741.97147
        47.0004         44.0004
  23055706.1654                   23055699.3404  121158551.71547  94409215.51446
        42.0004         40.0004
  23905429.8744                   23905425.3514  125623854.44045  97888684.92045
        38.0004         36.0004
  22338158.3244                   22338151.4844  117387850.79748  91471045.30447
        45.0004         42.0004
 04  3  1  0  5 30.0000000  0  9G26G29G15G21G18G22G16G 6G 3
  22114990.6144                   22114983.8194  116215126.00347  90557242.96146
        44.0004         41.0004
  23371574.5994                   23371568.0434  122818491.90946  95702726.85946
        40.0004         39.0004
  20942166.5864                   20942159.0794  110051894.51148  85754721.95948
        48.0004         46.0004
  20369058.4264                   20369048.9664  107040192.55148  83407945.03848
        48.0004         47.0004
  20473436.0764                   20473427.0634  107588728.55548  83835389.21148
        47.0004         47.0004
  22134981.5374                   22134972.5554  116320184.32548  90639108.80547
        46.0004         43.0004
  23068360.9734                   23068354.1584  121225053.05246  94461034.69146
        41.0004         39.0004
  23926092.4984                   23926087.9864  125732437.07545  97973294.70445
        38.0004         36.0004
  22323737.8604                   22323731.0054  117312070.99648  91411996.16847
        45.0004         42.0004
 04  3  1  0  6  0.0000000  0  9G26G29G15G21G18G22G16G 6G 3
  22119693.8134                   22119687.0204  116239841.41847  90576501.71947
        44.0004         42.0004
  23381071.5824                   23381065.0514  122868398.76746  95741615.26945
        40.0004         38.0004
  20930286.2114                   20930278.6784  109989462.78149  85706073.89048
        49.0004         46.0004
  20374569.6004                   20374560.1534  107069153.96748  83430512.36648
        48.0004         47.0004
  20467982.2344                   20467973.2204  107560068.54848  83813056.76048
        48.0004         47.0004
  22118526.3294                   22118517.3454  116233711.74548  90571727.59547
        46.0004         44.0004
  23081094.7284                   23081087.9174  121291968.94847  94513176.86446
        42.0004         39.0004
  23946783.3554                   23946778.8734  125841167.57445  98058019.61645
        38.0004         36.0004
  22309390.2374                   22309383.3844  117236674.04148  91353245.36847
        45.0004         43.0004
 04  3  1  0  6 30.0000000  0  9G26G29G15G21G18G22G16G 6G 3
  22124582.8714                   22124576.0654  116265533.59247  90596521.60546
        43.0004         41.0004
  23390722.6084                   23390716.0914  122919115.06746  95781134.41846
        40.0004         39.0004
  20918520.7794                   20918513.2474  109927635.20849  85657896.60448
        49.0004         47.0004
  20380209.8464                   20380200.4124  107098793.72148  83453608.28248
        48.0004         47.0004
  20462681.7024                   20462672.6894  107532214.12448  83791352.03148
        47.0004         47.0004
  22102189.9254                   22102180.9424  116147863.48948  90504832.88147
        46.0004         44.0004
  23093963.7354                   23093956.9514  121359596.03547  94565873.28446
        42.0004         39.0004
  23967558.8754                   23967554.4064  125950343.35845  98143091.57645
        38.0004         36.0004
  22295172.8974                   22295166.0294  117161961.72848  91295028.05247
        45.0004         43.0004
 04  3  1  0  7  0.0000000  0  9G26G29G15G21G18G22G16G 6G 3
  22129542.7324                   22129535.9114  116291597.83647  90616831.40847
        43.0004         42.0004
  23400412.4424                   23400405.9274  122970035.42746  95820812.61245
        40.0004         38.0004
  20906755.6534                   20906748.1084  109865809.17949  85609720.51648
        49.0004         47.0004
  20385864.2064                   20385854.7724  107128507.58348  83476761.94348
        48.0004         47.0004
  20457419.5984                   20457410.5704  107504561.70948  83769804.72248
        48.0004         47.0004
  22085857.6824                   22085848.7004  116062037.10048  90437955.20747
        47.0004         44.0004
  23106852.7494                   23106845.9664  121427328.07647  94618651.45846
        42.0004         39.0004
  23988303.8404                   23988299.3694  126059358.57145  98228038.41844
        37.0004         35.0004
  22280971.3594                   22280964.4784  117087332.45647  91236875.45147
        44.0004         42.0004
 04  3  1  0  7 30.0000000  0  9G26G29G15G21G18G22G16G 6G 3
  22134689.6164                   22134682.7974  116318644.82947  90637906.98246
        44.0004         41.0004
  23410257.1974                   23410250.6684  123021769.77546  95861125.05545
        40.0004         38.0004
  20895107.4664                   20895099.9074  109804597.66749  85562023.26548
        49.0004         46.0004
  20391648.9994                   20391639.5674  107158906.87849  83500449.71148
        49.0004         47.0004
  20452312.3714                   20452303.3454  107477723.11348  83748891.55148
        48.0004         47.0004
  22069646.2874                   22069637.3044  115976845.76548  90371572.37547
        47.0004         44.0004
  23119877.6174                   23119870.8314  121495773.84147  94671985.72846
        42.0004         39.0004
  24009134.3924                   24009129.9364  126168823.48645  98313335.67044
        37.0004         35.0004
  22266902.4654                   22266895.5824  117013400.16448  91179265.92147
        45.0004         42.0004
 04  3  1  0  8  0.0000000  0  9G26G29G15G21G18G22G16G 6G 3
  22139906.7694                   22139899.9334  116346061.27947  90659270.46946
        44.0004         41.0004
  23420140.0094                   23420133.4794  123073704.24146  95901593.45445
        40.0004         38.0004
  20883459.9264                   20883452.3684  109743389.55349  85514328.66748
        49.0004         47.0004
  20397447.7404                   20397438.3064  107189379.53148  83524194.64148
        48.0004         47.0004
  20447243.4854                   20447234.4434  107451086.06048  83728135.43648
        47.0004         47.0004
  22053439.5354                   22053430.5254  115891678.89748  90305208.63847
        46.0004         44.0004
  23132921.2524                   23132914.4394  121564318.54747  94725397.18446
        42.0004         39.0004
  24029933.5744                   24029929.1604  126278123.55145  98398504.45444
        38.0004         35.0004
  22252850.1504                   22252843.2684  116939555.06448  91121724.35747
        45.0004         43.0004
 04  3  1  0  8 30.0000000  0  9G26G29G15G21G18G22G16G 6G 3
  22145251.7264                   22145244.8784  116374149.28047  90681157.25046
        44.0004         41.0004
  23430118.2814                   23430111.7504  123126139.97646  95942452.36846
        40.0004         39.0004
  20871870.8914                   20871863.3204  109682488.82648  85466873.57648
        48.0004         46.0004
  20403317.9574                   20403308.5234  107220227.72749  83548232.19848
        49.0004         47.0004
  20442270.7434                   20442261.7044  107424954.12548  83707772.89748
        47.0004         47.0004
  22037295.3374                   22037286.3294  115806840.81348  90239101.10447
        46.0004         44.0004
  23146040.8984                   23146034.0984  121633262.50147  94779119.68246
        42.0004         39.0004
  24050758.7154                   24050754.3474  126387559.84345  98483779.36145
        38.0004         36.0004
  22238872.5084                   22238865.6114  116866102.30948  91064488.50347
        45.0004         43.0004
 04  3  1  0  9  0.0000000  0  9G26G29G15G21G18G22G16G 6G 3
  22150753.2754                   22150746.4134  116403060.05347  90703685.11746
        42.0004         41.0004
  23440220.5094                   23440213.9804  123179227.54046  95983819.31046
        40.0004         39.0004
  20860369.5644                   20860361.9814  109622049.00849  85419777.64048
        49.0004         47.0004
  20409288.5824                   20409279.1494  107251603.57748  83572680.91548
        48.0004         47.0004
  20437423.1264                   20437414.0724  107399479.85248  83687922.84648
        47.0004         47.0004
  22021242.9554                   22021233.9334  115722485.22948  90173369.53948
        46.0004         45.0004
  23159265.0044                   23159258.2284  121702755.33446  94833269.84846
        41.0004         39.0004
  24071638.1884                   24071633.8544  126497282.27846  98569277.39344
        39.0004         35.0004
  22224998.9734                   22224992.0644  116793196.51747  91007678.83447
        44.0004         43.0004
 04  3  1  0  9 30.0000000  0  9G26G29G15G21G18G22G16G 6G 3
  22156382.0084                   22156375.1344  116432639.30947  90726733.91447
        43.0004         42.0004
  23450417.3874                   23450410.9144  123232812.06046  96025573.36246
        41.0004         39.0004
  20848927.0314                   20848919.4334  109561918.15249  85372922.44448
        49.0004         47.0004
  20415330.4284                   20415320.9964  107283353.75349  83597421.32748
        49.0004         48.0004
  20432671.5244                   20432662.4574  107374510.13848  83668465.96048
        48.0004         47.0004
  22005253.5644                   22005244.5134  115638460.78548  90107896.03647
        47.0004         44.0004
  23172563.8194                   23172557.0544  121772641.14246  94887726.31446
        41.0004         39.0004
  24092542.8724                   24092538.5804  126607136.50945  98654877.93645
        38.0004         36.0004
  22211200.8354                   22211193.9134  116720687.00148  90951177.96147
        45.0004         43.0004
 04  3  1  0 10  0.0000000  0  9G26G29G15G21G18G22G16G 6G 3
  22162138.7484                   22162131.8734  116462891.36947  90750306.98546
        44.0004         41.0004
  23460709.4264                   23460702.9654  123286897.02546  96067717.46446
        40.0004         39.0004
  20837544.5134                   20837536.9144  109502102.74349  85326313.05848
        49.0004         46.0004
  20421444.4444                   20421434.9984  107315483.12349  83622457.20748
        49.0004         48.0004
  20428016.9774                   20428007.8964  107350050.45748  83649406.50148
        48.0004         47.0004
  21989328.4804                   21989319.4154  115554774.27948  90042685.86048
        47.0004         45.0004
  23185937.9604                   23185931.2074  121842922.41346  94942490.86145
        41.0004         38.0004
  24113473.0724                   24113468.8114  126717125.14145  98740583.29645
        38.0004         36.0004
  22197479.5194                   22197472.5844  116648581.18548  90894991.66247
        45.0004         43.0004
 04  3  1  0 10 30.0000000  0  9G26G29G15G21G18G22G16G 6G 3
  22168051.6544                   22168044.7794  116493963.83747  90774519.28446
        43.0004         41.0004
  23471124.7214                   23471118.2764  123341629.45646  96110366.04946
        41.0004         39.0004
  20826250.5374                   20826242.9394  109442752.56449  85280066.18048
        49.0004         47.0004
  20427658.8604                   20427649.4144  107348140.10148  83647904.20348
        48.0004         48.0004
  20423487.8144                   20423478.7324  107326249.66548  83630860.45548
        47.0004         47.0004
  21973496.2304                   21973487.1394  115471575.62048  89977855.83447
        47.0004         44.0004
  23199415.1724                   23199408.4494  121913745.33146  94997677.47645
        41.0004         38.0004
  24134456.9274                   24134452.6704  126827395.66845  98826508.31644
        38.0004         35.0004
  22183863.7194                   22183856.7854  116577029.92648  90839237.49347
        46.0004         43.0004
 04  3  1  0 11  0.0000000  0  9G26G29G15G21G18G22G16G 6G 3
  22174033.4334                   22174026.5294  116525398.35847  90799013.74047
        42.0004         42.0004
  23481575.8434                   23481569.4124  123396550.34946  96153161.51745
        41.0004         38.0004
  20814958.3314                   20814950.7184  109383411.68349  85233826.54948
        49.0004         47.0004
  20433886.6484                   20433877.2014  107380867.40748  83673406.01248
        48.0004         47.0004
  20418997.0384                   20418987.9564  107302650.54148  83612471.54248
        47.0004         47.0004
  21957670.1124                   21957660.9794  115388409.30948  89913051.04447
        47.0004         44.0004
  23212907.8874                   23212901.1634  121984650.08846  95052927.94745
        41.0004         38.0004
  24155406.9794                   24155402.7514  126937488.49445  98912294.83444
        37.0004         35.0004
  22170266.9444                   22170260.0114  116505578.57748  90783561.16447
        45.0004         43.0004
 04  3  1  0 11 30.0000000  0  9G26G29G15G21G18G22G16G 6G 3
  22180142.8424                   22180135.9254  116557503.39447  90824030.63246
        44.0004         41.0004
  23492121.3754                   23492114.9324  123451967.49346  96196343.72045
        40.0004         38.0004
  20803726.9934                   20803719.3804  109324390.72749  85187836.22048
        49.0004         46.0004
  20440186.7124                   20440177.2654  107413974.53149  83699203.78148
        49.0004         47.0004
  20414603.5394                   20414594.4564  107279562.67648  83594481.02048
        47.0004         48.0004
  21941909.3284                   21941900.1684  115305586.26648  89848513.71747
        47.0004         44.0004
  23226474.5644                   23226467.8524  122055943.27146  95108481.02345
        41.0004         38.0004
  24176381.7244                   24176377.4834  127047711.27645  98998182.66744
        38.0004         35.0004
  22156748.5194                   22156741.5844  116434538.95847  90728205.65247
        44.0004         43.0004
 04  3  1  0 12  0.0000000  0  9G26G29G15G21G18G22G16G 6G 3
  22186407.9714                   22186401.0264  116590426.87347  90849685.29946
        44.0004         41.0004
  23502789.4254                   23502782.9854  123508028.35046  96240027.48745
        41.0004         38.0004
  20792585.1794                   20792577.5524  109265840.16049  85142212.42548
        49.0004         46.0004
  20446587.3274                   20446577.8804  107447609.98949  83725413.23248
        49.0004         47.0004
  20410335.8184                   20410326.7364  107257135.71248  83577005.48048
        47.0004         48.0004
  21926242.5634                   21926233.3634  115223257.35948  89784361.45747
        47.0004         44.0004
  23240143.0674                   23240136.3644  122127771.73746  95164451.23245
        41.0004         38.0004
  24197409.2894                   24197405.0764  127158211.50045  99084286.64644
        37.0004         35.0004
  22143337.3174                   22143330.3674  116364062.86947  90673289.27247
        44.0004         43.0004
 04  3  1  0 12 30.0000000  0  9G26G29G15G21G18G22G16G 6G 3
  22192799.8054                   22192792.8744  116624016.12147  90875858.72247
        44.0004         42.0004
  23513550.8104                   23513544.3994  123564579.37246  96284093.11545
        40.0004         38.0004
  20781504.1824                   20781496.5424  109207609.25549  85096837.72548
        49.0004         47.0004
  20453059.5924                   20453050.1494  107481621.91148  83751916.02748
        48.0004         47.0004
  20406164.9324                   20406155.8484  107235217.74448  83559926.58148
        48.0004         47.0004
  21910641.2144                   21910631.9894  115141272.15748  89720477.00147
        47.0004         44.0004
  23253884.0394                   23253877.3464  122199980.71847  95220717.88045
        42.0004         38.0004
  24218460.2534                   24218456.0434  127268835.12245  99170486.89844
        37.0004         34.0004
  22130004.8714                   22129997.9334  116294000.64048  90618695.37147
        46.0004         43.0004
 04  3  1  0 13  0.0000000  0  9G26G29G15G21G18G22G16G 6G 3
  22199346.8114                   22199339.8984  116658420.61947  90902667.37746
        44.0004         41.0004
  23524433.7464                   23524427.3534  123621769.52646  96328656.87145
        40.0004         38.0004
  20770512.9974                   20770505.3564  109149850.31248  85051830.78248
        48.0004         47.0004
  20459632.1104                   20459622.6634  107516160.85049  83778829.49948
        49.0004         47.0004
  20402119.6954                   20402110.6124  107213960.00848  83543362.13848
        47.0004         47.0004
  21895134.2494                   21895124.9814  115059783.06748  89656979.14847
        47.0004         44.0004
  23267725.6304                   23267718.9394  122272718.52246  95277396.64145
        41.0004         38.0004
  24239563.1124                   24239558.9554  127379731.33345  99256899.48544
        37.0004         35.0004
  22116780.3494                   22116773.3984  116224505.49748  90564543.36147
        45.0004         43.0004
 04  3  1  0 13 30.0000000  0  9G26G29G15G21G18G22G16G 6G 3
  22205960.6534                   22205953.7394  116693176.65747  90929750.01446
        44.0004         41.0004
  23535350.0284                   23535343.6474  123679134.59746  96373356.83146
        40.0004         39.0004
  20759523.8544                   20759516.1854  109092102.09949  85006832.21448
        50.0004         47.0004
  20466216.9034                   20466207.4564  107550764.10649  83805793.06448
        49.0004         47.0004
  20398112.0844                   20398102.9994  107192899.99548  83526951.76048
        47.0004         47.0004
  21879633.9584                   21879624.6664  114978328.92848  89593508.50947
        47.0004         44.0004
  23281579.3234                   23281572.6164  122345519.91946  95334124.94246
        41.0004         39.0004
  24260629.5304                   24260625.3944  127490436.10945  99343162.96744
        36.0004         34.0004
  22103576.1074                   22103569.1554  116155116.98548  90510474.44347
        46.0004         43.0004
 04  3  1  0 14  0.0000000  0  9G26G29G15G21G18G22G16G 6G 3
  22212700.5524                   22212693.6544  116728594.88147  90957348.59047
        43.0004         42.0004
  23546358.5504                   23546352.1744  123736984.52546  96418434.65745
        40.0004         38.0004
  20748596.2824                   20748588.6134  109034677.44749  84962085.76048
        49.0004         47.0004
  20472873.2304                   20472863.7854  107585743.34549  83833049.61948
        49.0004         47.0004
  20394201.4984                   20394192.4134  107172349.84948  83510938.69048
        47.0004         47.0004
  21864199.9824                   21864190.6604  114897223.39648  89530309.52548
        47.0004         45.0004
  23295503.9334                   23295497.2434  122418693.99146  95391143.65045
        41.0004         38.0004
  24281718.5444                   24281714.4084  127601259.43845  99429518.76544
        36.0004         35.0004
  22090452.0134                   22090445.0484  116086149.59748  90456733.67247
        45.0004         43.0004
 04  3  1  0 14 30.0000000  0  9G26G29G15G21G18G22G16G 6G 3
  22219595.1464                   22219588.2484  116764826.02847  90985580.61046
        44.0004         41.0004
  23557487.9054                   23557481.5554  123795469.61846  96464007.42745
        39.0004         38.0004
  20737759.4934                   20737751.8104  108977729.92449  84917711.11148
        49.0004         47.0004
  20479629.9754                   20479620.5304  107621250.27949  83860717.35848
        49.0004         47.0004
  20390416.9014                   20390407.8184  107152461.65948  83495441.40348
        48.0004         47.0004
  21848861.5464                   21848852.1864  114816619.81048  89467501.66248
        47.0004         45.0004
  23309527.8714                   23309521.1804  122492390.09347  95448569.14146
        42.0004         39.0004
  24302858.5954                   24302854.4574  127712351.28045  99516083.85644
        36.0004         34.0004
  22077437.4504                   22077430.4724  116017757.72948  90403441.34447
        46.0004         43.0004
 04  3  1  0 15  0.0000000  0  9G26G29G15G21G18G22G16G 6G 3
  22226614.0974                   22226607.2254  116801710.74047  91014321.89946
        42.0004         41.0004
  23568707.7194                   23568701.4134  123854429.69946  96509950.24345
        40.0004         38.0004
  20726983.6444                   20726975.9484  108921102.64249  84873586.00948
        49.0004         47.0004
  20486456.9804                   20486447.5364  107657126.43348  83888672.80848
        48.0004         47.0004
  20386728.1194                   20386719.0234  107133077.10548  83480336.59248
        48.0004         47.0004
  21833588.8114                   21833579.4344  114736361.54548  89404962.86048
        48.0004         45.0004
  23323620.5674                   23323613.8934  122566447.46246  95506276.13445
        41.0004         38.0004
  24324019.2594                   24324015.1294  127823551.19245  99602733.08644
        36.0004         34.0004
  22064502.7014                   22064495.7224  115949785.41648  90350475.95547
        46.0004         43.0004
 04  3  1  0 15 30.0000000  0  9G26G29G15G21G18G22G16G 6G 3
  22233786.7434                   22233779.8844  116839403.12347  91043692.55246
        42.0004         41.0004
  23580047.1134                   23580040.8194  123914018.55646  96556383.09245
        40.0004         37.0004
  20716298.5624                   20716290.8554  108864952.22149  84829832.46348
        49.0004         47.0004
  20493383.8104                   20493374.3524  107693527.10548  83917036.96148
        48.0004         47.0004
  20383164.8584                   20383155.7614  107114352.10448  83465745.69448
        47.0004         48.0004
  21818411.6794                   21818402.2634  114656605.55448  89342815.44248
        47.0004         45.0004
  23337811.1114                   23337804.4794  122641019.02346  95564383.77346
        41.0004         39.0004
  24345229.6394                   24345225.4984  127935012.49545  99689586.06244
        36.0004         34.0004
  22051677.8394                   22051670.8444  115882390.49848  90297960.47647
        46.0004         43.0004
 04  3  1  0 16  0.0000000  0  9G26G29G15G21G18G22G16G 6G 3
  22241055.1634                   22241048.3184  116877598.80147  91073455.38446
        44.0004         41.0004
  23591448.1684                   23591441.9294  123973931.06546  96603068.04245
        40.0004         38.0004
  20705646.7054                   20705638.9844  108808976.52449  84786215.08348
        50.0004         47.0004
  20500352.6744                   20500343.2144  107730148.73049  83945573.28848
        49.0004         47.0004
  20379669.3584                   20379660.2494  107095983.18848  83451432.28048
        47.0004         47.0004
  21803272.7114                   21803263.2804  114577050.17948  89280824.33848
        48.0004         45.0004
  23352041.2404                   23352034.6374  122715798.54347  95622653.45145
        42.0004         38.0004
  24366431.8524                   24366427.7374  128046430.49845  99776405.18944
        36.0004         33.0004
  22038905.6014                   22038898.6074  115815272.06048  90245660.42447
        46.0004         43.0004
 04  3  1  0 16 30.0000000  0  9G26G29G15G21G18G22G16G 6G 3
  22248418.6254                   22248411.7844  116916293.74347  91103607.23446
        43.0004         41.0004
  23602909.9304                   23602903.6924  124034162.96746  96650001.98245
        40.0004         38.0004
  20695027.8684                   20695020.1474  108753174.34449  84742732.90948
        49.0004         47.0004
  20507363.0584                   20507353.5994  107766988.55148  83974279.64148
        48.0004         47.0004
  20376241.1674                   20376232.0584  107077968.11048  83437394.59948
        47.0004         48.0004
  21788171.6694                   21788162.2244  114497694.03948  89218988.47748
        47.0004         45.0004
  23366309.9154                   23366303.3244  122790780.87146  95681081.21546
        41.0004         39.0004
  24387624.9294                   24387620.8434  128157801.18145  99863187.60044
        36.0004         34.0004
  22026185.9304                   22026178.9084  115748429.86148  90193575.63447
        46.0004         43.0004
 04  3  1  0 17  0.0000000  0  9G26G29G15G21G18G22G16G 6G 3
  22255905.7214                   22255898.8804  116955638.69746  91134265.64046
        41.0004         41.0004
  23614461.0264                   23614454.8024  124094864.32546  96697301.72445
        40.0004         37.0004
  20684471.2184                   20684463.4834  108697698.96049  84699505.38348
        49.0004         47.0004
  20514443.8544                   20514434.3834  107804198.32349  84003274.26748
        49.0004         47.0004
  20372909.2174                   20372900.1074  107060458.65948  83423750.88148
        47.0004         47.0004
  21773137.7844                   21773128.3274  114418690.75648  89157427.55648
        47.0004         45.0004
  23380645.6254                   23380639.0484  122866115.16146  95739783.17446
        41.0004         39.0004
  24408837.7914                                  128269274.71545
        36.0004
  22013548.1554                   22013541.1344  115682018.15748  90141826.31047
        46.0004         43.0004
 04  3  1  0 17 30.0000000  0  9G26G29G15G21G18G22G16G 6G 3
  22263546.5144                   22263539.6984  116995791.21347  91165553.26546
        43.0004         41.0004
  23626131.4474                   23626125.2394  124156192.23746  96745089.58745
        40.0004         38.0004
  20674007.2724                   20673999.5374  108642710.74149  84656657.46048
        49.0004         47.0004
  20521625.2994                   20521615.8424  107841937.06649  84032681.07748
        49.0004         47.0004
  20369703.7254                   20369694.6024  107043613.74548  83410624.99748
        47.0004         47.0004
  21758201.5614                   21758192.0774  114340200.74948  89096266.60748
        48.0004         45.0004
  23395078.0184                   23395071.4434  122941957.71346  95798881.22846
        41.0004         39.0004
  24430099.9344                                  128381008.46444
        35.0004
  22001023.1214                   22001016.0864  115616198.72348  90090538.45947
        46.0004         43.0004
 04  3  1  0 18  0.0000000  0  9G26G29G15G21G18G22G16G 6G 3
  22271340.2854                   22271333.5074  117036747.63347  91197467.29446
        42.0004         41.0004
  23637920.2524                   23637914.0714  124218142.51846  96793362.44845
        40.0004         38.0004
  20663635.8274                   20663628.0784  108588208.55349  84614188.25648
        49.0004         47.0004
  20528906.8774                   20528897.4214  107880201.96049  84062497.86448
        49.0004         47.0004
  20366624.3514                   20366615.2154  107027431.58948  83398015.54948
        47.0004         48.0004
  21743362.9024                   21743353.4054  114262223.32048  89035505.03848
        47.0004         45.0004
  23409606.2394                   23409599.6904  123018303.65346  95858371.47445
        41.0004         38.0004
  24451410.5504                                  128492997.38345
        36.0004
  21988610.6944                   21988603.6584  115550971.10148  90039711.76547
        46.0004         43.0004
 04  3  1  0 18 30.0000000  0  8G26G29G15G21G18G22G16G 3
  22279227.1364                   22279220.3734  117078193.12747  91229762.44446
        44.0004         41.0004
  23649767.5414                   23649761.3644  124280400.06346  96841874.75745
        40.0004         37.0004
  20653297.4874                   20653289.7254  108533880.27349  84571854.55648
        49.0004         47.0004
  20536228.9624                   20536219.5054  107918679.77149  84092480.57748
        49.0004         47.0004
  20363611.4324                   20363602.2974  107011598.71948  83385678.27648
        48.0004         47.0004
  21728562.4314                   21728552.9334  114184446.62948  88974899.89548
        47.0004         45.0004
  23424170.0544                   23424163.5054  123094837.01746  95918007.86245
        41.0004         38.0004
  21976251.7194                   21976244.6564  115486024.31248  89989103.90547
        47.0004         43.0004
 04  3  1  0 19  0.0000000  0  9G26G29G15G21G18G22G16G 6G 3
  22287207.1444                   22287200.3964  117120127.91347  91262438.80646
        43.0004         41.0004
  23661673.2564                   23661667.1064  124342964.64446  96890626.27845
        39.0004         37.0004
  20642992.7854                   20642985.0244  108479728.88949  84529658.71548
        49.0004         47.0004
  20543591.8124                   20543582.3434  107957371.75049  84122630.16448
        49.0004         47.0004
  20360665.2774                   20360656.1424  106996116.63248  83373614.32548
        46.0004         47.0004
  21713800.7584                   21713791.2344  114106873.64148  88914453.45348
        48.0004         45.0004
  23438769.3304                   23438762.8244  123171556.54146  95977789.25845
        40.0004         38.0004
  24493998.4314                                  128716829.64955
        36.0004
  21963946.8994                   21963939.8214  115421362.29448  89938717.97447
        45.0004         44.0004
 04  3  1  0 19 30.0000000  0  9G26G29G15G21G18G22G16G 6G 3
  22295310.4624                   22295303.7274  117162711.07547  91295620.46746
        43.0004         41.0004
  23673667.5504                   23673661.4584  124405994.77346  96939740.58045
        40.0004         37.0004
  20632752.5654                   20632744.8064  108425916.23349  84487726.79948
        49.0004         47.0004
  20551025.8314                   20551016.3754  107996437.78249  84153071.22248
        49.0004         47.0004
  20357816.4514                   20357807.2994  106981146.07348  83361948.98048
        47.0004         47.0004
  21699108.6744                   21699099.1224  114029666.46848  88854292.08648
        48.0004         45.0004
  23453434.0994                   23453427.5944  123248620.05046  96037838.66445
        40.0004         38.0004
  24515304.9144                                  128828797.72045
        36.0004
  21951727.3154                   21951720.2364  115357148.07648  89888680.94447
        46.0004         44.0004
 04  3  1  0 20  0.0000000  0  9G26G29G15G21G18G22G16G 6G 3
  22303565.1544                   22303558.4334  117206089.52247  91329421.79246
        43.0004         41.0004
  23685778.3274                   23685772.2354  124469636.89446  96989331.75245
        39.0004         37.0004
  20622605.2484                   20622597.4754  108372591.78049  84446175.29748
        49.0004         47.0004
  20558559.3054                   20558549.8514  108036026.39349  84183919.48648
        49.0004         47.0004
  20355093.1324                   20355083.9814  106966835.06448  83350797.57448
        47.0004         47.0004
  21684514.7024                   21684505.1364  113952974.81448  88794532.40548
        48.0004         45.0004
  23468191.9824                   23468185.4894  123326173.06346  96098269.52545
        40.0004         37.0004
  24536658.6864                                  128941011.11544
        35.0004
  21939621.5864                   21939614.4814  115293532.16348  89839110.15147
        47.0004         44.0004
 04  3  1  0 20 30.0000000  0  9G26G29G15G21G18G22G16G 6G 3
  22311970.4894                   22311963.7934  117250259.79347  91363840.14946
        43.0004         41.0004
  23698004.8134                   23697998.7474  124533887.26346  97039396.90145
        40.0004         38.0004
  20612550.7164                   20612542.9584  108319754.98849  84405003.79348
        50.0004         47.0004
  20566191.7944                   20566182.3404  108076135.39549  84215173.25148
        49.0004         47.0004
  20352495.0404                   20352485.8874  106953182.06148  83340158.87548
        47.0004         48.0004
  21670018.7364                   21670009.1714  113876798.18848  88735174.03648
        48.0004         45.0004
  23483042.1104                   23483035.6314  123404210.94846  96159078.24845
        40.0004         38.0004
  24558058.1714                                  129053466.04045
        36.0004
  21927629.7754                   21927622.6554  115230514.89548  89790005.81647
        46.0004         44.0004
 04  3  1  0 21  0.0000000  0  8G26G29G15G21G18G22G16G 3
  22320439.0294                   22320432.3354  117294762.02047  91398517.16346
        42.0004         41.0004
  23710259.4484                   23710253.3564  124598285.55846  97089577.34945
        39.0004         37.0004
  20602502.0014                   20602494.2404  108266948.75549  84363856.09748
        49.0004         47.0004
  20573836.0394                   20573826.5834  108116306.17048  84246475.14948
        48.0004         47.0004
  20349934.9014                   20349925.7504  106939728.50148  83329675.60348
        47.0004         47.0004
  21655533.8344                   21655524.2554  113800679.64048  88675860.91648
        48.0004         45.0004
  23497896.8244                   23497890.3724  123482272.62346  96219905.43245
        41.0004         38.0004
  21915665.1154                   21915657.9834  115167640.36948  89741012.73247
        46.0004         43.0004
 04  3  1  0 21 30.0000000  0  9G26G29G15G21G18G22G16G 6G 3
  22329057.1354                   22329050.4404  117340050.28747  91433806.67846
        43.0004         41.0004
  23722628.6194                   23722622.5174  124663285.48846  97140226.56145
        40.0004         38.0004
  20592546.0944                   20592538.3464  108214630.23549  84323088.43848
        49.0004         47.0004
  20581578.7034                   20581569.2604  108156994.14648  84278180.05248
        48.0004         47.0004
  20347499.4064                   20347490.2404  106926929.94848  83319702.72148
        47.0004         47.0004
  21641146.9744                   21641137.3804  113725076.36548  88616949.31648
        47.0004         45.0004
  23512842.2384                   23512835.7844  123560810.99246  96281104.08345
        40.0004         38.0004
  24600818.8514                                  129278169.36654
        35.0004
  21903814.7814                   21903807.6204  115105366.63548  89692487.79147
        46.0004         44.0004
 04  3  1  0 22  0.0000000  0  9G26G29G15G21G18G22G16G 6G 3
  22337767.3074                   22337760.6134  117385822.42547  91469473.25346
        44.0004         41.0004
  23735054.6154                   23735048.4864  124728584.47446  97191108.88745
        40.0004         37.0004
  20582626.0134                   20582618.2644  108162499.92349  84282467.42348
        49.0004         47.0004
  20589362.4964                   20589353.0394  108197898.19048  84310053.32648
        48.0004         47.0004
  20345131.3364                   20345122.1694  106914485.72248  83310005.93148
        47.0004         47.0004
  21626801.1834                   21626791.5764  113649688.91148  88558205.89648
        48.0004         45.0004
  23527820.6344                   23527814.1904  123639522.68146  96342437.77845
        40.0004         38.0004
  24622208.7164                                  129390573.49245
        36.0004
  21892021.9444                   21892014.7804  115043395.10748  89644198.33147
        46.0004         44.0004
 04  3  1  0 22 30.0000000  0  9G26G29G15G21G18G22G16G 6G 3
  22346626.9104                   22346620.2054  117432379.83047  91505751.73846
        44.0004         41.0004
  23747594.8334                   23747588.7264  124794483.45246  97242458.63845
        39.0004         37.0004
  20572799.6554                   20572791.9074  108110862.12749  84242230.19748
        49.0004         47.0004
  20597245.0554                   20597235.5984  108239321.31849  84342331.08748
        49.0004         47.0004
  20342888.3214                   20342879.1534  106902698.66048  83300821.21748
        47.0004         47.0004
  21612554.4714                   21612544.8514  113574822.06048  88499868.12648
        47.0004         45.0004
  23542889.1364                   23542882.6934  123718708.06946  96404140.65145
        39.0004         37.0004
  24643643.0804                                  129503211.64944
        35.0004
  21880344.7064                   21880337.5274  114982031.05748  89596382.24547
        46.0004         44.0004
 04  3  1  0 23  0.0000000  0  9G26G29G15G21G18G22G16G 6G 3
  22355635.7354                   22355629.0304  117479721.33747  91542641.18546
        43.0004         41.0004
  23760248.9114                   23760242.8174  124860981.39346  97294275.27245
        39.0004         37.0004
  20563067.3684                   20563059.6064  108059718.67449  84202378.17648
        49.0004         47.0004
  20605226.4334                   20605216.9894  108281263.68249  84375013.42548
        49.0004         47.0004
  20340770.4044                   20340761.2364  106891569.12148  83292148.88648
        47.0004         47.0004
  21598407.1764                   21598397.5404  113500477.64748  88441937.44348
        48.0004         45.0004
  23558047.3834                   23558040.9684  123798364.87846  96466210.81545
        39.0004         37.0004
  24665121.7224                                  129616082.54845
        36.0004
  21868783.6524                   21868776.4444  114921277.43148  89549041.79247
        47.0004         44.0004
 04  3  1  0 23 30.0000000  0 10G26G29G15G31G21G18G22G16G 6G 3
  22364734.4254                   22364727.7334  117527535.14647  91579898.66446
        43.0004         41.0004
  23772957.5484                   23772951.4494  124927765.61046  97346314.87245
        39.0004         37.0004
  20553370.4004                   20553362.6244  108008760.82449  84162670.78148
        49.0004         47.0004
  24703349.2614                                  129816983.68354
        34.0004
  20613247.5324                   20613238.0874  108323414.77748  84407858.42048
        48.0004         47.0004
  20338718.6344                   20338709.4794  106880787.05648  83283747.28448
        47.0004         47.0004
  21584300.4884                   21584290.8404  113426346.56448  88384172.98948
        47.0004         45.0004
  23573235.7804                   23573229.4374  123878180.07046  96528404.37145
        40.0004         38.0004
  24686585.5994                                  129728874.35744
        35.0004
  21857280.1364                   21857272.9404  114860826.23648  89501936.99247
        46.0004         44.0004
 04  3  1  0 24  0.0000000  0  9G26G29G15G31G21G18G22G16G 3
  22373923.4964                   22373916.8204  117575823.91747  91617526.25446
        42.0004         41.0004
  23785721.1904                   23785715.0514  124994838.81446  97398579.68945
        39.0004         37.0004
  20543709.8124                   20543702.0354  107957994.15449  84123112.34848
        50.0004         47.0004
  24682751.0804                                  129708740.01044
        33.0004
  20621309.1564                   20621299.7124  108365778.83749  84440869.36348
        49.0004         47.0004
  20336733.8114                   20336724.6564  106870356.80648  83275619.83048
        47.0004         47.0004
  21570235.5144                   21570225.8664  113352434.75449  88326579.39548
        49.0004         45.0004
  23588454.5804                   23588448.2664  123958155.15246  96590722.55745
        39.0004         37.0004
  21845835.4404                   21845828.2304  114800684.07948  89455073.00547
        47.0004         44.0004
 04  3  1  0 24 30.0000000  0 10G26G29G15G31G21G18G22G16G 6G 3
  22383230.3944                   22383223.7494  117624731.87247  91655636.32246
        43.0004         41.0004
  23798567.0604                   23798560.8944  125062344.69146  97451181.76945
        39.0004         37.0004
  20534113.5884                   20534105.7984  107907565.72149  84083817.48548
        49.0004         47.0004
  24662184.4324                                  129600664.42444
        34.0004
  20629439.0014                   20629429.5694  108408501.52249  84474159.77048
        49.0004         47.0004
  20334843.5894                   20334834.4334  106860423.74648  83267879.80748
        46.0004         47.0004
  21556240.3144                   21556230.6534  113278889.54248  88269271.46548
        48.0004         46.0004
  23603731.0434                   23603724.7254  124038433.31946  96653276.91645
        40.0004         38.0004
  24729495.9574                                  129954377.81354
        35.0004
  21834477.7354                   21834470.5114  114740999.05848  89408565.23347
        47.0004         44.0004
 04  3  1  0 25  0.0000000  0 10G26G29G15G31G21G18G22G16G 6G 3
  22392685.1794                   22392678.5334  117674417.10247  91694352.08146
        43.0004         40.0004
  23811525.4194                   23811519.2394  125130441.07846  97504243.83845
        39.0004         37.0004
  20524612.3824                   20524604.5914  107857636.67049  84044911.75848
        49.0004         47.0004
  24641681.5134                                  129492919.10744
        33.0004
  20637667.4384                   20637657.9924  108451742.18849  84507853.78648
        49.0004         47.0004
  20333078.4254                   20333069.2564  106851147.68248  83260651.70148
        46.0004         47.0004
  21542345.5034                   21542335.8174  113205871.88248  88212374.61948
        48.0004         45.0004
  23619095.0744                   23619088.7684  124119171.66346  96716189.85445
        39.0004         37.0004
  24751000.8614                                  130067384.78145
        36.0004
  21823237.8654                   21823230.6144  114681933.20648  89362539.92247
        45.0004         44.0004
 04  3  1  0 25 30.0000000  0 10G26G29G15G31G21G18G22G16G 6G 3
  22402259.4184                   22402252.7844  117724730.00347  91733556.91246
        43.0004         41.0004
  23824567.5764                   23824561.3804  125198977.94646  97557649.16445
        39.0004         37.0004
  20515178.3064                   20515170.5174  107808060.33149  84006280.86348
        49.0004         47.0004
  24621213.6244                                  129385359.12244
        35.0004
  20645966.2614                   20645956.8294  108495352.79948  84541836.07348
        48.0004         47.0004
  20331410.1204                   20331400.9524  106842380.68048  83253820.27548
        45.0004         47.0004
  21528523.2224                   21528513.5494  113133235.43048  88155774.80648
        47.0004         46.0004
  23634518.0124                   23634511.7224  124200219.43646  96779343.89745
        39.0004         38.0004
  24772519.5394                                  130180466.82344
        35.0004
  21812088.0744                   21812080.8084  114623340.78748  89316883.51847
        46.0004         44.0004
 04  3  1  0 26  0.0000000  0 10G26G29G15G31G21G18G22G16G 6G 3
  22411951.9244                   22411945.3174  117775664.40447  91773246.02646
        43.0004         41.0004
  23837692.3514                   23837686.1694  125267949.23145  97611393.04345
        38.0004         36.0004
  20505810.7044                   20505802.8984  107758833.37249  83967922.21848
        50.0004         47.0004
  24600780.2324                                  129277982.67444
        35.0004
  20654334.6184                   20654325.2004  108539328.74849  84576103.02648
        49.0004         47.0004
  20329837.7324                   20329828.5664  106834117.85347  83247381.74448
        44.0004         47.0004
  21514772.8904                   21514763.1904  113060977.00948  88099469.57148
        48.0004         45.0004
  23649998.4654                   23649992.1894  124281569.38946  96842733.38345
        39.0004         38.0004
  24794051.7364                                  130293618.34344
        34.0004
  21801027.9694                   21801020.6884  114565219.66548  89271594.36247
        46.0004         44.0004
 04  3  1  0 26 30.0000000  0 10G26G29G15G31G21G18G22G16G 6G 3
  22421762.2484                   22421755.6294  117827217.94647  91813417.61546
        42.0004         41.0004
  23850899.2704                   23850893.1144  125337351.99745  97665473.08645
        38.0004         36.0004
  20496509.8674                   20496502.0504  107709957.14849  83929836.86348
        49.0004         48.0004
  24580382.2644                                  129170792.06644
        35.0004
  20662772.2874                   20662762.8694  108583668.93349  84610653.81148
        49.0004         47.0004
  20328361.1884                   20328352.0344  106826358.62448  83241335.59348
        45.0004         47.0004
  21501094.6604                   21501084.9594  112989097.55048  88043459.62948
        48.0004         46.0004
  23665535.7404                   23665529.4774  124363218.07346  96906355.66845
        39.0004         38.0004
  24815596.3584                                  130406836.97344
        34.0004
  21790057.8214                   21790050.5404  114507571.33948  89226673.62747
