     2.10           OBSERVATION DATA    G (GPS)             RINEX VERSION / TYPE
teqc  2002Mar14                         20040302 01:27:28UTCPGM / RUN BY / DATE
HP-UX 10.20|PA-RISC|cc A.10.32.03|=+|=|                     COMMENT
teqc  2002Mar14     GRD/NGS/NOAA        20040302 01:24:42UTCCOMMENT
BIT 2 OF LLI FLAGS DATA COLLECTED UNDER A/S CONDITION       COMMENT
MANA                                                        MARKER NAME
41201S001                                                   MARKER NUMBER
G. Medina           INETER                                  OBSERVER / AGENCY
3935A26606          TRIMBLE 4000SSI     7.29                REC # / TYPE / VERS
0220191257          TRM29659.00     UNAV                    ANT # / TYPE
   408026.0542 -6223016.5795  1333566.9255                  APPROX POSITION XYZ
        0.0000        0.0000        0.0000                  ANTENNA: DELTA H/E/N
     1     1                                                WAVELENGTH FACT L1/2
     9    C1    L1    L2    P1    P2    D1    D2    S1    S2# / TYPES OF OBSERV
    30.0000                                                 INTERVAL
 SNR is mapped to RINEX snr flag value [1-9]                COMMENT
  L1: 3 -> 1; 8 -> 5; 40 -> 9                               COMMENT
  L2: 1 -> 1; 5 -> 5; 60 -> 9                               COMMENT
teqc windowed: delta = 86400.000 sec                        COMMENT
Forced Modulo Decimation to 30 seconds                      COMMENT
  2004     3     1     0     0    0.0000000     GPS         TIME OF FIRST OBS
                                                            END OF HEADER
 04  3  1  0  0  0.0000000  0  9G26G22G18G 6G17G 9G29G30G21
  21903666.9324   -6224350.45646  -4005782.60746                  21903670.9294
     -3773.2944                         17.0004         15.2504
  24497590.0364    -223389.46844    -77992.66845                  24497596.5164
       277.8214                          7.2504          5.2504
  22784560.9924   -4379937.20946    555264.44746                  22784565.2684
      -384.4834                         16.0004         12.7504
  20782409.5194  -14938404.52247 -11484388.24446                  20782414.1744
     -1601.3904                         26.0004         24.0004
  22273727.9304    2661458.34345    456511.62545                  22273732.8874
     -1534.1644                         11.2504         11.2504
  22093173.4794  -11009844.38646  -6589404.68446                  22093179.4154
      1398.8674                         18.5004         17.0004
  23821749.3294    7892301.10345   6249705.35745                  23821752.9214
     -3887.7124                          8.7504          9.2504
  24487187.7964    9763634.08145   4817474.55745                  24487205.0964
     -1447.0924                          8.2504          8.0004
  22320186.7284   -9905467.95146  -7077556.18046                  22320189.7284
      1993.1704                         17.7504         14.7504
 04  3  1  0  0 30.0000000  0  9G26G22G18G 6G17G 9G29G30G21
  21925232.3694   -6111023.53846  -3917475.91246                  21925235.9924
     -3781.9134                         17.5004         15.2504
  24496012.1154    -231680.71043    -84453.30245                  24496017.7424
       274.8064                          5.2504          4.7504
  22786756.6454   -4368398.52046    564255.65746                  22786761.1454
      -384.8684                         14.2504         12.5004
  20791596.8414  -14890124.79347 -11446767.67946                  20791601.6134
     -1617.3824                         26.2504         24.2504
  22282520.8334    2707665.55246    492517.24245                  22282525.6774
     -1546.4614                         12.5004         11.0004
  22085210.7894  -11051688.08246  -6622010.06446                  22085215.9154
      1390.5674                         19.2504         16.7504
  23843947.7604    8008954.38245   6340604.01045                  23843952.4644
     -3889.2724                          8.5004          8.7504
  24495424.2604    9806916.19045   4851200.69945                  24495443.3504
     -1438.5014                          7.5004          7.2504
  22308809.5724   -9965254.91646  -7124143.33146                  22308813.1664
      1992.4924                         17.7504         14.5004
 04  3  1  0  1  0.0000000  0  9G26G22G18G 6G17G 9G29G30G21
  21946848.4844   -5997430.31646  -3828961.70746                  21946852.3674
     -3790.8444                         17.2504         14.7504
  24494452.9854    -239873.18443    -90836.79545                  24494459.0044
       271.4704                          5.5004          5.0004
  22788955.9494   -4356840.47146    573262.02246                  22788960.3144
      -385.5574                         15.2504         12.5004
  20800876.8894  -14841357.97647 -11408767.55246                  20800881.3854
     -1633.6554                         27.2504         25.0004
  22291385.7074    2754250.69746    528817.34645                  22291389.8044
     -1559.1414                         12.2504         11.2504
  22077297.3774  -11093272.83046  -6654413.66946                  22077303.1944
      1381.8124                         19.5004         17.7504
  23866156.4114    8125662.38345   6431545.33445                  23866161.4104
     -3891.1354                          7.5004          7.0004
  24503613.1234    9849948.51644   4884732.24845                  24503632.3144
     -1430.1994                          7.2504          7.5004
  22297438.1414  -10025011.81846  -7170707.07046                  22297441.1854
      1991.3704                         18.0004         14.7504
 04  3  1  0  1 30.0000000  0  9G26G22G18G 6G17G 9G29G30G21
  21968514.5294   -5883574.61146  -3740242.96646                  21968518.3254
     -3799.5404                         17.5004         15.2504
  24492912.2604    -247969.34344    -97145.27445                  24492919.6444
       268.2504                          6.5004          4.7504
  22791158.6274   -4345265.19146    582281.76246                  22791162.1524
      -386.1264                         14.7504         12.7504
  20810249.2324  -14792106.23347 -11370389.57046                  20810254.2654
     -1649.8024                         26.7504         25.0004
  22300322.6164    2801214.28946    565412.37745                  22300327.4884
     -1571.7924                         13.0004         11.2504
  22069433.7344  -11134596.10447  -6686613.50446                  22069439.7304
      1373.0384                         20.0004         18.0004
  23888374.9554    8242421.91045   6522526.81645                  23888379.9944
     -3892.8134                          7.7504          8.2504
  24511754.1444    9892729.25345   4918067.74145                  24511771.6064
     -1421.8514                          8.0004          6.7504
  22286072.7544  -10084737.14346  -7217246.19646                  22286075.7064
      1990.2804                         18.5004         14.7504
 04  3  1  0  2  0.0000000  0  9G26G22G18G 6G17G 9G29G30G21
  21990229.6364   -5769460.86446  -3651323.15646                  21990234.0484
     -3808.0944                         16.2504         14.2504
  24491389.3324    -255971.57045   -103380.61445                  24491394.1384
       265.1474                          7.5004          6.7504
  22793364.0814   -4333675.16146    591313.02946                  22793368.0564
      -386.6084                         14.5004         12.0004
  20819713.2044  -14742372.90347 -11331636.31646                  20819717.6044
     -1665.8464                         27.5004         25.2504
  22309331.4974    2848556.08246    602302.08945                  22309337.0644
     -1584.4164                         12.5004         11.5004
  22061620.2214  -11175656.08947  -6718608.20246                  22061626.0824
      1364.1884                         20.7504         18.2504
  23910602.5624    8359229.13744   6613545.47845                  23910607.4984
     -3894.3714                          7.0004          7.7504
  24519846.8264    9935255.85745   4951205.24545                  24519863.2414
     -1413.3264                          8.0004          6.5004
  22274713.5244  -10144430.03046  -7263760.03946                  22274716.6134
      1989.1664                         18.5004         14.7504
 04  3  1  0  2 30.0000000  0  9G26G22G18G 6G17G 9G29G30G21
  22011994.4044   -5655086.07946  -3562199.94646                  22011999.1994
     -3816.7514                         16.2504         14.7504
  24489885.2864    -263874.52645   -109538.55345                  24489891.6744
       261.8544                          7.7504          6.0004
  22795573.3604   -4322065.26246    600359.79046                  22795577.0374
      -387.2404                         15.7504         12.7504
  20829269.7444  -14692152.88247 -11292503.82346                  20829274.6154
     -1682.0164                         26.0004         24.7504
  22318413.7404    2896283.36146    639492.17945                  22318420.5684
     -1597.2684                         12.0004         11.2504
  22053858.6374  -11216443.02047  -6750390.11846                  22053864.2814
      1355.0384                         20.0004         18.0004
  23932840.0944    8476088.20045   6704604.48345                  23932845.8324
     -3896.0884                          7.5004          7.5004
  24527892.0464    9977533.54745   4984148.71445                  24527909.8654
     -1405.0294                          7.5004          7.0004
  22263362.0764  -10204081.94146  -7310241.96946                  22263365.4764
      1987.7364                         17.7504         15.2504
 04  3  1  0  3  0.0000000  0  9G26G22G18G 6G17G 9G29G30G21
  22033806.4094   -5540463.22046  -3472883.42446                  22033810.5974
     -3824.9044                         17.0004         14.5004
  24488397.9644    -271689.91945   -115628.24845                  24488405.7534
       259.0074                          7.7504          5.7504
  22797784.1684   -4310447.04746    609413.02446                  22797789.7674
      -387.4504                         14.2504         12.5004
  20838916.5554  -14641458.34847 -11253001.58346                  20838921.3854
     -1697.7604                         25.5004         24.7504
  22327567.5714    2944387.31245    676975.78245                  22327573.8424
     -1609.8174                         11.0004         11.2504
  22046147.7394  -11256963.70047  -6781964.56846                  22046152.7134
      1346.1614                         21.7504         18.5004
  23955085.1094    8592986.78945   6795694.31745                  23955092.4124
     -3897.3214                          8.0004          8.0004
  24535887.7864   10019551.16245   5016889.61445                  24535906.7144
     -1396.2904                          7.7504          8.2504
  22252017.0774  -10263699.88446  -7356697.41046                  22252020.8914
      1986.6264                         17.5004         14.7504
 04  3  1  0  3 30.0000000  0  9G26G22G18G 6G17G 9G29G30G21
  22055667.0354   -5425584.75746  -3383367.72546                  22055671.0654
     -3833.4044                         16.2504         14.0004
  24486929.1124    -279407.97545   -121642.18645                  24486934.5904
       255.7644                          7.7504          7.0004
  22799998.3704   -4298810.73346    618480.36846                  22800002.8884
      -388.0744                         14.7504         12.7504
  20848655.4564  -14590279.90847 -11213122.27346                  20848660.6274
     -1713.8984                         26.2504         24.2504
  22336795.3314    2992879.87945    714762.20145                  22336800.2874
     -1622.8094                         11.2504         10.7504
  22038490.1804  -11297204.10347  -6813320.63046                  22038496.0024
      1336.7344                         20.2504         18.2504
  23977339.2974    8709933.18245   6886821.40645                  23977345.9184
     -3898.8934                          8.0004          8.7504
  24543835.9064   10061318.44245   5049435.45445                  24543853.7544
     -1387.9514                          8.0004          8.0004
  22240680.9404  -10323271.03846  -7403116.41546                  22240684.2184
      1984.9954                         16.7504         14.5004
 04  3  1  0  4  0.0000000  0  9G26G22G18G 6G17G 9G29G30G21
  22077574.7124   -5310459.20246  -3293659.50546                  22077578.8554
     -3841.6164                         16.0004         14.0004
  24485477.4994    -287035.57945   -127585.57445                  24485483.1144
       252.7314                          9.0004          6.7504
  22802214.8494   -4287162.67146    627556.86546                  22802218.8284
      -388.4564                         14.5004         12.5004
  20858485.1484  -14538624.48647 -11172871.29446                  20858490.2294
     -1729.7774                         27.0004         24.7504
  22346096.1804    3041756.47746    752847.83945                  22346102.2564
     -1635.6564                         12.2504         10.5004
  22030885.5694  -11337166.25046  -6844459.84046                  22030891.4994
      1327.3874                         19.5004         18.2504
  23999601.0184    8826919.72644   6977979.77245                  23999606.8204
     -3900.1944                          6.7504          8.0004
  24551735.2234   10102829.01245   5081781.34645                  24551752.9814
     -1379.4014                          8.2504          7.2504
  22229353.2434  -10382798.00746  -7449500.97846                  22229356.5614
      1983.4614                         18.2504         14.5004
 04  3  1  0  4 30.0000000  0  9G26G22G18G 6G17G 9G29G30G21
  22099528.5654   -5195090.74046  -3203761.99246                  22099532.8974
     -3849.4104                         15.7504         14.0004
  24484042.6664    -294574.90945   -133460.19745                  24484050.1014
       250.0594                          9.7504          6.7504
  22804433.0514   -4275505.43046    636640.50846                  22804437.1364
      -388.5104                         15.2504         13.0004
  20868405.0834  -14486495.06047 -11132250.95346                  20868409.9184
     -1745.3314                         27.7504         25.2504
  22355470.2344    3091017.41545    791232.97645                  22355476.1334
     -1648.2594                         11.7504         11.2504
  22023334.2914  -11376847.97246  -6875380.56246                  22023339.5624
      1318.2124                         19.5004         17.2504
  24021869.7974    8943943.02044   7069166.78145                  24021872.2614
     -3901.1684                          7.2504          8.0004
  24559585.2694   10144080.64845   5113925.33545                  24559600.7504
     -1370.5184                          8.7504          7.5004
  22218034.2354  -10442279.50746  -7495850.10946                  22218037.0484
      1982.1284                         18.7504         15.7504
 04  3  1  0  5  0.0000000  0  9G26G22G18G 6G17G 9G29G30G21
  22121527.9594   -5079483.01646  -3113678.03646                  22121531.8134
     -3857.8564                         15.2504         14.0004
  24482624.3604    -302027.80445   -139267.40745                  24482630.4974
       246.6924                         11.5004          6.0004
  22806652.7164   -4263840.74246    645729.95446                  22806658.3244
      -389.2384                         15.5004         13.0004
  20878414.7264  -14433894.00047 -11091263.10846                  20878419.8724
     -1761.5164                         26.5004         24.5004
  22364917.4924    3140662.82946    829917.73845                  22364923.3724
     -1661.5394                         13.0004         11.0004
  22015836.9214  -11416246.50546  -6906080.60846                  22015842.5494
      1308.2294                         19.5004         17.7504
  24044145.0824    9061000.35245   7160380.33245                  24044150.2544
     -3902.7864                          7.7504          8.0004
  24567385.7164   10185071.87345   5145866.46145                  24567403.3444
     -1362.3234                          9.0004          7.0004
  22206724.2064  -10501713.76946  -7542162.44646                  22206727.3664
      1980.0194                         19.0004         16.0004
 04  3  1  0  5 30.0000000  0  9G26G22G18G 6G17G 9G29G30G21
  22143573.0654   -4963635.08546  -3023406.91046                  22143577.1734
     -3865.7144                         15.2504         13.5004
  24481222.9724    -309391.49945   -145005.19045                  24481228.6094
       243.8284                         10.5004          7.5004
  22808874.3614   -4252165.99446    654827.25946                  22808877.4814
      -389.4714                         16.5004         13.2504
  20888514.5844  -14380818.78447 -11049905.79346                  20888519.5574
     -1777.2054                         26.0004         24.5004
  22374438.8704    3190697.86846    868906.07645                  22374445.1664
     -1674.4964                         12.2504         11.0004
  22008394.7774  -11455354.70346  -6936554.42546                  22008399.9074
      1298.5874                         19.2504         17.2504
  24066427.0184    9178093.40244   7251621.64945                  24066433.3864
     -3903.8144                          6.5004          7.5004
  24575137.1704   10225805.60445   5177607.00645                  24575156.0834
     -1353.6464                          9.0004          8.2504
  22195424.4224  -10561094.26446  -7588432.87446                  22195427.6424
      1978.2744                         19.2504         15.7504
 04  3  1  0  6  0.0000000  0  9G26G22G18G 6G17G 9G29G30G21
  22165662.7294   -4847553.05146  -2932953.35946                  22165667.0384
     -3873.0794                         15.0004         13.5004
  24479837.6644    -316670.32445   -150676.81345                  24479844.3154
       241.4474                         10.5004          7.5004
  22811097.0854   -4240485.31046    663929.15946                  22811101.8454
      -389.2424                         16.0004         13.0004
  20898703.6744  -14327274.64047 -11008183.08246                  20898708.9494
     -1792.4044                         26.0004         24.2504
  22384033.9794    3241120.53046    908196.47545                  22384039.5294
     -1687.0304                         12.2504         10.7504
  22001007.9244  -11494172.32847  -6966801.81246                  22001013.1234
      1289.2414                         20.0004         17.7504
  24088714.8304    9295216.83444   7342886.72245                  24088719.1294
     -3904.4094                          6.7504          7.0004
  24582838.9284   10266277.90945   5209143.81345                  24582855.8124
     -1344.4974                          8.7504          8.5004
  22184134.7504  -10620421.45346  -7634661.75646                  22184138.2214
      1976.8554                         19.2504         15.5004
 04  3  1  0  6 30.0000000  0  9G26G22G18G 6G17G 9G29G30G21
  22187796.9024   -4731237.21446  -2842317.64346                  22187801.2364
     -3881.1444                         15.0004         13.7504
  24478468.8534    -323862.56345   -156280.99245                  24478472.8254
       238.2404                          9.2504          8.0004
  22813321.3364   -4228796.87246    673037.12246                  22813326.1314
      -389.8094                         16.2504         13.5004
  20908982.2664  -14273260.31047 -10966093.99846                  20908987.0694
     -1808.3764                         27.0004         24.7504
  22393703.5654    3291934.70045    947791.91545                  22393709.5634
     -1700.4174                         11.7504         10.7504
  21993677.5864  -11532693.22247  -6996818.00746                  21993682.6204
      1278.9694                         20.2504         17.7504
  24111008.6104    9412371.18845   7434175.82945                  24111012.2944
     -3905.7204                          7.7504          7.2504
  24590491.0944   10306490.47944   5240478.26045                  24590508.2164
     -1336.1604                          7.2504          7.5004
  22172856.2864  -10679689.85946  -7680844.86046                  22172859.6334
      1974.5224                         18.7504         16.0004
 04  3  1  0  7  0.0000000  0  9G26G22G18G 6G17G 9G29G30G21
  22209975.5994   -4614687.32146  -2751499.50846                  22209979.7394
     -3888.7214                         14.7504         13.2504
  24477116.7914    -330966.33145   -161816.16245                  24477125.3054
       235.4444                          9.0004          7.2504
  22815547.4614   -4217098.49946    682152.80846                  22815551.6544
      -389.9854                         16.5004         13.5004
  20919350.6094  -14218774.43947 -10923637.47346                  20919355.4064
     -1823.9194                         26.5004         24.5004
  22403448.4674    3343144.58445    987695.70745                  22403454.0204
     -1713.4584                         11.7504         11.0004
  21986405.0164  -11570910.59147  -7026597.67246                  21986410.2184
      1268.9524                         21.2504         18.2504
  24133308.4764    9529557.55245   7525489.92845                  24133313.5854
     -3906.6064                          8.0004          7.7504
  24598094.4584   10346445.99444   5271612.36845                  24598110.8064
     -1327.4394                          6.5004          6.7504
  22161590.1064  -10738893.77046  -7726977.68946                  22161593.7104
      1972.5054                         19.5004         16.5004
 04  3  1  0  7 30.0000000  0  9G26G22G18G 6G17G 9G29G30G21
  22232196.6944   -4497914.57046  -2660507.73546                  22232201.2714
     -3896.5544                         14.7504         13.0004
  24475780.0314    -337990.94745   -167289.69145                  24475785.2144
       232.3764                          9.7504          7.7504
  22817773.6974   -4205399.54546    691268.97046                  22817777.6774
      -390.4144                         17.5004         14.0004
  20929806.8864  -14163826.39247 -10880820.81646                  20929811.3534
     -1839.7384                         26.5004         24.2504
  22413267.4094    3394743.25746   1027902.42045                  22413273.3714
     -1726.8964                         12.5004         11.0004
  21979189.2214  -11608829.53146  -7056144.79546                  21979195.1264
      1258.5014                         19.5004         18.5004
  24155612.3914    9646765.65744   7616820.92745                  24155616.5284
     -3907.7294                          7.2504          7.7504
  24605647.0134   10386135.14944   5302538.98245                  24605664.6864
     -1318.9834                          6.7504          6.5004
  22150335.1504  -10798038.81247  -7773064.64546                  22150337.7744
      1970.0384                         20.5004         16.5004
 04  3  1  0  8  0.0000000  0  9G26G22G18G 6G17G 9G29G30G21
  22254459.7594   -4380921.08646  -2569343.94846                  22254463.8374
     -3903.4754                         14.5004         13.0004
  24474458.2494    -344936.55145   -172701.62145                  24474462.3694
       230.1564                          8.2504          6.5004
  22819999.9094   -4193700.32846    700385.29246                  22820003.5484
      -390.0304                         16.0004         13.0004
  20940350.8784  -14108417.34647 -10837644.93446                  20940355.6484
     -1854.6864                         26.0004         23.7504
  22423160.6244    3446732.30545   1068413.34045                  22423166.7764
     -1739.5474                         11.2504         11.2504
  21972031.0264  -11646445.72847  -7085456.02146                  21972036.2364
      1248.7454                         21.0004         18.2504
  24177920.3194    9763994.26645   7708167.93845                  24177928.6724
     -3907.9814                          7.7504          7.5004
  24613148.9814   10425558.02144   5333258.06445                  24613168.1524
     -1309.6604                          6.2504          6.7504
  22139092.1624  -10857120.94247  -7819102.58846                  22139095.0714
      1968.2784                         20.0004         16.0004
 04  3  1  0  8 30.0000000  0  9G26G22G18G 6G17G 9G29G30G21
  22276764.5194   -4263708.39946  -2478009.39646                  22276769.3054
     -3910.6024                         13.2504         12.5004
  24473151.3814    -351803.17345   -178052.04645                  24473156.6424
       227.6934                          7.7504          6.2504
  22822226.2444   -4182000.24446    709502.31346                  22822230.3894
      -389.9024                         15.5004         13.5004
  20950982.5204  -14052547.66547 -10794110.11346                  20950986.8274
     -1869.8924                         26.2504         23.7504
  22433128.6074    3499114.18546   1109230.40645                  22433134.5274
     -1752.5224                         12.0004         10.7504
  21964931.3454  -11683754.38446  -7114527.62346                  21964937.4684
      1238.5624                         19.7504         17.7504
  24200232.0474    9881242.55145   7799530.40245                  24200242.3574
     -3908.4724                          8.2504          5.2504
  24620600.3034   10464715.18744   5363770.10845                  24620617.5234
     -1300.6794                          6.2504          7.0004
  22127861.7734  -10916136.69646  -7865088.80746                  22127864.4234
      1966.1644                         19.2504         15.5004
 04  3  1  0  9  0.0000000  0  9G26G22G18G 6G17G 9G29G30G21
  22299110.0234   -4146281.95446  -2386508.25746                  22299114.6354
     -3917.8424                         14.2504         12.5004
  24471858.7974    -358594.45545   -183343.71845                  24471862.8084
       225.0624                          7.7504          6.5004
  22824452.1594   -4170302.63746    718617.37546                  22824455.5454
      -389.9534                         15.5004         13.0004
  20961700.9304  -13996222.02847 -10750220.01946                  20961705.1894
     -1885.2124                         26.0004         23.7504
  22443171.0224    3551887.69745   1150352.61445                  22443176.5234
     -1765.7484                         11.0004         10.2504
  21957890.3214  -11720754.58047  -7143358.83746                  21957896.0444
      1228.0614                         20.0004         18.0004
  24222546.6374    9998506.03645   7890904.44345                  24222551.0434
     -3909.1124                          9.0004          8.7504
  24628000.4464   10503603.37443   5394072.54145                  24628019.5774
     -1291.8564                          5.5004          6.5004
  22116644.0684  -10975085.69947  -7911023.00946                  22116646.8444
      1963.7344                         20.2504         16.0004
 04  3  1  0  9 30.0000000  0  9G26G22G18G 6G17G 9G29G30G21
  22321495.5824   -4028645.09046  -2294843.12646                  22321499.9154
     -3924.6654                         14.7504         13.0004
  24470580.4484    -365311.53245   -188577.68545                  24470585.8004
       222.7154                          8.2504          6.2504
  22826677.2934   -4158608.96746    727729.38546                  22826682.4354
      -389.6614                         14.5004         12.7504
  20972505.8734  -13939441.67147 -10705975.57746                  20972510.4084
     -1900.1684                         26.5004         23.7504
  22453288.0884    3605053.44945   1191780.46245                  22453294.5214
     -1778.6724                         11.2504         10.5004
  21950908.6114  -11757443.30347  -7171947.35846                  21950914.1704
      1217.7754                         20.2504         18.0004
  24244863.6314   10115782.29945   7982288.58645                  24244867.2814
     -3909.3484                          9.0004          8.2504
  24635349.2304   10542221.52644   5424164.62845                  24635371.7754
     -1282.7154                          6.5004          5.7504
  22105439.5424  -11033965.42946  -7956903.23946                  22105442.5494
      1961.5234                         18.7504         16.0004
 04  3  1  0 10  0.0000000  0  9G26G22G18G 6G17G 9G29G30G21
  22343922.0864   -3910793.06846  -2203010.36946                  22343926.0704
     -3931.5874                         14.0004         13.0004
  24469317.3714    -371948.02944   -193748.83445                  24469322.5784
       220.2604                          7.2504          7.2504
  22828902.9644   -4146912.65846    736843.45846                  22828906.0854
      -389.5344                         16.0004         13.2504
  20983398.2904  -13882201.73447 -10661373.04246                  20983402.4854
     -1915.2904                         26.5004         24.0004
  22463481.4204    3658619.92645   1233520.56545                  22463487.3864
     -1791.8864                         10.7504         10.2504
  21943988.2224  -11793809.76947  -7200284.76146                  21943992.9604
      1207.1784                         21.0004         18.0004
  24267183.9734   10233076.67444   8073686.83545                  24267188.8424
     -3909.7124                          7.2504          7.7504
  24642647.8904   10580576.23943   5454051.36044                  24642666.6964
     -1273.7264                          5.5004          3.5004
  22094250.0934  -11092765.84346  -8002721.66746                  22094253.3704
      1959.0304                         18.7504         16.0004
 04  3  1  0 10 30.0000000  0  9G26G22G18G 6G17G 9G29G30G21
  22366386.4964   -3792741.79046  -2111022.33246                  22366390.4884
     -3938.4664                         14.0004         12.7504
  24468066.9044    -378518.17945   -198868.25945                  24468073.3024
       217.7624                          7.5004          6.7504
  22831126.4614   -4135227.60246    745948.75246                  22831130.4604
      -389.4154                         14.7504         12.5004
  20994375.5264  -13824516.04747 -10616423.16146                  20994380.0864
     -1930.3874                         26.0004         24.0004
  22473748.7784    3712575.07946   1275563.51145                  22473754.9414
     -1805.1324                         12.0004         10.5004
  21937127.4044  -11829863.36447  -7228378.38446                  21937132.5074
      1196.4074                         21.0004         18.0004
  24289504.9334   10350374.41744   8165087.71645                  24289511.9854
     -3910.0964                          7.0004          7.7504
  24649893.8144   10618653.89443   5483722.32445                  24649910.0694
     -1264.7694                          5.5004          6.0004
  22083073.8584  -11151497.04046  -8048486.15346                  22083076.9104
      1956.3864                         19.7504         16.5004
 04  3  1  0 11  0.0000000  0  9G26G22G18G 6G17G 9G29G30G21
  22388889.8494   -3674485.79446  -2018874.76946                  22388893.9074
     -3945.2184                         15.0004         12.7504
  24466830.5654    -385014.66844   -203930.31245                  24466837.4394
       215.3744                          6.7504          6.5004
  22833349.2704   -4123546.59046    755050.90546                  22833353.0564
      -389.2414                         16.0004         12.7504
  21005438.6974  -13766378.64447 -10571121.29146                  21005443.5704
     -1945.3654                         26.0004         23.5004
  22484091.9404    3766928.49646   1317916.80045                  22484097.7204
     -1818.3994                         12.2504         11.0004
  21930328.3534  -11865592.30247  -7256219.02946                  21930333.4444
      1185.5584                         21.2504         18.5004
  24311827.7604   10467681.68045   8256495.97045                  24311831.6234
     -3910.3264                          7.7504          7.0004
  24657088.6234   10656462.26643   5513183.37445                  24657107.6864
     -1255.7364                          6.0004          6.2504
  22071912.9664  -11210147.72247  -8094187.92146                  22071916.1074
      1953.6884                         20.2504         16.7504
 04  3  1  0 11 30.0000000  0  9G26G22G18G 6G17G 9G29G30G21
  22411430.9444   -3556031.45046  -1926572.66746                  22411435.2234
     -3952.0534                         14.5004         12.5004
  24465607.1874    -391442.32444   -208938.70845                  24465611.9224
       212.8214                          6.2504          6.5004
  22835570.4204   -4111874.23846    764146.29946                  22835574.1244
      -389.2324                         15.5004         13.0004
  21016586.8424  -13707794.77747 -10525471.51246                  21016591.7114
     -1960.5154                         25.0004         23.7504
  22494510.3734    3821677.35846   1360578.23345                  22494517.0174
     -1831.8364                         13.0004         11.5004
  21923591.0594  -11900996.82247  -7283806.88046                  21923595.9494
      1174.4034                         21.0004         18.7504
  24334151.3554   10584992.99445   8347907.44645                  24334154.8204
     -3910.7164                          8.0004          7.5004
  24664231.4054   10693997.07643   5542431.21045                  24664251.4194
     -1246.8864                          6.0004          5.7504
  22060767.2714  -11268718.52147  -8139827.44046                  22060770.9504
      1950.7104                         20.0004         17.0004
 04  3  1  0 12  0.0000000  0  9G26G22G18G 6G17G 9G29G30G21
  22434008.4894   -3437385.74846  -1834121.44746                  22434012.5324
     -3958.1084                         14.2504         12.5004
  24464396.0844    -397805.86644   -213897.17945                  24464403.4274
       210.9694                          6.2504          5.7504
  22837789.0144   -4100215.07746    773231.41346                  22837793.3104
      -388.5024                         15.7504         12.5004
  21027818.8614  -13648770.12747 -10479478.28346                  21027823.3654
     -1974.9044                         26.2504         23.7504
  22505003.4874    3876818.78446   1403545.55245                  22505008.9154
     -1844.6614                         12.0004         11.0004
  21916915.3934  -11936077.43147  -7311142.33746                  21916920.1784
      1163.8234                         21.5004         19.0004
  24356474.5744   10702302.46044   8439317.46745                  24356478.6574
     -3910.3484                          7.2504          7.5004
  24671321.2744   10731253.86944   5571462.53945                  24671335.5594
     -1237.3394                          6.5004          6.0004
  22049636.5004  -11327210.89847  -8185405.82646                  22049639.7644
      1948.3124                         20.5004         17.2504
 04  3  1  0 12 30.0000000  0  9G26G22G18G 6G17G 9G29G30G21
  22456623.1864   -3318544.65446  -1741517.97746                  22456627.2624
     -3964.2794                         14.0004         12.2504
  24463198.2834    -404100.00244   -218801.53645                  24463203.8964
       208.9604                          6.7504          6.7504
  22840006.1284   -4088563.71146    782310.44446                  22840009.6674
      -387.9504                         15.2504         12.7504
  21039135.6104  -13589300.13147 -10433138.01846                  21039140.5244
     -1989.4464                         26.2504         23.7504
  22515572.7524    3932360.43446   1446824.75445                  22515577.7974
     -1857.7394                         12.7504         10.7504
  21910303.2194  -11970824.36247  -7338217.78146                  21910307.9184
      1152.9294                         21.5004         19.2504
  24378798.3424   10819614.71944   8530729.66845                  24378799.1204
     -3910.1034                          7.0004          6.2504
  24678359.2634   10768238.35244   5600281.69845                  24678375.7564
     -1227.9904                          7.0004          5.5004
  22038522.4514  -11385615.31747  -8230915.68546                  22038525.3284
      1945.6214                         21.5004         17.5004
 04  3  1  0 13  0.0000000  0  9G26G22G18G 6G17G 9G29G30G21
  22479273.3644   -3199517.21646  -1648769.31746                  22479277.7254
     -3970.4664                         14.0004         12.2504
  24462012.2724    -410331.76344   -223657.32645                  24462018.0864
       206.8974                          6.2504          6.5004
  22842220.5014   -4076926.79346    791378.23046                  22842225.6454
      -387.4444                         15.5004         13.0004
  21050535.6484  -13529392.53747 -10386456.77746                  21050540.3814
     -2004.0084                         26.2504         23.7504
  22526217.1804    3988297.13546   1490411.78045                  22526222.7944
     -1870.9774                         12.7504         10.7504
  21903754.0354  -12005240.16747  -7365035.19746                  21903759.0884
      1141.8304                         21.2504         19.2504
  24401121.1134   10936921.82044   8622137.85045                  24401127.8524
     -3909.9404                          6.7504          6.2504
  24685344.1774   10804943.91643   5628883.51745                  24685362.8384
     -1218.6764                          5.0004          4.5004
  22027424.5024  -11443935.01047  -8276359.50746                  22027428.1684
      1942.7364                         21.0004         17.2504
 04  3  1  0 13 30.0000000  0  9G26G22G18G 6G17G 9G29G30G21
  22501959.3104   -3080301.80446  -1555874.14846                  22501963.5464
     -3976.9794                         13.5004         12.5004
  24460838.7494    -416498.00044   -228461.91245                  24460841.5104
       204.4074                          6.5004          6.7504
  22844432.8284   -4065300.82646    800437.50146                  22844436.8534
      -387.3664                         16.5004         13.2504
  21062019.5344  -13469044.25747 -10339432.13346                  21062024.0454
     -2018.9614                         26.0004         23.7504
  22536937.7974    4044634.40645   1534310.95945                  22536944.0114
     -1884.6034                         11.7504         10.5004
  21897269.3074  -12039317.19847  -7391588.64146                  21897273.9224
      1130.1964                         21.0004         18.7504
  24423443.3094   11054226.21644   8713543.99745                  24423449.0574
     -3910.0874                          6.2504          6.0004
  24692276.5974   10841374.48042   5657271.00444                  24692291.8444
     -1209.7914                          4.0004          3.7504
  22016344.0994  -11502162.57847  -8321731.55346                  22016346.7104
      1939.3264                         20.2504         16.7504
 04  3  1  0 14  0.0000000  0  9G26G22G18G 6G17G 9G29G30G21
  22524679.2824   -2960907.51446  -1462839.59346                  22524683.2834
     -3982.4364                         14.0004         12.5004
  24459676.3624    -422605.68944   -233221.07245                  24459682.0184
       202.9234                          6.7504          6.0004
  22846641.7294   -4053692.83346    809482.74646                  22846646.1394
      -386.2914                         15.5004         12.7504
  21073585.7304  -13408263.38447 -10292070.41246                  21073590.6824
     -2032.8924                         25.0004         23.5004
  22547733.6264    4101366.87746   1578518.03145                  22547738.9794
     -1897.3514                         13.0004         10.5004
  21890848.5264  -12073058.14247  -7417880.18746                  21890853.3244
      1119.3774                         20.2504         18.5004
  24445763.4214   11171519.64243   8804941.48945                  24445770.2504
     -3909.2524                          6.0004          6.0004
  24699155.3264   10877523.15842   5685438.66544                  24699177.2084
     -1199.9454                          3.7504          4.0004
  22005280.5414  -11560301.44847  -8367034.48146                  22005283.0414
      1936.7724                         20.2504         16.5004
 04  3  1  0 14 30.0000000  0  9G26G22G18G 6G17G 9G29G30G21
  22547434.0124   -2841330.45046  -1369662.65746                  22547438.9974
     -3989.0164                         13.2504         12.2504
  24458526.1534    -428649.36345   -237930.22645                  24458530.3684
       200.2964                          8.0004          7.5004
  22848848.3264   -4042097.01046    818518.50346                  22848852.3004
      -386.4204                         15.7504         12.7504
  21085235.1174  -13347045.37747 -10244368.06346                  21085239.6604
     -2047.9774                         25.2504         23.5004
  22558606.1064    4158501.94846   1623038.85545                  22558611.9104
     -1911.3374                         13.5004         10.7504
  21884493.6584  -12106452.78647  -7443901.89846                  21884498.0664
      1107.2324                         21.5004         18.7504
  24468082.3394   11288806.89243   8896334.20545                  24468086.3634
     -3909.5594                          5.5004          6.0004
  24705981.5404   10913395.97241   5713391.73745                  24706000.4244
     -1191.2304                          3.5004          5.5004
  21994235.6864  -11618342.10246  -8412260.87046                  21994238.8454
      1932.9074                         19.7504         17.2504
 04  3  1  0 15  0.0000000  0  9G26G22G18G 6G17G 9G29G30G21
  22570222.4414   -2721576.42246  -1276347.81946                  22570227.1364
     -3995.0264                         13.0004         12.2504
  24457387.3554    -434633.03745   -242592.76145                  24457394.7014
       198.1824                          9.5004          7.7504
  22851051.7814   -4030517.50046    827541.56446                  22851054.9624
      -386.0054                         16.2504         13.2504
  21096966.6914  -13285395.45847 -10196329.16846                  21096971.3424
     -2062.4744                         24.7504         23.2504
  22569554.7654    4216037.58346   1667871.81645                  22569560.4344
     -1924.8494                         12.0004         11.2504
  21878204.7234  -12139500.88347  -7469653.56346                  21878209.5934
      1095.4974                         20.5004         18.7504
  24490399.1864   11406082.99043   8987718.32245                  24490403.8174
     -3909.3264                          5.7504          6.0004
  24712754.4434   10948989.35241   5741126.78144                  24712782.3644
     -1182.0444                          3.0004          4.2504
  21983209.5294  -11676284.71247  -8457410.85046                  21983212.7654
      1929.4554                         20.5004         17.2504
 04  3  1  0 15 30.0000000  0  8G26G22G18G 6G17G 9G29G21
  22593045.2754   -2601641.36446  -1182891.89245                  22593049.8154
     -4000.7834                         13.0004         11.7504
  24456261.1114    -440550.96145   -247204.01745                  24456268.0644
       196.2054                          9.2504          8.5004
  22853253.3614   -4018947.84746    836556.93546                  22853257.0864
      -385.4464                         15.7504         13.0004
  21108781.3674  -13223308.97647 -10147950.08446                  21108786.3254
     -2076.7624                         24.7504         22.7504
  22580581.1474    4273981.60245   1713022.98445                  22580587.6994
     -1938.2494                         11.0004         11.0004
  21871983.7104  -12172192.13346  -7495127.18346                  21871988.6074
      1083.7634                         19.5004         18.7504
  24512714.9284   11523353.00244   9079097.62545                  24512721.8874
     -3908.8444                          6.2504          5.5004
  21972203.8804  -11734119.43647  -8502476.76646                  21972206.9244
      1926.0174                         20.2504         17.2504
 04  3  1  0 16  0.0000000  0  8G26G22G18G 6G17G 9G29G21
  22615901.2174   -2481532.49146  -1089300.56345                  22615905.0304
     -4006.3144                         12.2504         11.5004
  24455146.3674    -446408.50645   -251768.22145                  24455154.9444
       194.4454                         10.0004          9.0004
  22855452.0014   -4007393.66046    845560.27246                  22855455.1734
      -384.7024                         16.2504         13.2504
  21120677.9824  -13160791.83947 -10099235.43046                  21120682.5834
     -2090.8904                         25.0004         22.7504
  22591684.5284    4332330.37145   1758489.54045                  22591690.9614
     -1951.5354                         11.2504         10.2504
  21865830.3744  -12204527.79147  -7520323.71346                  21865835.3624
      1072.0714                         21.2504         19.2504
  24535028.2864   11640610.48344   9170467.19045                  24535033.4224
     -3908.1544                          6.2504          5.7504
  21961218.4164  -11791847.96747  -8547459.93946                  21961221.3784
      1922.6544                         21.2504         17.2504
 04  3  1  0 16 30.0000000  0  9G26G22G18G 6G17G 9G29G30G21
  22638789.1324   -2361255.59046   -995578.27045                  22638792.7784
     -4012.1124                         12.2504         11.7504
  24454042.3044    -452210.07645   -256288.76045                  24454048.6024
       192.3734                         10.0004          8.5004
  22857647.0024   -3995858.56046    854548.71446                  22857651.1744
      -384.2744                         15.0004         12.0004
  21132655.6824  -13097848.58747 -10050188.71846                  21132660.2804
     -2105.2994                         25.0004         22.5004
  22602864.5784    4391081.75146   1804269.82945                  22602869.9674
     -1965.1994                         12.0004         10.2504
  21859744.7974  -12236507.42047  -7545242.80846                  21859749.6974
      1059.9134                         22.2504         19.7504
  24557338.1754   11757850.61643   9261823.28445                  24557343.9574
     -3907.7864                          5.5004          5.2504
  24732758.5624      25463.61452
     -1154.0994                          4.7504
  21950253.1734  -11849470.30047  -8592360.36246                  21950255.9854
      1918.8314                         21.5004         18.0004
 04  3  1  0 17  0.0000000  0  9G26G22G18G 6G17G 9G29G30G21
  22661708.6934   -2240812.51446   -901726.49345                  22661714.2894
     -4017.5184                         12.7504         11.7504
  24452948.9134    -457955.76245   -260765.79345                  24452953.9964
       190.5954                          9.2504          8.2504
  22859838.2854   -3984342.72546    863522.14546                  22859841.6494
      -383.5364                         15.0004         12.7504
  21144714.2724  -13034480.21947 -10000810.77346                  21144718.9844
     -2119.3614                         24.7504         22.7504
  22614121.5314    4450237.19045   1850364.92645                  22614127.6764
     -1978.5974                         11.7504         10.2504
  21853727.7784  -12268126.91647  -7569881.29946                  21853732.3724
      1047.9344                         21.7504         19.7504
  24579644.7214   11875072.42043   9353164.95445                  24579646.9174
     -3907.1114                          6.0004          6.5004
  24739319.4414      59942.91742
     -1144.6014                          4.0004
  21939308.8454  -11906982.68547  -8637175.13146                  21939312.0674
      1915.1994                         20.5004         17.7504
 04  3  1  0 17 30.0000000  0  9G26G22G18G 6G17G 9G29G30G21
  22684657.5974   -2120214.91045   -807754.30945                  22684661.4074
     -4022.5774                         11.7504         10.7504
  24451864.2064    -463655.47745   -265207.00945                  24451869.8974
       189.1134                          8.7504          7.7504
  22862024.0264   -3972855.94046    872472.94646                  22862028.6154
      -382.5334                         15.2504         12.5004
  21156851.7484  -12970697.37047  -9951109.83346                  21156856.8404
     -2133.0704                         25.2504         23.0004
  22625453.8564    4509788.76246   1896768.77845                  22625460.5634
     -1991.7754                         12.2504         10.2504
  21847778.2494  -12299391.56147  -7594243.25746                  21847783.5904
      1036.0794                         21.0004         19.5004
  24601945.7314   11992265.16244   9444483.97845                  24601951.8374
     -3906.0244                          6.5004          5.7504
  24745825.4664      94131.57842     15067.77455                  24745847.1654
     -1135.0114                          4.2504          4.7504
  21928384.3754  -11964390.77547  -8681908.62546                  21928387.5444
      1911.7164                         21.7504         18.5004
 04  3  1  0 18  0.0000000  0  9G26G22G18G 6G17G 9G29G30G21
  22707636.1154   -1999462.05946   -713661.15346                  22707639.3754
     -4027.7984                         12.2504         12.0004
  24450788.7764    -469306.67445   -269610.38645                  24450794.5574
       187.4474                          9.2504          8.7504
  22864204.9094   -3961395.05746    881403.55846                  22864210.3354
      -381.7274                         15.0004         12.7504
  21169068.2374  -12906499.42547  -9901085.45946                  21169073.1254
     -2146.9614                         25.7504         23.0004
  22636862.4174    4569740.84046   1943484.63645                  22636868.1264
     -2005.2164                         12.2504         10.7504
  21841897.5254  -12330294.71747  -7618323.56446                  21841902.2824
      1023.9094                         21.7504         19.2504
  24624241.4754   12109430.41343   9535781.68045                  24624247.8584
     -3905.1534                          6.0004          5.7504
  24752276.6694     128032.65542     41484.35545                  24752302.1534
     -1125.4054                          4.5004          4.5004
  21917480.9364  -12021688.44247  -8726556.07946                  21917483.7194
      1907.9124                         21.2504         18.2504
 04  3  1  0 18 30.0000000  0  9G26G22G18G 6G17G 9G29G30G21
  22730645.2634   -1878548.14746   -619442.48746                  22730649.0514
     -4032.8754                         12.5004         12.0004
  24449724.0204    -474901.76145   -273970.01345                  24449730.4944
       185.8144                         10.0004          8.7504
  22866382.3604   -3949952.35146    890320.00046                  22866387.0824
      -380.8744                         16.0004         13.5004
  21181365.0124  -12841879.46447  -9850732.23046                  21181369.5874
     -2160.7884                         25.0004         23.2504
  22648348.9364    4630102.95046   1990520.01545                  22648354.6514
     -2018.6614                         12.5004         11.0004
  21836087.8604  -12360824.37847  -7642112.81346                  21836092.3084
      1011.6244                         21.7504         19.2504
  24646533.3534   12226575.18544   9627063.40545                  24646537.1014
     -3904.2154                          6.5004          6.5004
  24758674.6694     161654.41542     67683.20844                  24758690.4534
     -1115.8114                          4.2504          4.0004
  21906600.7994  -12078863.72647  -8771108.16446                  21906603.2264
      1904.0014                         21.7504         18.5004
 04  3  1  0 19  0.0000000  0  9G26G22G18G 6G17G 9G29G30G21
  22753683.4854   -1757481.40046   -525104.72646                  22753687.8654
     -4037.9404                         13.0004         12.0004
  24448668.7454    -480447.32445   -278291.12145                  24448675.1654
       184.1824                          9.5004          8.0004
  22868555.2014   -3938534.23146    899217.29446                  22868558.3974
      -380.0484                         17.7504         13.7504
  21193740.6694  -12776844.91147  -9800055.93946                  21193745.5134
     -2174.5794                         25.2504         23.0004
  22659912.5424    4690870.22345   2037871.10745                  22659918.2514
     -2032.1874                         11.2504         10.0004
  21830348.8144  -12390982.93547  -7665612.92046                  21830353.4284
       999.2004                         20.7504         19.0004
  24668819.9064   12343691.97944   9718323.27745                  24668824.1594
     -3903.2894                          6.5004          6.0004
  24765018.2994     194990.68242
     -1106.2654                          3.7504
  21895743.4574  -12135919.29747  -8815566.98146                  21895746.4254
      1899.9784                         23.0004         18.7504
 04  3  1  0 19 30.0000000  0  9G26G22G18G 6G17G 9G29G30G21
  22776749.7074   -1636267.64546   -430652.42246                  22776753.9324
     -4043.1434                         13.0004         12.0004
  24447622.0524    -485947.54245   -282576.79445                  24447625.0854
       182.3434                          9.0004          7.5004
  22870722.6914   -3927144.41046    908092.51746                  22870725.8134
      -379.4344                         18.2504         14.2504
  21206194.2844  -12711400.71547  -9749060.46346                  21206199.0684
     -2188.5334                         25.2504         22.7504
  22671552.7544    4752040.29445   2085536.11945                  22671558.0864
     -2045.9814                         10.7504         10.0004
  21824680.4494  -12420769.94947  -7688823.49146                  21824685.7294
       986.4134                         20.5004         18.7504
  24691100.2034   12460775.92944   9809557.61045                  24691104.0004
     -3902.4914                          6.2504          6.0004
  24771306.9774     228037.98942
     -1097.0334                          4.2504
  21884908.7504  -12192855.73747  -8859932.95746                  21884911.6154
      1895.5954                         21.7504         18.7504
 04  3  1  0 20  0.0000000  0  9G26G22G18G 6G17G 9G29G30G21
  22799844.2124   -1514904.87545   -336084.01945                  22799849.2914
     -4047.8214                         11.5004         11.2504
  24446584.6444    -491398.79345   -286824.36545                  24446588.1174
       180.9774                          9.0004          7.7504
  22872885.4094   -3915779.31546    916948.51446                  22872888.4604
      -378.3604                         17.7504         14.2504
  21218726.3124  -12645544.37747  -9697743.84046                  21218731.4284
     -2201.9934                         24.7504         22.5004
  22683270.6224    4813618.32745   2133518.92545                  22683276.7924
     -2059.3264                         11.2504         10.2504
  21819084.3054  -12450177.60347  -7711738.46746                  21819088.6564
       973.9644                         22.0004         19.2504
  24713374.7994   12577829.87444   9900768.53045                  24713381.8144
     -3901.1944                          7.2504          6.0004
  24777541.5354     260800.53443      5935.90155                  24777553.4464
     -1087.2724                          5.0004          5.5004
  21874098.1844  -12249665.02947  -8904199.86446                  21874100.9274
      1891.5624                         20.5004         18.2504
 04  3  1  0 20 30.0000000  0  9G26G22G18G 6G17G 9G29G30G21
  22822964.3064   -1393407.53445   -241410.71445                  22822968.2124
     -4052.2024                         11.5004         11.0004
  24445554.0634    -496813.90645   -291043.78745                  24445557.5214
       179.8424                          9.2504          7.2504
  22875041.1214   -3904450.93446    925775.86446                  22875044.0924
      -377.0514                         17.2504         13.5004
  21231334.1744  -12579289.60147  -9646116.73446                  21231338.8034
     -2215.2024                         25.0004         22.5004
  22695064.0784    4875593.48645   2181811.22945                  22695070.1684
     -2072.5264                         11.2504         10.2504
  21813558.7634  -12479214.18547  -7734364.30646                  21813563.6814
       961.6024                         20.5004         19.2504
  24735641.1144   12694840.19144   9991945.48345                  24735645.5144
     -3899.6614                          7.0004          6.5004
  24783719.4424     293266.10442     31233.81944                  24783741.7464
     -1077.2664                          4.5004          3.7504
  21863310.1954  -12306355.83547  -8948374.46246                  21863313.3424
      1887.6174                         21.5004         18.5004
 04  3  1  0 21  0.0000000  0  9G26G22G18G 6G17G 9G29G30G21
  22846111.2054   -1271769.41445   -146627.76445                  22846114.4394
     -4057.1244                         11.7504         11.0004
  24444531.8164    -502184.94845   -295228.78345                  24444538.1314
       178.1144                          8.5004          7.2504
  22877191.3014   -3893151.26446    934580.86846                  22877195.9464
      -376.3624                         16.2504         13.5004
  21244019.2414  -12512629.07247  -9594173.46246                  21244023.9504
     -2228.9474                         25.5004         23.0004
  22706935.0234    4937975.45845   2230420.55245                  22706941.3224
     -2086.3854                         11.2504         10.5004
  21808106.1334  -12507867.60147  -7756691.56546                  21808110.2384
       948.4924                         21.5004         19.2504
  24757900.4754   12811814.18044  10083094.17245                  24757905.7214
     -3898.6964                          6.7504          5.5004
  24789842.6114     325443.36142     56307.13245                  24789862.2464
     -1067.9744                          4.2504          5.0004
  21852547.0584  -12362916.26147  -8992447.45246                  21852549.7694
      1882.9454                         22.0004         18.7504
 04  3  1  0 21 30.0000000  0  9G26G22G18G 6G17G 9G29G30G21
  22869284.7634   -1149991.06845    -51735.49445                  22869288.1404
     -4061.4714                         10.7504         10.2504
  24443518.1564    -507510.82345   -299378.65345                  24443524.8374
       176.9374                          8.2504          7.0004
  22879336.3204   -3881878.92646    943364.53246                  22879340.5954
      -375.1384                         17.5004         13.7504
  21256781.4134  -12445563.30747  -9541914.41946                  21256786.4504
