     2.10           OBSERVATION DATA    G (GPS)             RINEX VERSION / TYPE
teqc  2002Mar14                         20040302 01:27:28UTCPGM / RUN BY / DATE
HP-UX 10.20|PA-RISC|cc A.10.32.03|=+|=|                     COMMENT
teqc  2002Mar14     GRD/NGS/NOAA        20040302 01:24:42UTCCOMMENT
BIT 2 OF LLI FLAGS DATA COLLECTED UNDER A/S CONDITION       COMMENT
CC2nonCC ESOC Version 6.5, 21 Mar 2012                      COMMENT
CC2nonCC executed 20151123 090140.588                       COMMENT
CC C1, P2 converted to non-CC type                          COMMENT
 average P1-C1 biases applied by CC2nonCC by PRN (ps):      COMMENT
    49          83  1603  -814   652  -551  -447   516 -1531COMMENT
   775        1649   460  -880  -283  -808   141 -5558  -931COMMENT
  -171   683         375   779  1373    84  -124   942  2124COMMENT
  -193                                                      COMMENT
MANA                                                        MARKER NAME
41201S001                                                   MARKER NUMBER
G. Medina           INETER                                  OBSERVER / AGENCY
3935A26606          TRIMBLE 4000SSI     7.29                REC # / TYPE / VERS
0220191257          TRM29659.00     UNAV                    ANT # / TYPE
   408026.0542 -6223016.5795  1333566.9255                  APPROX POSITION XYZ
        0.0000        0.0000        0.0000                  ANTENNA: DELTA H/E/N
     1     1                                                WAVELENGTH FACT L1/2
     9    C1    L1    L2    P1    P2    D1    D2    S1    S2# / TYPES OF OBSERV
    30.0000                                                 INTERVAL
 SNR is mapped to RINEX snr flag value [1-9]                COMMENT
  L1: 3 -> 1; 8 -> 5; 40 -> 9                               COMMENT
  L2: 1 -> 1; 5 -> 5; 60 -> 9                               COMMENT
teqc windowed: delta = 86400.000 sec                        COMMENT
Forced Modulo Decimation to 30 seconds                      COMMENT
  2004     3     1     0     0    0.0000000     GPS         TIME OF FIRST OBS
                                                            END OF HEADER
  4  3  1  0  0  0.0000000  0  9G26G22G18G 6G17G 9G29G30G21
  21903667.3444   -6224350.45646  -4005782.60746         0.000    21903671.3414
     -3773.2944          0.000          17.0004         15.2504
  24497590.2414    -223389.46844    -77992.66845         0.000    24497596.7214
       277.8214          0.000           7.2504          5.2504
  22784561.0344   -4379937.20946    555264.44746         0.000    22784565.3104
      -384.4834          0.000          16.0004         12.7504
  20782409.7144  -14938404.52247 -11484388.24446         0.000    20782414.3694
     -1601.3904          0.000          26.0004         24.0004
  22273727.6884    2661458.34345    456511.62545         0.000    22273732.6454
     -1534.1644          0.000          11.2504         11.2504
  22093173.6344  -11009844.38646  -6589404.68446         0.000    22093179.5704
      1398.8674          0.000          18.5004         17.0004
  23821749.6114    7892301.10345   6249705.35745         0.000    23821753.2034
     -3887.7124          0.000           8.7504          9.2504
  24487188.4334    9763634.08145   4817474.55745         0.000    24487205.7334
     -1447.0924          0.000           8.2504          8.0004
  22320186.6774   -9905467.95146  -7077556.18046         0.000    22320189.6774
      1993.1704          0.000          17.7504         14.7504
  4  3  1  0  0 30.0000000  0  9G26G22G18G 6G17G 9G29G30G21
  21925232.7814   -6111023.53846  -3917475.91246         0.000    21925236.4044
     -3781.9134          0.000          17.5004         15.2504
  24496012.3204    -231680.71043    -84453.30245         0.000    24496017.9474
       274.8064          0.000           5.2504          4.7504
  22786756.6874   -4368398.52046    564255.65746         0.000    22786761.1874
      -384.8684          0.000          14.2504         12.5004
  20791597.0364  -14890124.79347 -11446767.67946         0.000    20791601.8084
     -1617.3824          0.000          26.2504         24.2504
  22282520.5914    2707665.55246    492517.24245         0.000    22282525.4354
     -1546.4614          0.000          12.5004         11.0004
  22085210.9444  -11051688.08246  -6622010.06446         0.000    22085216.0704
      1390.5674          0.000          19.2504         16.7504
  23843948.0424    8008954.38245   6340604.01045         0.000    23843952.7464
     -3889.2724          0.000           8.5004          8.7504
  24495424.8974    9806916.19045   4851200.69945         0.000    24495443.9874
     -1438.5014          0.000           7.5004          7.2504
  22308809.5214   -9965254.91646  -7124143.33146         0.000    22308813.1154
      1992.4924          0.000          17.7504         14.5004
  4  3  1  0  1  0.0000000  0  9G26G22G18G 6G17G 9G29G30G21
  21946848.8964   -5997430.31646  -3828961.70746         0.000    21946852.7794
     -3790.8444          0.000          17.2504         14.7504
  24494453.1904    -239873.18443    -90836.79545         0.000    24494459.2094
       271.4704          0.000           5.5004          5.0004
  22788955.9914   -4356840.47146    573262.02246         0.000    22788960.3564
      -385.5574          0.000          15.2504         12.5004
  20800877.0844  -14841357.97647 -11408767.55246         0.000    20800881.5804
     -1633.6554          0.000          27.2504         25.0004
  22291385.4654    2754250.69746    528817.34645         0.000    22291389.5624
     -1559.1414          0.000          12.2504         11.2504
  22077297.5324  -11093272.83046  -6654413.66946         0.000    22077303.3494
      1381.8124          0.000          19.5004         17.7504
  23866156.6934    8125662.38345   6431545.33445         0.000    23866161.6924
     -3891.1354          0.000           7.5004          7.0004
  24503613.7604    9849948.51644   4884732.24845         0.000    24503632.9514
     -1430.1994          0.000           7.2504          7.5004
  22297438.0904  -10025011.81846  -7170707.07046         0.000    22297441.1344
      1991.3704          0.000          18.0004         14.7504
  4  3  1  0  1 30.0000000  0  9G26G22G18G 6G17G 9G29G30G21
  21968514.9414   -5883574.61146  -3740242.96646         0.000    21968518.7374
     -3799.5404          0.000          17.5004         15.2504
  24492912.4654    -247969.34344    -97145.27445         0.000    24492919.8494
       268.2504          0.000           6.5004          4.7504
  22791158.6694   -4345265.19146    582281.76246         0.000    22791162.1944
      -386.1264          0.000          14.7504         12.7504
  20810249.4274  -14792106.23347 -11370389.57046         0.000    20810254.4604
     -1649.8024          0.000          26.7504         25.0004
  22300322.3744    2801214.28946    565412.37745         0.000    22300327.2464
     -1571.7924          0.000          13.0004         11.2504
  22069433.8894  -11134596.10447  -6686613.50446         0.000    22069439.8854
      1373.0384          0.000          20.0004         18.0004
  23888375.2374    8242421.91045   6522526.81645         0.000    23888380.2764
     -3892.8134          0.000           7.7504          8.2504
  24511754.7814    9892729.25345   4918067.74145         0.000    24511772.2434
     -1421.8514          0.000           8.0004          6.7504
  22286072.7034  -10084737.14346  -7217246.19646         0.000    22286075.6554
      1990.2804          0.000          18.5004         14.7504
  4  3  1  0  2  0.0000000  0  9G26G22G18G 6G17G 9G29G30G21
  21990230.0484   -5769460.86446  -3651323.15646         0.000    21990234.4604
     -3808.0944          0.000          16.2504         14.2504
  24491389.5374    -255971.57045   -103380.61445         0.000    24491394.3434
       265.1474          0.000           7.5004          6.7504
  22793364.1234   -4333675.16146    591313.02946         0.000    22793368.0984
      -386.6084          0.000          14.5004         12.0004
  20819713.3994  -14742372.90347 -11331636.31646         0.000    20819717.7994
     -1665.8464          0.000          27.5004         25.2504
  22309331.2554    2848556.08246    602302.08945         0.000    22309336.8224
     -1584.4164          0.000          12.5004         11.5004
  22061620.3764  -11175656.08947  -6718608.20246         0.000    22061626.2374
      1364.1884          0.000          20.7504         18.2504
  23910602.8444    8359229.13744   6613545.47845         0.000    23910607.7804
     -3894.3714          0.000           7.0004          7.7504
  24519847.4634    9935255.85745   4951205.24545         0.000    24519863.8784
     -1413.3264          0.000           8.0004          6.5004
  22274713.4734  -10144430.03046  -7263760.03946         0.000    22274716.5624
      1989.1664          0.000          18.5004         14.7504
  4  3  1  0  2 30.0000000  0  9G26G22G18G 6G17G 9G29G30G21
  22011994.8164   -5655086.07946  -3562199.94646         0.000    22011999.6114
     -3816.7514          0.000          16.2504         14.7504
  24489885.4914    -263874.52645   -109538.55345         0.000    24489891.8794
       261.8544          0.000           7.7504          6.0004
  22795573.4024   -4322065.26246    600359.79046         0.000    22795577.0794
      -387.2404          0.000          15.7504         12.7504
  20829269.9394  -14692152.88247 -11292503.82346         0.000    20829274.8104
     -1682.0164          0.000          26.0004         24.7504
  22318413.4984    2896283.36146    639492.17945         0.000    22318420.3264
     -1597.2684          0.000          12.0004         11.2504
  22053858.7924  -11216443.02047  -6750390.11846         0.000    22053864.4364
      1355.0384          0.000          20.0004         18.0004
  23932840.3764    8476088.20045   6704604.48345         0.000    23932846.1144
     -3896.0884          0.000           7.5004          7.5004
  24527892.6834    9977533.54745   4984148.71445         0.000    24527910.5024
     -1405.0294          0.000           7.5004          7.0004
  22263362.0254  -10204081.94146  -7310241.96946         0.000    22263365.4254
      1987.7364          0.000          17.7504         15.2504
  4  3  1  0  3  0.0000000  0  9G26G22G18G 6G17G 9G29G30G21
  22033806.8214   -5540463.22046  -3472883.42446         0.000    22033811.0094
     -3824.9044          0.000          17.0004         14.5004
  24488398.1694    -271689.91945   -115628.24845         0.000    24488405.9584
       259.0074          0.000           7.7504          5.7504
  22797784.2104   -4310447.04746    609413.02446         0.000    22797789.8094
      -387.4504          0.000          14.2504         12.5004
  20838916.7504  -14641458.34847 -11253001.58346         0.000    20838921.5804
     -1697.7604          0.000          25.5004         24.7504
  22327567.3294    2944387.31245    676975.78245         0.000    22327573.6004
     -1609.8174          0.000          11.0004         11.2504
  22046147.8944  -11256963.70047  -6781964.56846         0.000    22046152.8684
      1346.1614          0.000          21.7504         18.5004
  23955085.3914    8592986.78945   6795694.31745         0.000    23955092.6944
     -3897.3214          0.000           8.0004          8.0004
  24535888.4234   10019551.16245   5016889.61445         0.000    24535907.3514
     -1396.2904          0.000           7.7504          8.2504
  22252017.0264  -10263699.88446  -7356697.41046         0.000    22252020.8404
      1986.6264          0.000          17.5004         14.7504
  4  3  1  0  3 30.0000000  0  9G26G22G18G 6G17G 9G29G30G21
  22055667.4474   -5425584.75746  -3383367.72546         0.000    22055671.4774
     -3833.4044          0.000          16.2504         14.0004
  24486929.3174    -279407.97545   -121642.18645         0.000    24486934.7954
       255.7644          0.000           7.7504          7.0004
  22799998.4124   -4298810.73346    618480.36846         0.000    22800002.9304
      -388.0744          0.000          14.7504         12.7504
  20848655.6514  -14590279.90847 -11213122.27346         0.000    20848660.8224
     -1713.8984          0.000          26.2504         24.2504
  22336795.0894    2992879.87945    714762.20145         0.000    22336800.0454
     -1622.8094          0.000          11.2504         10.7504
  22038490.3354  -11297204.10347  -6813320.63046         0.000    22038496.1574
      1336.7344          0.000          20.2504         18.2504
  23977339.5794    8709933.18245   6886821.40645         0.000    23977346.2004
     -3898.8934          0.000           8.0004          8.7504
  24543836.5434   10061318.44245   5049435.45445         0.000    24543854.3914
     -1387.9514          0.000           8.0004          8.0004
  22240680.8894  -10323271.03846  -7403116.41546         0.000    22240684.1674
      1984.9954          0.000          16.7504         14.5004
  4  3  1  0  4  0.0000000  0  9G26G22G18G 6G17G 9G29G30G21
  22077575.1244   -5310459.20246  -3293659.50546         0.000    22077579.2674
     -3841.6164          0.000          16.0004         14.0004
  24485477.7044    -287035.57945   -127585.57445         0.000    24485483.3194
       252.7314          0.000           9.0004          6.7504
  22802214.8914   -4287162.67146    627556.86546         0.000    22802218.8704
      -388.4564          0.000          14.5004         12.5004
  20858485.3434  -14538624.48647 -11172871.29446         0.000    20858490.4244
     -1729.7774          0.000          27.0004         24.7504
  22346095.9384    3041756.47746    752847.83945         0.000    22346102.0144
     -1635.6564          0.000          12.2504         10.5004
  22030885.7244  -11337166.25046  -6844459.84046         0.000    22030891.6544
      1327.3874          0.000          19.5004         18.2504
  23999601.3004    8826919.72644   6977979.77245         0.000    23999607.1024
     -3900.1944          0.000           6.7504          8.0004
  24551735.8604   10102829.01245   5081781.34645         0.000    24551753.6184
     -1379.4014          0.000           8.2504          7.2504
  22229353.1924  -10382798.00746  -7449500.97846         0.000    22229356.5104
      1983.4614          0.000          18.2504         14.5004
  4  3  1  0  4 30.0000000  0  9G26G22G18G 6G17G 9G29G30G21
  22099528.9774   -5195090.74046  -3203761.99246         0.000    22099533.3094
     -3849.4104          0.000          15.7504         14.0004
  24484042.8714    -294574.90945   -133460.19745         0.000    24484050.3064
       250.0594          0.000           9.7504          6.7504
  22804433.0934   -4275505.43046    636640.50846         0.000    22804437.1784
      -388.5104          0.000          15.2504         13.0004
  20868405.2784  -14486495.06047 -11132250.95346         0.000    20868410.1134
     -1745.3314          0.000          27.7504         25.2504
  22355469.9924    3091017.41545    791232.97645         0.000    22355475.8914
     -1648.2594          0.000          11.7504         11.2504
  22023334.4464  -11376847.97246  -6875380.56246         0.000    22023339.7174
      1318.2124          0.000          19.5004         17.2504
  24021870.0794    8943943.02044   7069166.78145         0.000    24021872.5434
     -3901.1684          0.000           7.2504          8.0004
  24559585.9064   10144080.64845   5113925.33545         0.000    24559601.3874
     -1370.5184          0.000           8.7504          7.5004
  22218034.1844  -10442279.50746  -7495850.10946         0.000    22218036.9974
      1982.1284          0.000          18.7504         15.7504
  4  3  1  0  5  0.0000000  0  9G26G22G18G 6G17G 9G29G30G21
  22121528.3714   -5079483.01646  -3113678.03646         0.000    22121532.2254
     -3857.8564          0.000          15.2504         14.0004
  24482624.5654    -302027.80445   -139267.40745         0.000    24482630.7024
       246.6924          0.000          11.5004          6.0004
  22806652.7584   -4263840.74246    645729.95446         0.000    22806658.3664
      -389.2384          0.000          15.5004         13.0004
  20878414.9214  -14433894.00047 -11091263.10846         0.000    20878420.0674
     -1761.5164          0.000          26.5004         24.5004
  22364917.2504    3140662.82946    829917.73845         0.000    22364923.1304
     -1661.5394          0.000          13.0004         11.0004
  22015837.0764  -11416246.50546  -6906080.60846         0.000    22015842.7044
      1308.2294          0.000          19.5004         17.7504
  24044145.3644    9061000.35245   7160380.33245         0.000    24044150.5364
     -3902.7864          0.000           7.7504          8.0004
  24567386.3534   10185071.87345   5145866.46145         0.000    24567403.9814
     -1362.3234          0.000           9.0004          7.0004
  22206724.1554  -10501713.76946  -7542162.44646         0.000    22206727.3154
      1980.0194          0.000          19.0004         16.0004
  4  3  1  0  5 30.0000000  0  9G26G22G18G 6G17G 9G29G30G21
  22143573.4774   -4963635.08546  -3023406.91046         0.000    22143577.5854
     -3865.7144          0.000          15.2504         13.5004
  24481223.1774    -309391.49945   -145005.19045         0.000    24481228.8144
       243.8284          0.000          10.5004          7.5004
  22808874.4034   -4252165.99446    654827.25946         0.000    22808877.5234
      -389.4714          0.000          16.5004         13.2504
  20888514.7794  -14380818.78447 -11049905.79346         0.000    20888519.7524
     -1777.2054          0.000          26.0004         24.5004
  22374438.6284    3190697.86846    868906.07645         0.000    22374444.9244
     -1674.4964          0.000          12.2504         11.0004
  22008394.9324  -11455354.70346  -6936554.42546         0.000    22008400.0624
      1298.5874          0.000          19.2504         17.2504
  24066427.3004    9178093.40244   7251621.64945         0.000    24066433.6684
     -3903.8144          0.000           6.5004          7.5004
  24575137.8074   10225805.60445   5177607.00645         0.000    24575156.7204
     -1353.6464          0.000           9.0004          8.2504
  22195424.3714  -10561094.26446  -7588432.87446         0.000    22195427.5914
      1978.2744          0.000          19.2504         15.7504
  4  3  1  0  6  0.0000000  0  9G26G22G18G 6G17G 9G29G30G21
  22165663.1414   -4847553.05146  -2932953.35946         0.000    22165667.4504
     -3873.0794          0.000          15.0004         13.5004
  24479837.8694    -316670.32445   -150676.81345         0.000    24479844.5204
       241.4474          0.000          10.5004          7.5004
  22811097.1274   -4240485.31046    663929.15946         0.000    22811101.8874
      -389.2424          0.000          16.0004         13.0004
  20898703.8694  -14327274.64047 -11008183.08246         0.000    20898709.1444
     -1792.4044          0.000          26.0004         24.2504
  22384033.7374    3241120.53046    908196.47545         0.000    22384039.2874
     -1687.0304          0.000          12.2504         10.7504
  22001008.0794  -11494172.32847  -6966801.81246         0.000    22001013.2784
      1289.2414          0.000          20.0004         17.7504
  24088715.1124    9295216.83444   7342886.72245         0.000    24088719.4114
     -3904.4094          0.000           6.7504          7.0004
  24582839.5654   10266277.90945   5209143.81345         0.000    24582856.4494
     -1344.4974          0.000           8.7504          8.5004
  22184134.6994  -10620421.45346  -7634661.75646         0.000    22184138.1704
      1976.8554          0.000          19.2504         15.5004
  4  3  1  0  6 30.0000000  0  9G26G22G18G 6G17G 9G29G30G21
  22187797.3144   -4731237.21446  -2842317.64346         0.000    22187801.6484
     -3881.1444          0.000          15.0004         13.7504
  24478469.0584    -323862.56345   -156280.99245         0.000    24478473.0304
       238.2404          0.000           9.2504          8.0004
  22813321.3784   -4228796.87246    673037.12246         0.000    22813326.1734
      -389.8094          0.000          16.2504         13.5004
  20908982.4614  -14273260.31047 -10966093.99846         0.000    20908987.2644
     -1808.3764          0.000          27.0004         24.7504
  22393703.3234    3291934.70045    947791.91545         0.000    22393709.3214
     -1700.4174          0.000          11.7504         10.7504
  21993677.7414  -11532693.22247  -6996818.00746         0.000    21993682.7754
      1278.9694          0.000          20.2504         17.7504
  24111008.8924    9412371.18845   7434175.82945         0.000    24111012.5764
     -3905.7204          0.000           7.7504          7.2504
  24590491.7314   10306490.47944   5240478.26045         0.000    24590508.8534
     -1336.1604          0.000           7.2504          7.5004
  22172856.2354  -10679689.85946  -7680844.86046         0.000    22172859.5824
      1974.5224          0.000          18.7504         16.0004
  4  3  1  0  7  0.0000000  0  9G26G22G18G 6G17G 9G29G30G21
  22209976.0114   -4614687.32146  -2751499.50846         0.000    22209980.1514
     -3888.7214          0.000          14.7504         13.2504
  24477116.9964    -330966.33145   -161816.16245         0.000    24477125.5104
       235.4444          0.000           9.0004          7.2504
  22815547.5034   -4217098.49946    682152.80846         0.000    22815551.6964
      -389.9854          0.000          16.5004         13.5004
  20919350.8044  -14218774.43947 -10923637.47346         0.000    20919355.6014
     -1823.9194          0.000          26.5004         24.5004
  22403448.2254    3343144.58445    987695.70745         0.000    22403453.7784
     -1713.4584          0.000          11.7504         11.0004
  21986405.1714  -11570910.59147  -7026597.67246         0.000    21986410.3734
      1268.9524          0.000          21.2504         18.2504
  24133308.7584    9529557.55245   7525489.92845         0.000    24133313.8674
     -3906.6064          0.000           8.0004          7.7504
  24598095.0954   10346445.99444   5271612.36845         0.000    24598111.4434
     -1327.4394          0.000           6.5004          6.7504
  22161590.0554  -10738893.77046  -7726977.68946         0.000    22161593.6594
      1972.5054          0.000          19.5004         16.5004
  4  3  1  0  7 30.0000000  0  9G26G22G18G 6G17G 9G29G30G21
  22232197.1064   -4497914.57046  -2660507.73546         0.000    22232201.6834
     -3896.5544          0.000          14.7504         13.0004
  24475780.2364    -337990.94745   -167289.69145         0.000    24475785.4194
       232.3764          0.000           9.7504          7.7504
  22817773.7394   -4205399.54546    691268.97046         0.000    22817777.7194
      -390.4144          0.000          17.5004         14.0004
  20929807.0814  -14163826.39247 -10880820.81646         0.000    20929811.5484
     -1839.7384          0.000          26.5004         24.2504
  22413267.1674    3394743.25746   1027902.42045         0.000    22413273.1294
     -1726.8964          0.000          12.5004         11.0004
  21979189.3764  -11608829.53146  -7056144.79546         0.000    21979195.2814
      1258.5014          0.000          19.5004         18.5004
  24155612.6734    9646765.65744   7616820.92745         0.000    24155616.8104
     -3907.7294          0.000           7.2504          7.7504
  24605647.6504   10386135.14944   5302538.98245         0.000    24605665.3234
     -1318.9834          0.000           6.7504          6.5004
  22150335.0994  -10798038.81247  -7773064.64546         0.000    22150337.7234
      1970.0384          0.000          20.5004         16.5004
  4  3  1  0  8  0.0000000  0  9G26G22G18G 6G17G 9G29G30G21
  22254460.1714   -4380921.08646  -2569343.94846         0.000    22254464.2494
     -3903.4754          0.000          14.5004         13.0004
  24474458.4544    -344936.55145   -172701.62145         0.000    24474462.5744
       230.1564          0.000           8.2504          6.5004
  22819999.9514   -4193700.32846    700385.29246         0.000    22820003.5904
      -390.0304          0.000          16.0004         13.0004
  20940351.0734  -14108417.34647 -10837644.93446         0.000    20940355.8434
     -1854.6864          0.000          26.0004         23.7504
  22423160.3824    3446732.30545   1068413.34045         0.000    22423166.5344
     -1739.5474          0.000          11.2504         11.2504
  21972031.1814  -11646445.72847  -7085456.02146         0.000    21972036.3914
      1248.7454          0.000          21.0004         18.2504
  24177920.6014    9763994.26645   7708167.93845         0.000    24177928.9544
     -3907.9814          0.000           7.7504          7.5004
  24613149.6184   10425558.02144   5333258.06445         0.000    24613168.7894
     -1309.6604          0.000           6.2504          6.7504
  22139092.1114  -10857120.94247  -7819102.58846         0.000    22139095.0204
      1968.2784          0.000          20.0004         16.0004
  4  3  1  0  8 30.0000000  0  9G26G22G18G 6G17G 9G29G30G21
  22276764.9314   -4263708.39946  -2478009.39646         0.000    22276769.7174
     -3910.6024          0.000          13.2504         12.5004
  24473151.5864    -351803.17345   -178052.04645         0.000    24473156.8474
       227.6934          0.000           7.7504          6.2504
  22822226.2864   -4182000.24446    709502.31346         0.000    22822230.4314
      -389.9024          0.000          15.5004         13.5004
  20950982.7154  -14052547.66547 -10794110.11346         0.000    20950987.0224
     -1869.8924          0.000          26.2504         23.7504
  22433128.3654    3499114.18546   1109230.40645         0.000    22433134.2854
     -1752.5224          0.000          12.0004         10.7504
  21964931.5004  -11683754.38446  -7114527.62346         0.000    21964937.6234
      1238.5624          0.000          19.7504         17.7504
  24200232.3294    9881242.55145   7799530.40245         0.000    24200242.6394
     -3908.4724          0.000           8.2504          5.2504
  24620600.9404   10464715.18744   5363770.10845         0.000    24620618.1604
     -1300.6794          0.000           6.2504          7.0004
  22127861.7224  -10916136.69646  -7865088.80746         0.000    22127864.3724
      1966.1644          0.000          19.2504         15.5004
  4  3  1  0  9  0.0000000  0  9G26G22G18G 6G17G 9G29G30G21
  22299110.4354   -4146281.95446  -2386508.25746         0.000    22299115.0474
     -3917.8424          0.000          14.2504         12.5004
  24471859.0024    -358594.45545   -183343.71845         0.000    24471863.0134
       225.0624          0.000           7.7504          6.5004
  22824452.2014   -4170302.63746    718617.37546         0.000    22824455.5874
      -389.9534          0.000          15.5004         13.0004
  20961701.1254  -13996222.02847 -10750220.01946         0.000    20961705.3844
     -1885.2124          0.000          26.0004         23.7504
  22443170.7804    3551887.69745   1150352.61445         0.000    22443176.2814
     -1765.7484          0.000          11.0004         10.2504
  21957890.4764  -11720754.58047  -7143358.83746         0.000    21957896.1994
      1228.0614          0.000          20.0004         18.0004
  24222546.9194    9998506.03645   7890904.44345         0.000    24222551.3254
     -3909.1124          0.000           9.0004          8.7504
  24628001.0834   10503603.37443   5394072.54145         0.000    24628020.2144
     -1291.8564          0.000           5.5004          6.5004
  22116644.0174  -10975085.69947  -7911023.00946         0.000    22116646.7934
      1963.7344          0.000          20.2504         16.0004
  4  3  1  0  9 30.0000000  0  9G26G22G18G 6G17G 9G29G30G21
  22321495.9944   -4028645.09046  -2294843.12646         0.000    22321500.3274
     -3924.6654          0.000          14.7504         13.0004
  24470580.6534    -365311.53245   -188577.68545         0.000    24470586.0054
       222.7154          0.000           8.2504          6.2504
  22826677.3354   -4158608.96746    727729.38546         0.000    22826682.4774
      -389.6614          0.000          14.5004         12.7504
  20972506.0684  -13939441.67147 -10705975.57746         0.000    20972510.6034
     -1900.1684          0.000          26.5004         23.7504
  22453287.8464    3605053.44945   1191780.46245         0.000    22453294.2794
     -1778.6724          0.000          11.2504         10.5004
  21950908.7664  -11757443.30347  -7171947.35846         0.000    21950914.3254
      1217.7754          0.000          20.2504         18.0004
  24244863.9134   10115782.29945   7982288.58645         0.000    24244867.5634
     -3909.3484          0.000           9.0004          8.2504
  24635349.8674   10542221.52644   5424164.62845         0.000    24635372.4124
     -1282.7154          0.000           6.5004          5.7504
  22105439.4914  -11033965.42946  -7956903.23946         0.000    22105442.4984
      1961.5234          0.000          18.7504         16.0004
  4  3  1  0 10  0.0000000  0  9G26G22G18G 6G17G 9G29G30G21
  22343922.4984   -3910793.06846  -2203010.36946         0.000    22343926.4824
     -3931.5874          0.000          14.0004         13.0004
  24469317.5764    -371948.02944   -193748.83445         0.000    24469322.7834
       220.2604          0.000           7.2504          7.2504
  22828903.0064   -4146912.65846    736843.45846         0.000    22828906.1274
      -389.5344          0.000          16.0004         13.2504
  20983398.4854  -13882201.73447 -10661373.04246         0.000    20983402.6804
     -1915.2904          0.000          26.5004         24.0004
  22463481.1784    3658619.92645   1233520.56545         0.000    22463487.1444
     -1791.8864          0.000          10.7504         10.2504
  21943988.3774  -11793809.76947  -7200284.76146         0.000    21943993.1154
      1207.1784          0.000          21.0004         18.0004
  24267184.2554   10233076.67444   8073686.83545         0.000    24267189.1244
     -3909.7124          0.000           7.2504          7.7504
  24642648.5274   10580576.23943   5454051.36044         0.000    24642667.3334
     -1273.7264          0.000           5.5004          3.5004
  22094250.0424  -11092765.84346  -8002721.66746         0.000    22094253.3194
      1959.0304          0.000          18.7504         16.0004
  4  3  1  0 10 30.0000000  0  9G26G22G18G 6G17G 9G29G30G21
  22366386.9084   -3792741.79046  -2111022.33246         0.000    22366390.9004
     -3938.4664          0.000          14.0004         12.7504
  24468067.1094    -378518.17945   -198868.25945         0.000    24468073.5074
       217.7624          0.000           7.5004          6.7504
  22831126.5034   -4135227.60246    745948.75246         0.000    22831130.5024
      -389.4154          0.000          14.7504         12.5004
  20994375.7214  -13824516.04747 -10616423.16146         0.000    20994380.2814
     -1930.3874          0.000          26.0004         24.0004
  22473748.5364    3712575.07946   1275563.51145         0.000    22473754.6994
     -1805.1324          0.000          12.0004         10.5004
  21937127.5594  -11829863.36447  -7228378.38446         0.000    21937132.6624
      1196.4074          0.000          21.0004         18.0004
  24289505.2154   10350374.41744   8165087.71645         0.000    24289512.2674
     -3910.0964          0.000           7.0004          7.7504
  24649894.4514   10618653.89443   5483722.32445         0.000    24649910.7064
     -1264.7694          0.000           5.5004          6.0004
  22083073.8074  -11151497.04046  -8048486.15346         0.000    22083076.8594
      1956.3864          0.000          19.7504         16.5004
  4  3  1  0 11  0.0000000  0  9G26G22G18G 6G17G 9G29G30G21
  22388890.2614   -3674485.79446  -2018874.76946         0.000    22388894.3194
     -3945.2184          0.000          15.0004         12.7504
  24466830.7704    -385014.66844   -203930.31245         0.000    24466837.6444
       215.3744          0.000           6.7504          6.5004
  22833349.3124   -4123546.59046    755050.90546         0.000    22833353.0984
      -389.2414          0.000          16.0004         12.7504
  21005438.8924  -13766378.64447 -10571121.29146         0.000    21005443.7654
     -1945.3654          0.000          26.0004         23.5004
  22484091.6984    3766928.49646   1317916.80045         0.000    22484097.4784
     -1818.3994          0.000          12.2504         11.0004
  21930328.5084  -11865592.30247  -7256219.02946         0.000    21930333.5994
      1185.5584          0.000          21.2504         18.5004
  24311828.0424   10467681.68045   8256495.97045         0.000    24311831.9054
     -3910.3264          0.000           7.7504          7.0004
  24657089.2604   10656462.26643   5513183.37445         0.000    24657108.3234
     -1255.7364          0.000           6.0004          6.2504
  22071912.9154  -11210147.72247  -8094187.92146         0.000    22071916.0564
      1953.6884          0.000          20.2504         16.7504
  4  3  1  0 11 30.0000000  0  9G26G22G18G 6G17G 9G29G30G21
  22411431.3564   -3556031.45046  -1926572.66746         0.000    22411435.6354
     -3952.0534          0.000          14.5004         12.5004
  24465607.3924    -391442.32444   -208938.70845         0.000    24465612.1274
       212.8214          0.000           6.2504          6.5004
  22835570.4624   -4111874.23846    764146.29946         0.000    22835574.1664
      -389.2324          0.000          15.5004         13.0004
  21016587.0374  -13707794.77747 -10525471.51246         0.000    21016591.9064
     -1960.5154          0.000          25.0004         23.7504
  22494510.1314    3821677.35846   1360578.23345         0.000    22494516.7754
     -1831.8364          0.000          13.0004         11.5004
  21923591.2144  -11900996.82247  -7283806.88046         0.000    21923596.1044
      1174.4034          0.000          21.0004         18.7504
  24334151.6374   10584992.99445   8347907.44645         0.000    24334155.1024
     -3910.7164          0.000           8.0004          7.5004
  24664232.0424   10693997.07643   5542431.21045         0.000    24664252.0564
     -1246.8864          0.000           6.0004          5.7504
  22060767.2204  -11268718.52147  -8139827.44046         0.000    22060770.8994
      1950.7104          0.000          20.0004         17.0004
  4  3  1  0 12  0.0000000  0  9G26G22G18G 6G17G 9G29G30G21
  22434008.9014   -3437385.74846  -1834121.44746         0.000    22434012.9444
     -3958.1084          0.000          14.2504         12.5004
  24464396.2894    -397805.86644   -213897.17945         0.000    24464403.6324
       210.9694          0.000           6.2504          5.7504
  22837789.0564   -4100215.07746    773231.41346         0.000    22837793.3524
      -388.5024          0.000          15.7504         12.5004
  21027819.0564  -13648770.12747 -10479478.28346         0.000    21027823.5604
     -1974.9044          0.000          26.2504         23.7504
  22505003.2454    3876818.78446   1403545.55245         0.000    22505008.6734
     -1844.6614          0.000          12.0004         11.0004
  21916915.5484  -11936077.43147  -7311142.33746         0.000    21916920.3334
      1163.8234          0.000          21.5004         19.0004
  24356474.8564   10702302.46044   8439317.46745         0.000    24356478.9394
     -3910.3484          0.000           7.2504          7.5004
  24671321.9114   10731253.86944   5571462.53945         0.000    24671336.1964
     -1237.3394          0.000           6.5004          6.0004
  22049636.4494  -11327210.89847  -8185405.82646         0.000    22049639.7134
      1948.3124          0.000          20.5004         17.2504
  4  3  1  0 12 30.0000000  0  9G26G22G18G 6G17G 9G29G30G21
  22456623.5984   -3318544.65446  -1741517.97746         0.000    22456627.6744
     -3964.2794          0.000          14.0004         12.2504
  24463198.4884    -404100.00244   -218801.53645         0.000    24463204.1014
       208.9604          0.000           6.7504          6.7504
  22840006.1704   -4088563.71146    782310.44446         0.000    22840009.7094
      -387.9504          0.000          15.2504         12.7504
  21039135.8054  -13589300.13147 -10433138.01846         0.000    21039140.7194
     -1989.4464          0.000          26.2504         23.7504
  22515572.5104    3932360.43446   1446824.75445         0.000    22515577.5554
     -1857.7394          0.000          12.7504         10.7504
  21910303.3744  -11970824.36247  -7338217.78146         0.000    21910308.0734
      1152.9294          0.000          21.5004         19.2504
  24378798.6244   10819614.71944   8530729.66845         0.000    24378799.4024
     -3910.1034          0.000           7.0004          6.2504
  24678359.9004   10768238.35244   5600281.69845         0.000    24678376.3934
     -1227.9904          0.000           7.0004          5.5004
  22038522.4004  -11385615.31747  -8230915.68546         0.000    22038525.2774
      1945.6214          0.000          21.5004         17.5004
  4  3  1  0 13  0.0000000  0  9G26G22G18G 6G17G 9G29G30G21
  22479273.7764   -3199517.21646  -1648769.31746         0.000    22479278.1374
     -3970.4664          0.000          14.0004         12.2504
  24462012.4774    -410331.76344   -223657.32645         0.000    24462018.2914
       206.8974          0.000           6.2504          6.5004
  22842220.5434   -4076926.79346    791378.23046         0.000    22842225.6874
      -387.4444          0.000          15.5004         13.0004
  21050535.8434  -13529392.53747 -10386456.77746         0.000    21050540.5764
     -2004.0084          0.000          26.2504         23.7504
  22526216.9384    3988297.13546   1490411.78045         0.000    22526222.5524
     -1870.9774          0.000          12.7504         10.7504
  21903754.1904  -12005240.16747  -7365035.19746         0.000    21903759.2434
      1141.8304          0.000          21.2504         19.2504
  24401121.3954   10936921.82044   8622137.85045         0.000    24401128.1344
     -3909.9404          0.000           6.7504          6.2504
  24685344.8144   10804943.91643   5628883.51745         0.000    24685363.4754
     -1218.6764          0.000           5.0004          4.5004
  22027424.4514  -11443935.01047  -8276359.50746         0.000    22027428.1174
      1942.7364          0.000          21.0004         17.2504
  4  3  1  0 13 30.0000000  0  9G26G22G18G 6G17G 9G29G30G21
  22501959.7224   -3080301.80446  -1555874.14846         0.000    22501963.9584
     -3976.9794          0.000          13.5004         12.5004
  24460838.9544    -416498.00044   -228461.91245         0.000    24460841.7154
       204.4074          0.000           6.5004          6.7504
  22844432.8704   -4065300.82646    800437.50146         0.000    22844436.8954
      -387.3664          0.000          16.5004         13.2504
  21062019.7294  -13469044.25747 -10339432.13346         0.000    21062024.2404
     -2018.9614          0.000          26.0004         23.7504
  22536937.5554    4044634.40645   1534310.95945         0.000    22536943.7694
     -1884.6034          0.000          11.7504         10.5004
  21897269.4624  -12039317.19847  -7391588.64146         0.000    21897274.0774
      1130.1964          0.000          21.0004         18.7504
  24423443.5914   11054226.21644   8713543.99745         0.000    24423449.3394
     -3910.0874          0.000           6.2504          6.0004
  24692277.2344   10841374.48042   5657271.00444         0.000    24692292.4814
     -1209.7914          0.000           4.0004          3.7504
  22016344.0484  -11502162.57847  -8321731.55346         0.000    22016346.6594
      1939.3264          0.000          20.2504         16.7504
  4  3  1  0 14  0.0000000  0  9G26G22G18G 6G17G 9G29G30G21
  22524679.6944   -2960907.51446  -1462839.59346         0.000    22524683.6954
     -3982.4364          0.000          14.0004         12.5004
  24459676.5674    -422605.68944   -233221.07245         0.000    24459682.2234
       202.9234          0.000           6.7504          6.0004
  22846641.7714   -4053692.83346    809482.74646         0.000    22846646.1814
      -386.2914          0.000          15.5004         12.7504
  21073585.9254  -13408263.38447 -10292070.41246         0.000    21073590.8774
     -2032.8924          0.000          25.0004         23.5004
  22547733.3844    4101366.87746   1578518.03145         0.000    22547738.7374
     -1897.3514          0.000          13.0004         10.5004
  21890848.6814  -12073058.14247  -7417880.18746         0.000    21890853.4794
      1119.3774          0.000          20.2504         18.5004
  24445763.7034   11171519.64243   8804941.48945         0.000    24445770.5324
     -3909.2524          0.000           6.0004          6.0004
  24699155.9634   10877523.15842   5685438.66544         0.000    24699177.8454
     -1199.9454          0.000           3.7504          4.0004
  22005280.4904  -11560301.44847  -8367034.48146         0.000    22005282.9904
      1936.7724          0.000          20.2504         16.5004
  4  3  1  0 14 30.0000000  0  9G26G22G18G 6G17G 9G29G30G21
  22547434.4244   -2841330.45046  -1369662.65746         0.000    22547439.4094
     -3989.0164          0.000          13.2504         12.2504
  24458526.3584    -428649.36345   -237930.22645         0.000    24458530.5734
       200.2964          0.000           8.0004          7.5004
  22848848.3684   -4042097.01046    818518.50346         0.000    22848852.3424
      -386.4204          0.000          15.7504         12.7504
  21085235.3124  -13347045.37747 -10244368.06346         0.000    21085239.8554
     -2047.9774          0.000          25.2504         23.5004
  22558605.8644    4158501.94846   1623038.85545         0.000    22558611.6684
     -1911.3374          0.000          13.5004         10.7504
  21884493.8134  -12106452.78647  -7443901.89846         0.000    21884498.2214
      1107.2324          0.000          21.5004         18.7504
  24468082.6214   11288806.89243   8896334.20545         0.000    24468086.6454
     -3909.5594          0.000           5.5004          6.0004
  24705982.1774   10913395.97241   5713391.73745         0.000    24706001.0614
     -1191.2304          0.000           3.5004          5.5004
  21994235.6354  -11618342.10246  -8412260.87046         0.000    21994238.7944
      1932.9074          0.000          19.7504         17.2504
  4  3  1  0 15  0.0000000  0  9G26G22G18G 6G17G 9G29G30G21
  22570222.8534   -2721576.42246  -1276347.81946         0.000    22570227.5484
     -3995.0264          0.000          13.0004         12.2504
  24457387.5604    -434633.03745   -242592.76145         0.000    24457394.9064
       198.1824          0.000           9.5004          7.7504
  22851051.8234   -4030517.50046    827541.56446         0.000    22851055.0044
      -386.0054          0.000          16.2504         13.2504
  21096966.8864  -13285395.45847 -10196329.16846         0.000    21096971.5374
     -2062.4744          0.000          24.7504         23.2504
  22569554.5234    4216037.58346   1667871.81645         0.000    22569560.1924
     -1924.8494          0.000          12.0004         11.2504
  21878204.8784  -12139500.88347  -7469653.56346         0.000    21878209.7484
      1095.4974          0.000          20.5004         18.7504
  24490399.4684   11406082.99043   8987718.32245         0.000    24490404.0994
     -3909.3264          0.000           5.7504          6.0004
  24712755.0804   10948989.35241   5741126.78144         0.000    24712783.0014
     -1182.0444          0.000           3.0004          4.2504
  21983209.4784  -11676284.71247  -8457410.85046         0.000    21983212.7144
      1929.4554          0.000          20.5004         17.2504
  4  3  1  0 15 30.0000000  0  8G26G22G18G 6G17G 9G29G21
  22593045.6874   -2601641.36446  -1182891.89245         0.000    22593050.2274
     -4000.7834          0.000          13.0004         11.7504
  24456261.3164    -440550.96145   -247204.01745         0.000    24456268.2694
       196.2054          0.000           9.2504          8.5004
  22853253.4034   -4018947.84746    836556.93546         0.000    22853257.1284
      -385.4464          0.000          15.7504         13.0004
  21108781.5624  -13223308.97647 -10147950.08446         0.000    21108786.5204
     -2076.7624          0.000          24.7504         22.7504
  22580580.9054    4273981.60245   1713022.98445         0.000    22580587.4574
     -1938.2494          0.000          11.0004         11.0004
  21871983.8654  -12172192.13346  -7495127.18346         0.000    21871988.7624
      1083.7634          0.000          19.5004         18.7504
  24512715.2104   11523353.00244   9079097.62545         0.000    24512722.1694
     -3908.8444          0.000           6.2504          5.5004
  21972203.8294  -11734119.43647  -8502476.76646         0.000    21972206.8734
      1926.0174          0.000          20.2504         17.2504
  4  3  1  0 16  0.0000000  0  8G26G22G18G 6G17G 9G29G21
  22615901.6294   -2481532.49146  -1089300.56345         0.000    22615905.4424
     -4006.3144          0.000          12.2504         11.5004
  24455146.5724    -446408.50645   -251768.22145         0.000    24455155.1494
       194.4454          0.000          10.0004          9.0004
  22855452.0434   -4007393.66046    845560.27246         0.000    22855455.2154
      -384.7024          0.000          16.2504         13.2504
  21120678.1774  -13160791.83947 -10099235.43046         0.000    21120682.7784
     -2090.8904          0.000          25.0004         22.7504
  22591684.2864    4332330.37145   1758489.54045         0.000    22591690.7194
     -1951.5354          0.000          11.2504         10.2504
  21865830.5294  -12204527.79147  -7520323.71346         0.000    21865835.5174
      1072.0714          0.000          21.2504         19.2504
  24535028.5684   11640610.48344   9170467.19045         0.000    24535033.7044
     -3908.1544          0.000           6.2504          5.7504
  21961218.3654  -11791847.96747  -8547459.93946         0.000    21961221.3274
      1922.6544          0.000          21.2504         17.2504
  4  3  1  0 16 30.0000000  0  9G26G22G18G 6G17G 9G29G30G21
  22638789.5444   -2361255.59046   -995578.27045         0.000    22638793.1904
     -4012.1124          0.000          12.2504         11.7504
  24454042.5094    -452210.07645   -256288.76045         0.000    24454048.8074
       192.3734          0.000          10.0004          8.5004
  22857647.0444   -3995858.56046    854548.71446         0.000    22857651.2164
      -384.2744          0.000          15.0004         12.0004
  21132655.8774  -13097848.58747 -10050188.71846         0.000    21132660.4754
     -2105.2994          0.000          25.0004         22.5004
  22602864.3364    4391081.75146   1804269.82945         0.000    22602869.7254
     -1965.1994          0.000          12.0004         10.2504
  21859744.9524  -12236507.42047  -7545242.80846         0.000    21859749.8524
      1059.9134          0.000          22.2504         19.7504
  24557338.4574   11757850.61643   9261823.28445         0.000    24557344.2394
     -3907.7864          0.000           5.5004          5.2504
  24732759.1994      25463.61452         0.000           0.000           0.000
     -1154.0994          0.000           4.7504          0.000
  21950253.1224  -11849470.30047  -8592360.36246         0.000    21950255.9344
      1918.8314          0.000          21.5004         18.0004
  4  3  1  0 17  0.0000000  0  9G26G22G18G 6G17G 9G29G30G21
  22661709.1054   -2240812.51446   -901726.49345         0.000    22661714.7014
     -4017.5184          0.000          12.7504         11.7504
  24452949.1184    -457955.76245   -260765.79345         0.000    24452954.2014
       190.5954          0.000           9.2504          8.2504
  22859838.3274   -3984342.72546    863522.14546         0.000    22859841.6914
      -383.5364          0.000          15.0004         12.7504
  21144714.4674  -13034480.21947 -10000810.77346         0.000    21144719.1794
     -2119.3614          0.000          24.7504         22.7504
  22614121.2894    4450237.19045   1850364.92645         0.000    22614127.4344
     -1978.5974          0.000          11.7504         10.2504
  21853727.9334  -12268126.91647  -7569881.29946         0.000    21853732.5274
      1047.9344          0.000          21.7504         19.7504
  24579645.0034   11875072.42043   9353164.95445         0.000    24579647.1994
     -3907.1114          0.000           6.0004          6.5004
  24739320.0784      59942.91742         0.000           0.000           0.000
     -1144.6014          0.000           4.0004          0.000
  21939308.7944  -11906982.68547  -8637175.13146         0.000    21939312.0164
      1915.1994          0.000          20.5004         17.7504
  4  3  1  0 17 30.0000000  0  9G26G22G18G 6G17G 9G29G30G21
  22684658.0094   -2120214.91045   -807754.30945         0.000    22684661.8194
     -4022.5774          0.000          11.7504         10.7504
  24451864.4114    -463655.47745   -265207.00945         0.000    24451870.1024
       189.1134          0.000           8.7504          7.7504
  22862024.0684   -3972855.94046    872472.94646         0.000    22862028.6574
      -382.5334          0.000          15.2504         12.5004
  21156851.9434  -12970697.37047  -9951109.83346         0.000    21156857.0354
     -2133.0704          0.000          25.2504         23.0004
  22625453.6144    4509788.76246   1896768.77845         0.000    22625460.3214
     -1991.7754          0.000          12.2504         10.2504
  21847778.4044  -12299391.56147  -7594243.25746         0.000    21847783.7454
      1036.0794          0.000          21.0004         19.5004
  24601946.0134   11992265.16244   9444483.97845         0.000    24601952.1194
     -3906.0244          0.000           6.5004          5.7504
  24745826.1034      94131.57842     15067.77455         0.000    24745847.8024
     -1135.0114          0.000           4.2504          4.7504
  21928384.3244  -11964390.77547  -8681908.62546         0.000    21928387.4934
      1911.7164          0.000          21.7504         18.5004
  4  3  1  0 18  0.0000000  0  9G26G22G18G 6G17G 9G29G30G21
  22707636.5274   -1999462.05946   -713661.15346         0.000    22707639.7874
     -4027.7984          0.000          12.2504         12.0004
  24450788.9814    -469306.67445   -269610.38645         0.000    24450794.7624
       187.4474          0.000           9.2504          8.7504
  22864204.9514   -3961395.05746    881403.55846         0.000    22864210.3774
      -381.7274          0.000          15.0004         12.7504
  21169068.4324  -12906499.42547  -9901085.45946         0.000    21169073.3204
     -2146.9614          0.000          25.7504         23.0004
  22636862.1754    4569740.84046   1943484.63645         0.000    22636867.8844
     -2005.2164          0.000          12.2504         10.7504
  21841897.6804  -12330294.71747  -7618323.56446         0.000    21841902.4374
      1023.9094          0.000          21.7504         19.2504
  24624241.7574   12109430.41343   9535781.68045         0.000    24624248.1404
     -3905.1534          0.000           6.0004          5.7504
  24752277.3064     128032.65542     41484.35545         0.000    24752302.7904
     -1125.4054          0.000           4.5004          4.5004
  21917480.8854  -12021688.44247  -8726556.07946         0.000    21917483.6684
      1907.9124          0.000          21.2504         18.2504
  4  3  1  0 18 30.0000000  0  9G26G22G18G 6G17G 9G29G30G21
  22730645.6754   -1878548.14746   -619442.48746         0.000    22730649.4634
     -4032.8754          0.000          12.5004         12.0004
  24449724.2254    -474901.76145   -273970.01345         0.000    24449730.6994
       185.8144          0.000          10.0004          8.7504
  22866382.4024   -3949952.35146    890320.00046         0.000    22866387.1244
      -380.8744          0.000          16.0004         13.5004
  21181365.2074  -12841879.46447  -9850732.23046         0.000    21181369.7824
     -2160.7884          0.000          25.0004         23.2504
  22648348.6944    4630102.95046   1990520.01545         0.000    22648354.4094
     -2018.6614          0.000          12.5004         11.0004
  21836088.0154  -12360824.37847  -7642112.81346         0.000    21836092.4634
      1011.6244          0.000          21.7504         19.2504
  24646533.6354   12226575.18544   9627063.40545         0.000    24646537.3834
     -3904.2154          0.000           6.5004          6.5004
  24758675.3064     161654.41542     67683.20844         0.000    24758691.0904
     -1115.8114          0.000           4.2504          4.0004
  21906600.7484  -12078863.72647  -8771108.16446         0.000    21906603.1754
      1904.0014          0.000          21.7504         18.5004
  4  3  1  0 19  0.0000000  0  9G26G22G18G 6G17G 9G29G30G21
  22753683.8974   -1757481.40046   -525104.72646         0.000    22753688.2774
     -4037.9404          0.000          13.0004         12.0004
  24448668.9504    -480447.32445   -278291.12145         0.000    24448675.3704
       184.1824          0.000           9.5004          8.0004
  22868555.2434   -3938534.23146    899217.29446         0.000    22868558.4394
      -380.0484          0.000          17.7504         13.7504
  21193740.8644  -12776844.91147  -9800055.93946         0.000    21193745.7084
     -2174.5794          0.000          25.2504         23.0004
  22659912.3004    4690870.22345   2037871.10745         0.000    22659918.0094
     -2032.1874          0.000          11.2504         10.0004
  21830348.9694  -12390982.93547  -7665612.92046         0.000    21830353.5834
       999.2004          0.000          20.7504         19.0004
  24668820.1884   12343691.97944   9718323.27745         0.000    24668824.4414
     -3903.2894          0.000           6.5004          6.0004
  24765018.9364     194990.68242         0.000           0.000           0.000
     -1106.2654          0.000           3.7504          0.000
  21895743.4064  -12135919.29747  -8815566.98146         0.000    21895746.3744
      1899.9784          0.000          23.0004         18.7504
  4  3  1  0 19 30.0000000  0  9G26G22G18G 6G17G 9G29G30G21
  22776750.1194   -1636267.64546   -430652.42246         0.000    22776754.3444
     -4043.1434          0.000          13.0004         12.0004
  24447622.2574    -485947.54245   -282576.79445         0.000    24447625.2904
       182.3434          0.000           9.0004          7.5004
  22870722.7334   -3927144.41046    908092.51746         0.000    22870725.8554
      -379.4344          0.000          18.2504         14.2504
  21206194.4794  -12711400.71547  -9749060.46346         0.000    21206199.2634
     -2188.5334          0.000          25.2504         22.7504
  22671552.5124    4752040.29445   2085536.11945         0.000    22671557.8444
     -2045.9814          0.000          10.7504         10.0004
  21824680.6044  -12420769.94947  -7688823.49146         0.000    21824685.8844
       986.4134          0.000          20.5004         18.7504
  24691100.4854   12460775.92944   9809557.61045         0.000    24691104.2824
     -3902.4914          0.000           6.2504          6.0004
  24771307.6144     228037.98942         0.000           0.000           0.000
     -1097.0334          0.000           4.2504          0.000
  21884908.6994  -12192855.73747  -8859932.95746         0.000    21884911.5644
      1895.5954          0.000          21.7504         18.7504
  4  3  1  0 20  0.0000000  0  9G26G22G18G 6G17G 9G29G30G21
  22799844.6244   -1514904.87545   -336084.01945         0.000    22799849.7034
     -4047.8214          0.000          11.5004         11.2504
  24446584.8494    -491398.79345   -286824.36545         0.000    24446588.3224
       180.9774          0.000           9.0004          7.7504
  22872885.4514   -3915779.31546    916948.51446         0.000    22872888.5024
      -378.3604          0.000          17.7504         14.2504
  21218726.5074  -12645544.37747  -9697743.84046         0.000    21218731.6234
     -2201.9934          0.000          24.7504         22.5004
  22683270.3804    4813618.32745   2133518.92545         0.000    22683276.5504
     -2059.3264          0.000          11.2504         10.2504
  21819084.4604  -12450177.60347  -7711738.46746         0.000    21819088.8114
       973.9644          0.000          22.0004         19.2504
  24713375.0814   12577829.87444   9900768.53045         0.000    24713382.0964
     -3901.1944          0.000           7.2504          6.0004
  24777542.1724     260800.53443      5935.90155         0.000    24777554.0834
     -1087.2724          0.000           5.0004          5.5004
  21874098.1334  -12249665.02947  -8904199.86446         0.000    21874100.8764
      1891.5624          0.000          20.5004         18.2504
  4  3  1  0 20 30.0000000  0  9G26G22G18G 6G17G 9G29G30G21
  22822964.7184   -1393407.53445   -241410.71445         0.000    22822968.6244
     -4052.2024          0.000          11.5004         11.0004
  24445554.2684    -496813.90645   -291043.78745         0.000    24445557.7264
       179.8424          0.000           9.2504          7.2504
  22875041.1634   -3904450.93446    925775.86446         0.000    22875044.1344
      -377.0514          0.000          17.2504         13.5004
  21231334.3694  -12579289.60147  -9646116.73446         0.000    21231338.9984
     -2215.2024          0.000          25.0004         22.5004
  22695063.8364    4875593.48645   2181811.22945         0.000    22695069.9264
     -2072.5264          0.000          11.2504         10.2504
  21813558.9184  -12479214.18547  -7734364.30646         0.000    21813563.8364
       961.6024          0.000          20.5004         19.2504
  24735641.3964   12694840.19144   9991945.48345         0.000    24735645.7964
     -3899.6614          0.000           7.0004          6.5004
  24783720.0794     293266.10442     31233.81944         0.000    24783742.3834
     -1077.2664          0.000           4.5004          3.7504
  21863310.1444  -12306355.83547  -8948374.46246         0.000    21863313.2914
      1887.6174          0.000          21.5004         18.5004
  4  3  1  0 21  0.0000000  0  9G26G22G18G 6G17G 9G29G30G21
  22846111.6174   -1271769.41445   -146627.76445         0.000    22846114.8514
     -4057.1244          0.000          11.7504         11.0004
  24444532.0214    -502184.94845   -295228.78345         0.000    24444538.3364
       178.1144          0.000           8.5004          7.2504
  22877191.3434   -3893151.26446    934580.86846         0.000    22877195.9884
      -376.3624          0.000          16.2504         13.5004
  21244019.4364  -12512629.07247  -9594173.46246         0.000    21244024.1454
     -2228.9474          0.000          25.5004         23.0004
  22706934.7814    4937975.45845   2230420.55245         0.000    22706941.0804
     -2086.3854          0.000          11.2504         10.5004
  21808106.2884  -12507867.60147  -7756691.56546         0.000    21808110.3934
       948.4924          0.000          21.5004         19.2504
  24757900.7574   12811814.18044  10083094.17245         0.000    24757906.0034
     -3898.6964          0.000           6.7504          5.5004
  24789843.2484     325443.36142     56307.13245         0.000    24789862.8834
