     2.10           OBSERVATION DATA    G (GPS)             RINEX VERSION / TYPE
teqc  2004Jan13     gpsops              20040302 00:03:49UTCPGM / RUN BY / DATE
Linux 2.0.36|Pentium II|gcc -static|Linux|486/DX+           COMMENT
BIT 2 OF LLI FLAGS DATA COLLECTED UNDER A/S CONDITION       COMMENT
ZAMB                                                        MARKER NAME
34601M001                                                   MARKER NUMBER
GGN                 JPL                                     OBSERVER / AGENCY
T145                ROGUE SNR-8000      3.2.32.11           REC # / TYPE / VERS
372                 AOAD/M_T        NONE                    ANT # / TYPE
  5422185.0218  2920890.1107 -1676726.9836                  APPROX POSITION XYZ
        0.0540        0.0000        0.0000                  ANTENNA: DELTA H/E/N
     1     1                                                WAVELENGTH FACT L1/2
     6    L1    L2    P2    C1    S1    S2                  # / TYPES OF OBSERV
    30.0000                                                 INTERVAL
                                                            COMMENT
This data is provided as a public service by NASA/JPL.      COMMENT
No warranty is expressed or implied regarding suitability   COMMENT
for use.  For further information, contact:                 COMMENT
Dave Stowers, NASA/JPL m/s 238-600                          COMMENT
4800 Oak Grove Drive, Pasadena CA 91109 USA                 COMMENT
                                                            COMMENT
    P1 =    P1  TurboRogue; =    Y1  Benchmark              COMMENT
    L1 = L1(P1) TurboRogue; = L1(Y1) Benchmark              COMMENT
    P2 =    P2  TurboRogue; =    Y2  Benchmark              COMMENT
    L2 = L2(P2) TurboRogue; = L2(Y2) Benchmark              COMMENT
 SNR is mapped to RINEX snr flag value [1,4-9]              COMMENT
    SNR:  >=316 >=100 >=31.6 >=10 >=3.2    >0 bad=0         COMMENT
L1 & L2:      9     8     7     6     5     4     1         COMMENT
teqc windowed: start @ 2004 Mar  1 00:00:00.000             COMMENT
teqc windowed: delta = 86399.000 sec                        COMMENT
  2004     3     1     0     0    0.0000000     GPS         TIME OF FIRST OBS
                                                            END OF HEADER
 04  3  1  0  0  0.0000000  0  8G 4G24G17G 8G13G 7G10G20
 -15210387.25849 -11852213.75246  21881555.033    21881553.090         523.000
        26.000
 -13082511.00248 -10194132.22445  22997940.076    22997936.496         293.000
         9.000
   -901411.67347                                  24707426.432          99.000

  -2295560.87048                                  24815225.738         108.000

 -10426045.56549  -8124134.17846  22985194.180    22985192.642         323.000
        10.000
 -23810771.89249 -18553815.41647  20528586.133    20528583.406         720.000
        64.000
  -8024179.31548  -6252590.89645  23825502.422    23825498.289         204.000
         5.000
    108509.13348     84599.87344  24899688.803    24899688.176         142.000
         2.000
 04  3  1  0  0 30.0000000  0  8G 4G24G17G 8G13G 7G10G20
 -15202856.41249 -11846345.54746  21882987.748    21882986.111         519.000
        26.000
 -13111703.23648 -10216879.38845  22992383.803    22992381.321         292.000
         9.000
   -955904.84648   -744859.61944  24697059.675    24697057.171         106.000
         1.000
  -2258867.94848                                  24822208.191         117.000

 -10462882.33749  -8152838.12446  22978183.745    22978182.808         320.000
        10.000
 -23831671.01749 -18570100.43947  20524609.300    20524606.615         726.000
        64.000
  -8119740.97148  -6327054.40645  23807316.615    23807313.338         217.000
         5.000
    211532.61348    164877.94444  24919293.186    24919293.006         140.000
         2.000
 04  3  1  0  1  0.0000000  0  8G 4G24G17G 8G13G 7G10G20
 -15195279.58149 -11840441.50746  21884429.513    21884427.897         514.000
        26.000
 -13140752.67648 -10239515.27845  22986856.282    22986853.598         300.000
         9.000
  -1010181.60848                                  24686728.359         100.000

  -2222466.97948                                  24829134.510         118.000

 -10499437.69649  -8181322.78346  22971227.581    22971226.609         320.000
        10.000
 -23852271.05149 -18586152.40047  20520689.124    20520686.372         722.000
        64.000
  -8215089.19948  -6401351.64745  23789172.494    23789168.822         215.000
         4.000
    314603.68248    245193.06144  24938910.440    24938907.020         141.000
         2.000
 04  3  1  0  1 30.0000000  0  8G 4G24G17G 8G13G 7G10G20
 -15187648.20649 -11834494.96746  21885881.741    21885880.105         515.000
        26.000
 -13169650.76248 -10262033.22245  22981356.591    22981354.410         301.000
         9.000
  -1064232.26748                                  24676442.559         100.000

  -2186348.66848                                  24836008.264         122.000

 -10535699.14549  -8209578.42146  22964327.541    22964326.248         319.000
        10.000
 -23872560.12949 -18601962.06047  20516828.311    20516825.579         727.000
        64.000
  -8310211.84648  -6475473.08845  23771071.322    23771067.905         205.000
         4.000
    417730.20548    325551.42944  24958532.754    24958531.376         141.000
         2.000
 04  3  1  0  2  0.0000000  0  8G 4G24G17G 8G13G 7G10G20
 -15179977.85149 -11828518.05046  21887341.424    21887339.635         511.000
        26.000
 -13198412.72448 -10284445.10045  22975884.480    22975881.144         299.000
         9.000
  -1118071.68947                                  24666196.623          98.000

  -2150528.25348                                  24842824.490         119.000

 -10571678.27349  -8237614.07046  22957481.100    22957479.734         324.000
        10.000
 -23892550.73849 -18617539.14747  20513024.144    20513021.411         726.000
        65.000
  -8405120.94448  -6549428.12745  23753011.699    23753007.096         217.000
         5.000
    520895.50248    405939.92744  24978163.237    24978162.186         133.000
         2.000
 04  3  1  0  2 30.0000000  0  8G 4G24G17G 8G13G 7G10G20
 -15172271.39349 -11822512.99946  21888807.780    21888805.989         507.000
        26.000
 -13227041.40648 -10306753.13245  22970435.771    22970432.713         288.000
         9.000
  -1171702.29347                                  24655990.579          92.000

  -2115008.11548                                  24849583.491         112.000

 -10607374.23749  -8265429.08146  22950688.593    22950686.714         318.000
        10.000
 -23912242.77749 -18632883.58447  20509276.842    20509274.272         734.000
        64.000
  -8499816.06548  -6623216.42645  23734991.925    23734987.419         222.000
         6.000
    624095.38548                                  24997800.063         127.000

 04  3  1  0  3  0.0000000  0  8G 4G24G17G 8G13G 7G10G20
 -15164521.47249 -11816474.08946  21890282.576    21890280.870         509.000
        26.000
 -13255529.52748 -10328951.62945  22965015.035    22965011.755         292.000
         9.000
  -1225115.78947                                  24645826.777          98.000

  -2079780.83348                                  24856286.828         116.000

 -10642775.64949  -8293014.56745  22943951.003    22943950.272         322.000
         9.000
 -23931625.85449 -18647987.26947  20505588.408    20505585.658         725.000
        65.000
  -8594286.62248  -6696829.74945  23717014.719    23717010.193         221.000
         5.000
    727336.03148                                  25017447.063         132.000

 04  3  1  0  3 30.0000000  0  8G 4G24G17G 8G13G 7G10G20
 -15156731.96049 -11810404.32646  21891765.120    21891763.062         509.000
        26.000
 -13283880.99548 -10351043.65146  22959620.537    22959617.077         303.000
        10.000
  -1278315.44248                                  24635703.329         103.000

  -2044849.58648                                  24862934.381         116.000

 -10677882.76048  -8320370.73346  22937270.992    22937269.159         312.000
        10.000
 -23950700.85949 -18662850.90047  20501958.562    20501955.930         733.000
        65.000
  -8688532.94048  -6770268.33445  23699078.924    23699075.351         214.000
         5.000
    830612.36148    647277.80144  25037097.738    25037099.529         124.000
         2.000
 04  3  1  0  4  0.0000000  0  8G 4G24G17G 8G13G 7G10G20
 -15148908.50349 -11804308.11146  21893253.535    21893251.862         513.000
        26.000
 -13312101.38948 -10373033.53246  22954250.331    22954246.762         299.000
        10.000
  -1331306.37748  -1037380.74544  24625624.713    24625619.732         101.000
         2.000
  -2010219.69748                                  24869524.568         117.000

 -10712697.43249  -8347499.01945  22930644.970    22930644.332         318.000
         9.000
 -23969470.29149 -18677476.42347  20498386.566    20498383.945         718.000
        64.000
  -8782557.15248  -6843533.85045  23681186.840    23681183.162         216.000
         5.000
    933917.80148    727775.60944  25056761.294    25056758.814         129.000
         2.000
 04  3  1  0  4 30.0000000  0  8G 4G24G17G 8G13G 7G10G20
 -15141055.14349 -11798188.59646  21894747.908    21894746.376         516.000
        25.000
 -13340194.63648 -10394924.33845  22948903.527    22948900.580         295.000
         9.000
  -1384091.74247  -1078512.07544  24615577.704    24615574.482          99.000
         1.000
  -1975894.66948                                  24876056.357         109.000

 -10747219.88949  -8374399.61846  22924076.105    22924074.890         321.000
        10.000
 -23987935.46949 -18691864.86647  20494873.159    20494870.480         732.000
        64.000
  -8876360.28648  -6916627.10945  23663336.121    23663333.163         229.000
         5.000
   1037247.14148    808291.94644  25076422.533    25076421.010         120.000
         2.000
 04  3  1  0  5  0.0000000  0  8G 4G24G17G 8G13G 7G10G20
 -15133163.20449 -11792039.02046  21896249.490    21896248.178         518.000
        26.000
 -13368151.99548 -10416709.26146  22943584.206    22943580.573         296.000
        10.000
  -1436662.31148                                  24605570.881         107.000

  -1941865.17847                                  24882531.325          99.000

 -10781437.54349  -8401062.70046  22917564.787    22917563.520         326.000
        10.000
 -24006084.23949 -18706006.75647  20491419.311    20491416.557         720.000
        64.000
  -8969929.92648  -6989538.40345  23645529.919    23645527.363         233.000
         6.000
   1140608.06148                                  25096090.510         129.000

 04  3  1  0  5 30.0000000  0  8G 4G24G17G 8G13G 7G10G20
 -15125237.13149 -11785862.84546  21897757.800    21897756.347         517.000
        26.000
 -13395977.81548 -10438391.68746  22938289.186    22938285.088         290.000
        10.000
  -1489022.02747                                  24595606.605          98.000

  -1908135.33948                                  24888949.879         101.000

 -10815351.00749  -8427488.74646  22911111.331    22911110.500         340.000
        11.000
 -24023918.23949 -18719903.37247  20488025.635    20488022.864         722.000
        64.000
  -9063267.13848  -7062268.60045  23627770.111    23627766.103         236.000
         6.000
   1243994.80148    969394.07444  25115764.841    25115763.445         112.000
         1.000
 04  3  1  0  6  0.0000000  0  8G 4G24G17G 8G13G 7G10G20
 -15117282.67949 -11779664.55746  21899271.690    21899270.122         519.000
        26.000
 -13423678.40748 -10459976.52346  22933018.427    22933014.375         296.000
        10.000
  -1541365.83347                                  24585683.760          74.000

  -1874710.80848                                  24895310.367         108.000

 -10848962.63649  -8453679.60246  22904715.162    22904713.893         333.000
        10.000
 -24041440.49449 -18733557.07147  20484691.315    20484688.672         726.000
        64.000
  -9156374.87148  -7134819.98545  23610050.333    23610047.590         220.000
         5.000
   1347400.29148   1049969.79044  25135441.081    25135441.768         123.000
         2.000
 04  3  1  0  6 30.0000000  0  8G 4G24G17G 8G13G 7G10G20
 -15109298.95349 -11773443.45346  21900790.726    21900789.440         522.000
        26.000
 -13451252.42148 -10481462.73746  22927770.275    22927767.001         293.000
        10.000
  -1594062.43847                                  24575792.767          70.000

  -1841589.75647                                  24901612.731          97.000

 -10882267.43249  -8479631.37246  22898378.527    22898376.060         329.000
        10.000
 -24058646.79749 -18746964.57447  20481416.949    20481414.267         719.000
        64.000
  -9249248.44248  -7207188.89145  23592377.570    23592374.181         225.000
         6.000
   1450824.55548   1130560.16544  25155122.971    25155121.955         109.000
         1.000
 04  3  1  0  7  0.0000000  0  7G 4G24G 8G13G 7G10G20
 -15101282.75249 -11767197.04746  21902316.324    21902314.801         523.000
        26.000
 -13478696.95648 -10502848.05846  22922548.256    22922544.460         292.000
        10.000
  -1808768.69948                                  24907858.687         107.000

 -10915258.88549  -8505338.97446  22892099.689    22892098.159         331.000
        10.000
 -24075531.23649 -18760121.27447  20478204.001    20478201.341         721.000
        64.000
  -9341881.56948  -7279370.47245  23574749.962    23574746.850         245.000
         6.000
   1554269.51748   1211166.63844  25174812.436    25174807.440         120.000
         2.000
 04  3  1  0  7 30.0000000  0  8G 4G24G17G 8G13G 7G10G20
 -15093241.64549 -11760931.23446  21903846.720    21903845.036         528.000
        27.000
 -13506019.41148 -10524138.25546  22917348.711    22917344.794         288.000
        10.000
         -.20258                                  24556146.295         109.000

  -1776254.84448                                  24914045.739         111.000

 -10947940.51849  -8530805.16546  22885880.921    22885878.899         324.000
        10.000
 -24092098.34449 -18773030.70447  20475051.395    20475048.629         716.000
        64.000
  -9434278.34948  -7351367.88645  23557168.052    23557164.424         247.000
         6.000
   1657726.59148   1291782.51344  25194497.596    25194494.374         113.000
         2.000
 04  3  1  0  8  0.0000000  0  8G 4G24G17G 8G13G 7G10G20
 -15085171.68249 -11754642.93746  21905382.397    21905380.746         529.000
        27.000
 -13533216.04148 -10545330.40946  22912171.973    22912169.456         289.000
        10.000
    -51323.48648    -39991.32744  24546383.227    24546379.622         113.000
         2.000
  -1744043.71048                                  24920175.290         105.000

 -10980304.92749  -8556024.15846  22879721.542    22879719.908         319.000
        10.000
 -24108341.21549 -18785687.48047  20471960.597    20471957.811         720.000
        63.000
  -9526431.61248  -7423175.55145  23539631.365    23539628.143         242.000
         6.000
   1761198.68748                                  25214184.970         113.000

 04  3  1  0  8 30.0000000  0  8G 4G24G17G 8G13G 7G10G20
 -15077078.42149 -11748336.48546  21906922.568    21906920.834         531.000
        27.000
 -13560292.54348 -10566428.95146  22907020.617    22907017.182         294.000
        10.000
   -102443.55347                                  24536651.063          97.000

  -1712140.41748                                  24926246.720         122.000

 -11012353.98349  -8580997.41646  22873622.232    22873621.322         326.000
        10.000
 -24124262.76149 -18798093.87447  20468930.636    20468927.918         716.000
        64.000
  -9618343.83548  -7494795.35945  23522142.315    23522137.755         246.000
         7.000
   1864678.91048                                  25233876.378         119.000

 04  3  1  0  9  0.0000000  0  8G 4G24G17G 8G13G 7G10G20
 -15068959.41849 -11742009.97046  21908467.222    21908465.693         527.000
        27.000
 -13587246.29748 -10587431.83646  22901891.469    22901887.845         288.000
        10.000
   -153357.01148                                  24526962.479         106.000

  -1680541.81048                                  24932259.426         127.000

 -11044081.49349  -8605720.12946  22867585.104    22867583.817         328.000
        10.000
 -24139857.36349 -18810245.50847  20465962.921    20465960.253         716.000
        64.000
  -9710009.27448  -7566222.89745  23504698.432    23504694.461         258.000
         7.000
   1968168.72448                                  25253569.496         110.000

 04  3  1  0  9 30.0000000  0  8G24G17G 4G 8G13G 7G10G20
 -13614077.51848 -10608339.24746  22896785.426    22896781.859         283.000
        10.000
   -204063.69548                                  24517314.004         113.000

 -15060814.76449 -11735663.47346  21910017.204    21910015.670         527.000
        27.000
  -1649247.70448                                  24938214.695         134.000

 -11075483.87849  -8630189.48446  22861610.060    22861608.021         336.000
        11.000
 -24155122.33249 -18822140.28547  20463058.115    20463055.406         716.000
        64.000
  -9801424.94048  -7637455.82445  23487301.120    23487298.641         250.000
         6.000
   2071666.80948   1614333.43544  25273264.131    25273264.976         120.000
         1.000
 04  3  1  0 10  0.0000000  0  8G24G17G 4G 8G13G 7G10G20
 -13640788.94448 -10629153.32045  22891702.961    22891698.894         285.000
         9.000
   -254565.84448   -198361.82944  24507706.693    24507703.726         113.000
         2.000
 -15052647.02749 -11729298.99546  21911571.887    21911569.851         522.000
        27.000
  -1618260.25548                                  24944111.074         124.000

 -11106560.63949  -8654405.11846  22855696.100    22855694.471         342.000
        11.000
 -24170057.43549 -18833778.02347  20460216.083    20460213.401         723.000
        64.000
  -9892590.23648  -7708493.63945  23469953.848    23469950.373         260.000
         7.000
   2175169.23748                                  25292960.594         112.000

 04  3  1  0 10 30.0000000  0  8G24G17G 4G 8G13G 7G10G20
 -13667380.35448 -10649873.86846  22886642.928    22886638.872         289.000
        10.000
   -304862.72548                                  24498132.538         114.000

 -15044456.00849 -11722916.37246  21913130.144    21913128.541         521.000
        26.000
  -1587578.45048                                  24949949.740         126.000

 -11137307.21749  -8678363.46246  22849845.136    22849843.826         352.000
        10.000
 -24184659.41349 -18845156.18447  20457437.323    20457434.743         725.000
        64.000
  -9983501.31648  -7779333.37845  23452653.277    23452650.518         254.000
         7.000
   2278675.52748   1775638.91044  25312660.216    25312656.614         112.000
         1.000
 04  3  1  0 11  0.0000000  0  8G24G17G 4G 8G13G 7G10G20
 -13693851.45648 -10670500.67346  22881604.685    22881601.641         292.000
        10.000
   -354953.25348                                  24488600.233         111.000

 -15036241.02349 -11716515.07146  21914693.264    21914691.729         516.000
        26.000
  -1557201.18348                                  24955730.642         135.000

 -11167719.76849  -8702061.53146  22844057.042    22844056.107         344.000
        11.000
 -24198924.96649 -18856272.19347  20454722.668    20454720.151         729.000
        65.000
 -10074154.64548  -7849972.25645  23435403.855    23435399.435         251.000
         7.000
   2382185.11448   1856295.73744  25332357.084    25332354.288         122.000
         2.000
 04  3  1  0 11 30.0000000  0  8G24G17G 4G 8G13G 7G10G20
 -13720213.72448 -10691042.66546  22876588.283    22876584.801         287.000
        10.000
   -404848.48248   -315465.05044  24479107.528    24479106.191         118.000
         1.000
 -15028013.42049 -11710103.93846  21916258.667    21916257.348         515.000
        26.000
  -1527139.53948                                  24961450.935         128.000

 -11197806.08149  -8725505.38746  22838331.801    22838330.970         352.000
        11.000
 -24212862.68049 -18867132.74647  20452070.593    20452067.939         734.000
        65.000
 -10164558.39148  -7920416.66745  23418199.413    23418196.238         253.000
         7.000
   2485685.24048                                  25352049.799         113.000

 04  3  1  0 12  0.0000000  0  8G24G17G 4G 8G13G 7G10G20
 -13746464.40948 -10711497.70946  22871593.776    22871589.616         289.000
        10.000
   -454545.31048                                  24469649.066         120.000

 -15019770.49949 -11703680.86946  21917827.739    21917825.856         510.000
        26.000
  -1497390.14148                                  24967111.881         119.000

 -11227560.04749  -8748690.28246  22832669.617    22832669.012         357.000
        11.000
 -24226467.04349 -18877733.54347  20449481.757    20449479.066         733.000
        66.000
 -10254706.61148  -7990661.96945  23401044.267    23401041.739         254.000
         7.000
   2589177.86648                                  25371743.377         112.000

 04  3  1  0 12 30.0000000  0  8G24G17G 4G 8G13G 7G10G20
 -13772605.30648 -10731867.21746  22866618.854    22866615.069         288.000
        10.000
   -504044.80348   -392760.78744  24460233.629    24460229.091         117.000
         2.000
 -15011514.00249 -11697247.22246  21919398.972    21919397.141         510.000
        26.000
  -1467954.22448                                  24972713.440         110.000

 -11256979.57449  -8771614.56346  22827071.934    22827070.741         364.000
        11.000
 -24239736.79049 -18888073.60247  20446956.561    20446953.846         730.000
        66.000
 -10344597.88448  -8060707.04945  23383938.851    23383936.004         251.000
         7.000
   2692659.93748   2098224.23944  25391436.981    25391435.291         119.000
         1.000
 04  3  1  0 13  0.0000000  0  8G24G17G 4G 8G13G 7G10G20
 -13798628.36348 -10752144.89046  22861666.418    22861662.965         285.000
        10.000
   -553338.83148   -431171.68444  24450850.008    24450849.130         118.000
         2.000
 -15003235.78349 -11690796.65346  21920973.871    21920972.257         505.000
        25.000
  -1438823.10148                                  24978257.022         127.000

 -11286053.32449  -8794269.41846  22821539.121    22821538.303         372.000
        11.000
 -24252661.33949 -18898144.67547  20444497.255    20444494.452         732.000
        66.000
 -10434221.26148  -8130543.38145  23366884.997    23366880.966         260.000
         7.000
   2796138.53548                                  25411126.161         105.000

 04  3  1  0 13 30.0000000  0  8G24G17G 4G 8G13G 7G10G20
 -13824536.65548 -10772333.13046  22856736.379    22856733.385         298.000
        10.000
   -602429.39348                                  24441507.105         116.000

 -14994938.49049 -11684331.21946  21922552.960    21922551.303         506.000
        25.000
  -1409998.90948                                  24983741.925         113.000

 -11314780.38349  -8816654.11646  22816072.648    22816071.661         371.000
        11.000
 -24265240.44049 -18907946.56547  20442103.256    20442100.673         729.000
        66.000
 -10523576.18348  -8200170.52245  23349881.849    23349876.984         249.000
         7.000
   2899609.79448                                  25430816.850         123.000

 04  3  1  0 14  0.0000000  0  8G24G17G 4G 8G13G 7G10G20
 -13850336.68748 -10792437.04446  22851826.657    22851823.427         293.000
        10.000
   -651322.56948   -507522.55044  24432205.770    24432203.343         123.000
         1.000
 -14986628.43349 -11677855.83046  21924134.567    21924132.616         501.000
        25.000
  -1381487.45848                                  24989167.312         112.000

 -11343163.84349  -8838771.07546  22810671.572    22810670.177         364.000
        11.000
 -24277477.65549 -18917482.05147  20439774.674    20439772.041         730.000
        65.000
 -10612665.85848  -8269590.98345  23332926.895    23332924.002         255.000
         7.000
   3003066.27848                                  25450503.195         114.000

 04  3  1  0 14 30.0000000  0  8G24G17G 4G 8G13G 7G10G20
 -13876029.59748 -10812457.45546  22846937.014    22846934.173         291.000
        10.000
   -700019.34748   -545468.03144  24422939.531    24422936.593         118.000
         2.000
 -14978306.79949 -11671371.42846  21925717.929    21925716.018         499.000
        25.000
  -1353289.16648                                  24994533.343         113.000

 -11371201.18149  -8860618.33146  22805335.444    22805334.861         366.000
        11.000
 -24289371.50049 -18926749.97547  20437511.312    20437508.658         726.000
        65.000
 -10701488.24548  -8338803.17445  23316024.500    23316021.561         258.000
         7.000
   3106505.74848                                  25470187.172         103.000

 04  3  1  0 15  0.0000000  0  8G24G17G 4G 8G13G 7G10G20
 -13901620.48748 -10832398.37746  22842067.633    22842064.376         290.000
        10.000
   -748524.48548   -583264.17544  24413710.701    24413705.674         117.000
         2.000
 -14969978.51049 -11664881.83746  21927302.678    21927300.692         490.000
        25.000
  -1325408.80348                                  24999839.059         115.000

 -11398893.99849  -8882197.12946  22800067.110    22800065.110         366.000
        11.000
 -24300924.18449 -18935752.05847  20435312.900    20435310.198         724.000
        66.000
 -10790045.48648  -8407808.74445  23299174.306    23299170.125         270.000
         8.000
   3209922.30848                                  25489866.902         114.000

 04  3  1  0 15 30.0000000  0  8G24G17G 4G 8G13G 7G10G20
 -13927097.30848 -10852250.43246  22837220.620    22837216.182         290.000
        10.000
   -796825.20748   -620901.06344  24404520.791    24404515.608         136.000
         2.000
 -14961631.22749 -11658377.44446  21928891.266    21928889.206         489.000
        24.000
  -1297833.30048                                  25005086.179         115.000

 -11426226.86849  -8903495.44346  22794865.249    22794864.069         375.000
        11.000
 -24312120.71649 -18944476.61947  20433182.244    20433179.533         722.000
        66.000
 -10878322.23448  -8476595.75945  23282374.596    23282371.270         269.000
         8.000
   3313326.72948                                  25509543.922         106.000

 04  3  1  0 16  0.0000000  0  8G24G17G 4G 8G13G 7G10G20
 -13952475.81148 -10872025.87946  22832389.602    22832386.637         290.000
        10.000
   -844936.85048   -658390.64244  24395365.623    24395358.734         118.000
         2.000
 -14953280.64949 -11651870.48646  21930480.173    21930478.362         492.000
        24.000
  -1270577.71848                                  25010272.774         119.000

 -11453211.64749  -8924522.52646  22789729.489    22789728.759         373.000
        11.000
 -24322973.95049 -18952933.67747  20431116.934    20431114.226         722.000
        65.000
 -10966330.89948  -8545173.86945  23265627.179    23265623.746         268.000
         8.000
   3416702.79848                                  25529215.987         103.000

 04  3  1  0 16 30.0000000  0  8G24G17G 4G 8G13G 7G10G20
 -13977750.95448 -10891720.76746  22827580.232    22827576.885         288.000
        10.000
   -892854.30648                                  24386241.244         129.000

 -14944921.70749 -11645357.01146  21932070.897    21932069.039         492.000
        24.000
  -1243636.59648                                  25015399.712         121.000

 -11479840.19649  -8945272.02346  22784662.261    22784661.732         380.000
        11.000
 -24333476.49949 -18961117.47447  20429118.328    20429115.628         719.000
        65.000
 -11054063.69148  -8613537.02145  23248932.308    23248928.490         269.000
         8.000
   3520054.20348                                  25548883.302         103.000

 04  3  1  0 17  0.0000000  0  8G24G17G 4G 8G13G 7G10G20
 -14002922.55548 -10911334.98346  22822791.001    22822787.234         294.000
        10.000
   -940576.87048   -732915.22344  24377163.419    24377159.685         128.000
         2.000
 -14936553.61049 -11638836.40546  21933662.758    21933661.306         491.000
        24.000
  -1217008.62848                                  25020466.579         119.000

 -11506108.65449  -8965740.93746  22779663.199    22779662.875         377.000
        11.000
 -24343624.98849 -18969025.37847  20427187.094    20427184.486         723.000
        65.000
 -11141516.96248  -8681682.35845  23232289.425    23232286.855         282.000
         8.000
   3623380.24748                                  25568545.642         115.000

 04  3  1  0 17 30.0000000  0  8G24G17G 4G 8G13G 7G10G20
 -14027989.64948 -10930867.76346  22818020.102    22818017.048         292.000
        10.000
   -988103.03948                                  24368115.488         121.000

 -14928175.23449 -11632307.79046  21935257.586    21935255.749         491.000
        24.000
  -1190692.07048                                  25025474.667         122.000

 -11532012.27949  -8985925.56446  22774735.198    22774733.561         380.000
        12.000
 -24353415.61949 -18976654.43447  20425324.029    20425321.315         717.000
        66.000
 -11228686.64748  -8749606.73445  23215702.069    23215699.135         285.000
         9.000
   3726681.25547                                  25588203.380          98.000

 04  3  1  0 18  0.0000000  0  8G24G17G 4G 8G13G 7G10G20
 -14052958.26348 -10950323.80646  22813269.360    22813265.796         295.000
        10.000
  -1035438.38848   -806833.15744  24359112.339    24359108.431         128.000
         2.000
 -14919792.68249 -11625775.91846  21936852.483    21936850.915         490.000
        24.000
  -1164692.21348                                  25030421.765         111.000

 -11557554.01049  -9005828.19146  22769874.625    22769873.053         380.000
        12.000
 -24362851.62249 -18984007.15947  20423528.534    20423525.720         721.000
        65.000
 -11315575.78748  -8817312.49045  23199168.015    23199164.733         292.000
         9.000
   3829950.10048                                  25607854.893         110.000

 04  3  1  0 18 30.0000000  0  8G24G17G 4G 8G13G 7G10G20
 -14077831.89248 -10969705.82046  22808535.552    22808532.374         293.000
        10.000
  -1082585.73048   -843571.37244  24350138.104    24350135.630         114.000
         2.000
 -14911409.08249 -11619243.23046  21938447.690    21938446.049         487.000
        24.000
  -1139011.61348                                  25035308.666         112.000

 -11582733.59449  -9025448.62846  22765083.078    22765081.542         385.000
        12.000
 -24371933.54949 -18991083.98047  20421800.114    20421797.328         713.000
        65.000
 -11402184.29348  -8884799.56945  23182686.942    23182682.884         279.000
         9.000
   3933182.65447                                  25627498.709          99.000

 04  3  1  0 19  0.0000000  0  8G24G17G 4G 8G13G 7G10G20
 -14102611.56748 -10989014.69145  22803820.545    22803816.986         294.000
         9.000
  -1129545.92348                                  24341200.230         124.000

 -14903024.81849 -11612710.02346  21940043.501    21940041.761         493.000
        24.000
  -1113650.60748                                  25040134.804         123.000

 -11607548.57649  -9044784.93446  22760360.059    22760359.598         391.000
        12.000
 -24380659.80749 -18997883.65447  20420139.546    20420136.962         720.000
        65.000
 -11488510.12948  -8952066.38945  23166259.649    23166256.386         299.000
         9.000
   4036376.80347                                  25647135.414          85.000

 04  3  1  0 19 30.0000000  0  8G24G17G 4G 8G13G 7G10G20
 -14127293.01748 -11008246.93746  22799123.604    22799120.218         294.000
        10.000
  -1176314.31048   -916606.50744  24332305.082    24332299.570         119.000
         2.000
 -14894635.76349 -11606173.08146  21941639.853    21941638.023         490.000
        24.000
  -1088604.01848                                  25044901.091         126.000

 -11631991.19749  -9063831.13346  22755708.389    22755708.148         390.000
        12.000
 -24389023.18649 -19004400.56547  20418548.129    20418545.428         722.000
        66.000
 -11574546.06548  -9019107.32046  23149887.079    23149883.822         293.000
        10.000
   4139536.28948                                  25666766.964         100.000

 04  3  1  0 20  0.0000000  0  8G24G17G 4G 8G13G 7G10G20
 -14151883.80248 -11027408.56446  22794444.541    22794440.597         289.000
        10.000
  -1222898.25748   -952905.61844  24323436.906    24323434.975         120.000
         1.000
 -14886248.98149 -11599637.91246  21943235.518    21943234.108         494.000
        24.000
  -1063878.54248                                  25049606.306         121.000

 -11656065.64249  -9082590.42146  22751127.993    22751127.040         393.000
        12.000
 -24397028.62749 -19010638.56847  20417024.754    20417022.190         729.000
        66.000
 -11660296.55148  -9085925.81945  23133568.525    23133566.003         300.000
         9.000
   4242652.47347                                  25686388.581          88.000

 04  3  1  0 20 30.0000000  0  7G24G17G 4G 8G13G 7G10
 -14176376.88248 -11046494.07046  22789782.940    22789779.474         285.000
        10.000
  -1269290.22348   -989055.20344  24314611.332    24314607.564         133.000
         2.000
 -14877857.25349 -11593098.88746  21944832.488    21944830.829         488.000
        24.000
  -1039466.50148                                  25054251.236         112.000

 -11679761.40949  -9101054.64746  22746618.000    22746617.688         388.000
        12.000
 -24404666.40249 -19016590.08047  20415571.297    20415568.712         727.000
        66.000
 -11745751.61948  -9152514.13546  23117307.749    23117304.496         301.000
        10.000
 04  3  1  0 21  0.0000000  0  8G24G17G 4G 8G13G 7G10G 5
 -14200770.74448 -11065502.24946  22785141.213    22785137.685         291.000
        10.000
  -1315488.28148  -1025053.68644  24305820.167    24305816.144         126.000
         2.000
 -14869459.06349 -11586554.83046  21946430.964    21946429.163         495.000
        24.000
  -1015365.25948                                  25058837.652         116.000

 -11703073.65049  -9119220.01446  22742181.774    22742181.441         383.000
        12.000
 -24411932.07949 -19022251.64147  20414188.673    20414186.075         727.000
        66.000
 -11830906.62048  -9218868.62946  23101103.616    23101100.216         306.000
        10.000
          .23658                                  25396368.339         115.000

 04  3  1  0 21 30.0000000  0  8G24G17G 4G 8G13G 7G10G 5
 -14225067.38948 -11084434.68346  22780516.852    22780514.007         290.000
        10.000
  -1361494.15848  -1060902.35244  24297069.069    24297061.518         125.000
         2.000
 -14861055.59049 -11580006.66146  21948029.806    21948028.044         494.000
        24.000
   -991575.91848                                  25063364.813         133.000

 -11726001.01249  -9137085.47746  22737819.995    22737818.765         391.000
        12.000
 -24418824.91449 -19027622.67947  20412876.918    20412874.354         725.000
        66.000
 -11915760.33748  -9284988.35846  23084956.516    23084952.794         299.000
        10.000
    -84575.14448                                  25380271.655         110.000

 04  3  1  0 22  0.0000000  0  8G24G17G 4G 8G13G 7G10G 5
 -14249284.50848 -11103305.14446  22775908.982    22775905.984         298.000
        10.000
  -1407325.29148  -1096614.89244  24288345.125    24288339.748         122.000
         2.000
 -14852664.96049 -11573468.49346  21949626.517    21949624.846         496.000
        24.000
   -968115.66248                                  25067828.785         110.000

 -11748558.05249  -9154662.37646  22733527.228    22733526.011         379.000
        12.000
 -24425360.11749 -19032715.04147  20411633.414    20411630.727         724.000
        67.000
 -12000327.62648  -9350884.88846  23068863.422    23068859.960         298.000
        10.000
   -168898.98047                                  25364224.847          95.000

 04  3  1  0 22 30.0000000  0  8G24G17G 4G 8G13G 7G10G 5
 -14273416.70848 -11122109.43946  22771316.701    22771313.466         293.000
        10.000
  -1452975.85148  -1132186.75344  24279658.796    24279651.956         116.000
         2.000
 -14844280.88549 -11566935.43646  21951221.837    21951220.230         493.000
        24.000
   -944977.71348                                  25072232.309         114.000

 -11770735.60949  -9171943.57646  22729307.190    22729305.876         383.000
        13.000
 -24431529.40149 -19037522.27147  20410459.425    20410456.779         725.000
        67.000
 -12084599.68248  -9416551.36746  23052827.276    23052823.558         304.000
        10.000
   -252962.08547                                  25348228.023          88.000

 04  3  1  0 23  0.0000000  0  8G24G17G 4G 8G13G 7G10G 5
 -14297455.98348 -11140841.31546  22766742.638    22766738.769         290.000
        10.000
  -1498437.61148  -1167611.45844  24271006.745    24271001.026         116.000
         2.000
 -14835895.21249 -11560401.13446  21952817.682    21952816.128         502.000
        24.000
   -922153.36548                                  25076575.151         130.000

 -11792522.61949  -9188920.43646  22725160.413    22725159.926         381.000
        12.000
 -24437322.00649 -19042035.98347  20409357.107    20409354.402         723.000
        67.000
 -12168565.80648  -9481979.46346  23036848.673    23036845.398         304.000
        10.000
   -336753.44448                                  25332284.361         101.000

 04  3  1  0 23 30.0000000  0  8G24G17G 4G 8G13G 7G10G 5
 -14321413.43948 -11159509.44146  22762183.857    22762180.019         298.000
        10.000
  -1543721.15348                                  24262383.428         114.000

 -14827518.60249 -11553873.89546  21954411.492    21954409.969         497.000
        25.000
   -899652.69648                                  25080856.868         120.000

 -11813926.54749  -9205598.80846  22721088.065    22721086.857         375.000
        12.000
 -24442746.45349 -19046262.82147  20408324.884    20408322.149         723.000
        67.000
 -12252233.90248  -9547175.33346  23020926.694    23020923.686         301.000
        10.000
   -420280.70647                                  25316388.168          87.000

 04  3  1  0 24  0.0000000  0  8G24G17G 4G 8G13G 7G10G 5
 -14345285.72248 -11178111.18846  22757640.882    22757637.420         305.000
        11.000
  -1588823.12648  -1238041.69344  24253808.130    24253802.258         127.000
         2.000
 -14819147.61249 -11547351.02546  21956004.684    21956003.000         504.000
        24.000
   -877471.72248                                  25085077.724         110.000

 -11834940.80849  -9221973.53546  22717088.872    22717088.119         379.000
        12.000
 -24447796.72849 -19050198.09447  20407363.883    20407361.180         728.000
        67.000
 -12335597.57248  -9612133.99746  23005063.890    23005059.956         295.000
        10.000
   -503537.67947   -392363.77944  25300549.817    25300545.172          93.000
         2.000
 04  3  1  0 24 30.0000000  0  8G24G17G 4G 8G13G 7G10G 5
 -14369070.66748 -11196644.90046  22753114.414    22753111.139         304.000
        11.000
  -1633740.92648  -1273042.51344  24245259.539    24245255.473         138.000
         2.000
 -14810779.55449 -11540830.45146  21957596.635    21957595.356         503.000
        24.000
   -855607.04248                                  25089238.128         106.000

 -11855560.13449  -9238040.52046  22713165.613    22713164.398         380.000
        12.000
 -24452467.87049 -19053837.94047  20406474.925    20406472.290         728.000
        67.000
 -12418651.64148  -9676851.40346  22989258.489    22989255.179         298.000
        10.000
   -586518.34148   -457020.58845  25284758.550    25284755.446         111.000
         4.000
 04  3  1  0 25  0.0000000  0  8G24G17G 4G 8G13G 7G10G 5
 -14392773.09948 -11215114.29746  22748603.867    22748601.057         312.000
        11.000
  -1678478.79448  -1307903.14444  24236748.011    24236742.364         137.000
         2.000
 -14802418.81049 -11534315.57646  21959187.917    21959186.477         506.000
        24.000
   -834062.51848                                  25093337.926         116.000

 -11875786.09949  -9253800.99246  22709316.204    22709315.352         372.000
        12.000
 -24456762.09349 -19057184.08247  20405657.732    20405655.138         731.000
        67.000
 -12501397.91248  -9741328.96946  22973512.154    22973508.909         292.000
        11.000
   -669224.29447   -521460.65046  25269019.245    25269015.967          95.000
        10.000
 04  3  1  0 25 30.0000000  0  8G24G17G 4G 8G13G 7G10G 5
 -14416390.76148 -11233517.64746  22744109.476    22744106.331         305.000
        11.000
  -1723034.40948                                  24228262.934         129.000

 -14794062.91349 -11527804.47746  21960778.155    21960776.356         499.000
        24.000
   -812834.83048                                  25097377.741         123.000

 -11895612.80249  -9269250.35046  22705543.674    22705542.607         374.000
        13.000
 -24460674.59449 -19060232.77947  20404913.345    20404910.723         734.000
        67.000
 -12583831.28248  -9805562.72346  22957826.079    22957822.846         300.000
        11.000
   -751650.14447   -585686.88846  25253333.825    25253330.301          97.000
        11.000
 04  3  1  0 26  0.0000000  0  8G24G17G 4G 8G13G 7G10G 5
 -14439931.16848 -11251860.79346  22739629.650    22739626.639         301.000
        10.000
  -1767415.34848  -1377204.30544  24219819.971    24219816.431         120.000
         2.000
 -14785719.30849 -11521302.95746  21962365.908    21962364.191         503.000
        24.000
   -791930.99848                                  25101355.528         122.000

 -11915045.34549  -9284392.57346  22701845.157    22701844.673         373.000
        12.000
 -24464210.56249 -19062988.07447  20404240.310    20404237.650         729.000
        68.000
 -12665956.48448  -9869556.34946  22942197.417    22942194.831         302.000
        10.000
   -833800.59148   -649705.60345  25237701.431    25237698.648         104.000
         8.000
 04  3  1  0 26 30.0000000  0  8G24G17G 4G 8G13G 7G10G 5
 -14463392.89248 -11270142.64146  22735165.751    22735162.026         306.000
        12.000
  -1811619.84848  -1411649.33844  24211411.266    24211403.861         118.000
         2.000
 -14777386.09649 -11514809.53346  21963951.527    21963949.955         503.000
        24.000
   -771348.43248                                  25105272.078         125.000

 -11934078.71149  -9299223.74646  22698223.558    22698222.715         372.000
        13.000
 -24467365.87849 -19065446.75647  20403639.932    20403637.267         731.000
        67.000
 -12747769.12948  -9933306.41646  22926629.381    22926626.339         299.000
        10.000
   -915671.30748   -713507.30344  25222119.654    25222118.895         104.000
         3.000
 04  3  1  0 27  0.0000000  0  8G24G17G 4G 8G13G 7G10G 5
 -14486777.74549 -11288364.58446  22730716.103    22730712.397         317.000
        11.000
  -1855649.39948  -1445958.01044  24203029.217    24203025.783         119.000
         2.000
 -14769064.56549 -11508325.21846  21965535.023    21965533.575         504.000
        24.000
   -751087.91648                                  25109127.629         120.000

 -11952711.44849  -9313742.74146  22694677.257    22694676.930         369.000
        12.000
 -24470139.53449 -19067608.04147  20403112.236    20403109.530         735.000
        67.000
 -12829267.93048  -9996811.93546  22911120.971    22911117.437         300.000
        10.000
   -997259.98047   -777085.49044  25206594.912    25206592.672          91.000
         2.000
 04  3  1  0 27 30.0000000  0  7G24G17G 4G 8G13G 7G10
 -14510084.59248 -11306525.74646  22726280.803    22726277.108         315.000
        11.000
  -1899502.81048                                  24194681.291         122.000

 -14760753.41649 -11501848.98546  21967116.284    21967114.977         500.000
        24.000
   -731147.34648                                  25112921.929         111.000

 -11970939.25349  -9327946.21246  22691209.384    22691208.318         369.000
        12.000
 -24472528.01849 -19069469.19547  20402657.591    20402655.071         738.000
        67.000
 -12910448.86148 -10060069.76346  22895672.877    22895669.214         308.000
        11.000
 04  3  1  0 28  0.0000000  0  7G24G17G 4G 8G13G 7G10
 -14533318.01048 -11324629.68646  22721859.541    22721856.112         315.000
        11.000
  -1943184.05748  -1514166.74144  24186375.340    24186369.639         128.000
         2.000
 -14752456.70149 -11495384.00246  21968695.300    21968693.889         501.000
        24.000
   -711530.08648                                  25116655.036         116.000

 -11988763.45349  -9341835.17746  22687817.468    22687816.508         369.000
        13.000
 -24474533.27549 -19071031.73047  20402276.026    20402273.450         737.000
        68.000
 -12991313.71549 -10123081.30446  22880284.417    22880281.443         319.000
        11.000
 04  3  1  0 28 30.0000000  0  8G24G17G 4G 8G13G 7G10G 5
 -14556471.97948 -11342671.72446  22717453.011    22717449.447         307.000
        11.000
  -1986686.86048  -1548065.06544  24178093.631    24178091.636         134.000
         2.000
 -14744167.87049 -11488925.16446  21970272.755    21970271.194         499.000
        24.000
   -692228.85448                                  25120327.428         104.000

 -12006174.74849  -9355402.39846  22684504.533    22684503.356         369.000
        12.000
 -24476146.48349 -19072288.77347  20401968.944    20401966.375         733.000
        68.000
 -13071853.28148 -10185839.37346  22864957.863    22864954.714         310.000
        11.000
         -.12257                                  25160342.604          77.000

 04  3  1  0 29  0.0000000  0  7G24G17G 4G 8G13G 7G10
 -14579554.57449 -11360658.13946  22713060.905    22713057.326         319.000
        11.000
  -2030019.15148  -1581830.42544  24169849.867    24169846.241         142.000
         2.000
 -14735894.48249 -11482478.36346  21971847.135    21971845.618         497.000
        24.000
   -673250.76948                                  25123938.980         115.000

 -12023178.12349  -9368651.76246  22681268.681    22681267.345         359.000
        12.000
 -24477373.27949 -19073244.71347  20401735.615    20401732.971         735.000
        68.000
 -13152072.84348 -10248348.08646  22849692.853    22849689.472         312.000
        12.000
 04  3  1  0 29 30.0000000  0  8G24G17G 4G 8G13G 7G10G 5
 -14602569.62049 -11378591.92946  22708681.227    22708677.572         319.000
        11.000
  -2073184.66948  -1615465.87044  24161634.418    24161631.101         129.000
         2.000
 -14727640.10849 -11476046.38046  21973417.942    21973416.286         492.000
        23.000
   -654598.72848                                  25127488.766         119.000

 -12039774.49449  -9381583.97546  22678109.616    22678109.279         365.000
        12.000
 -24478214.95949 -19073900.56247  20401575.320    20401572.855         737.000
        67.000
 -13231973.25948 -10310608.10946  22834488.031    22834484.774         314.000
        12.000
         -.27058                                  25129785.333         107.000

 04  3  1  0 30  0.0000000  0  8G24G17G 4G 8G13G 7G10G 5
 -14625508.73549 -11396466.54846  22704316.256    22704312.567         324.000
        11.000
  -2116175.01648  -1648964.81544  24153453.604    24153449.832         125.000
         2.000
 -14719396.04449 -11469622.42746  21974986.549    21974985.204         493.000
        23.000
   -636263.51248                                  25130977.609         112.000

 -12055952.70049  -9394190.34846  22675031.959    22675030.709         368.000
        12.000
 -24478660.92349 -19074248.06247  20401490.633    20401487.920         734.000
        67.000
 -13311543.74149 -10372611.05946  22819346.255    22819343.530         334.000
        13.000
    -79847.60348    -62217.95044  25114596.851    25114591.093         124.000
         2.000
 04  3  1  0 30 30.0000000  0  8G24G17G 4G 8G13G 7G10G 5
 -14648378.71949 -11414287.29346  22699964.082    22699960.430         324.000
        12.000
  -2158996.67848  -1682332.30644  24145305.129    24145301.525         127.000
         2.000
 -14711168.94449 -11463211.69446  21976551.883    21976550.510         485.000
        23.000
   -618250.61948                                  25134405.640         103.000

 -12071716.00449  -9406473.41846  22672031.638    22672030.774         363.000
        12.000
 -24478715.50849 -19074290.59547  20401480.003    20401477.427         732.000
        68.000
 -13390788.19149 -10434359.95146  22804266.808    22804263.864         338.000
        13.000
   -159398.98648                                  25099453.307         131.000

 04  3  1  0 31  0.0000000  0  8G24G17G 4G 8G13G 7G10G 5
 -14671177.60949 -11432052.65446  22695625.208    22695622.338         334.000
        12.000
  -2201647.46148  -1715566.68244  24137189.276    24137185.211         127.000
         2.000
 -14702955.95549 -11456811.95946  21978115.071    21978113.560         488.000
        23.000
   -600557.13047                                  25137772.316          99.000

 -12087059.59749  -9418429.45646  22669111.620    22669111.132         368.000
        12.000
 -24478374.13049 -19074024.58547  20401545.161    20401542.539         737.000
        68.000
 -13469701.81649 -10495851.05146  22789250.333    22789246.839         330.000
        13.000
   -238648.99948                                  25084372.646         124.000

 04  3  1  0 31 30.0000000  0  8G24G17G 4G 8G13G 7G10G 5
 -14693915.66049 -11449770.59046  22691298.602    22691295.195         331.000
        12.000
  -2244137.78848  -1748675.98644  24129106.790    24129099.842         129.000
         2.000
 -14694767.19449 -11450431.09946  21979673.026    21979671.648         479.000
        22.000
   -583192.30448                                  25141076.750         108.000

 -12101991.02849  -9430064.31446  22666269.916    22666269.567         364.000
        12.000
 -24477644.80449 -19073456.27547  20401683.876    20401681.244         737.000
        68.000
 -13548292.34049 -10557090.38446  22774294.924    22774291.567         334.000
        13.000
   -317605.19948                                  25069347.087         100.000

 04  3  1  0 32  0.0000000  0  8G24G17G 4G 8G13G 7G10G 5
 -14716598.42749 -11467445.45646  22686981.896    22686978.843         334.000
        12.000
  -2286472.67048                                  24121043.316         124.000

 -14686607.44449 -11444072.84546  21981225.883    21981224.327         474.000
        22.000
   -566160.39548                                  25144318.098         113.000

 -12116512.20649  -9441379.50146  22663507.414    22663506.338         366.000
        12.000
 -24476530.29949 -19072587.82947  20401895.995    20401893.305         737.000
        69.000
 -13626561.87749 -10618079.60346  22759400.102    22759397.241         331.000
        14.000
   -396269.71647                                  25054376.887          88.000

 04  3  1  0 32 30.0000000  0  8G24G17G 4G 8G13G 7G10G 5
 -14739205.45349 -11485061.30846  22682680.171    22682676.806         334.000
        12.000
  -2328631.11048  -1814514.89044  24113023.038    24113020.610         127.000
         2.000
 -14678455.49449 -11437720.67946  21982777.499    21982775.554         469.000
        23.000
   -549439.29447                                  25147499.256          97.000

 -12130599.63749  -9452356.70646  22660826.796    22660825.689         370.000
        12.000
 -24475007.35749 -19071401.11847  20402185.751    20402183.201         744.000
        68.000
 -13704486.95549 -10678800.40946  22744571.205    22744568.489         336.000
        13.000
   -474618.33947                                  25039467.240          90.000

 04  3  1  0 33  0.0000000  0  8G24G17G 4G 8G13G 7G10G 5
 -14761745.84149 -11502625.23146  22678391.546    22678387.533         338.000
        13.000
  -2370622.71448  -1847235.57744  24105034.010    24105030.626         136.000
         2.000
 -14670320.65949 -11431381.83846  21984325.096    21984323.392         462.000
        22.000
   -533037.70147                                  25150619.959          90.000

 -12144259.67849  -9463000.87446  22658226.982    22658226.326         374.000
        12.000
 -24473083.35849 -19069901.89947  20402551.767    20402549.248         741.000
        69.000
 -13782074.77449 -10739258.42446  22729807.029    22729804.107         337.000
        13.000
   -552658.17348                                  25024617.815         112.000

 04  3  1  0 33 30.0000000  0  8G24G17G 4G 8G13G 7G10G 5
 -14784219.54349 -11520137.18246  22674113.868    22674111.129         345.000
        12.000
  -2412447.32848  -1879826.11444  24097072.982    24097070.915         127.000
         2.000
 -14662202.43749 -11425055.94646  21985869.682    21985868.205         461.000
        22.000
   -516954.32647                                  25153680.895          98.000

 -12157489.90249  -9473310.12346  22655709.271    22655708.581         375.000
        13.000
 -24470755.95749 -19068088.33847  20402994.682    20402992.232         747.000
        69.000
 -13859322.13749 -10799451.14546  22715107.122    22715104.304         332.000
        13.000
   -630385.80448                                  25009826.917         128.000

 04  3  1  0 34  0.0000000  0  8G24G17G 4G 8G13G 7G10G 5
 -14806634.30249 -11537603.21746  22669848.363    22669845.664         340.000
        13.000
  -2454112.46248  -1912292.46044  24089146.142    24089142.412         125.000
         2.000
 -14654107.91249 -11418748.52046  21987410.304    21987408.852         466.000
        22.000
   -501195.64347                                  25156679.676          96.000

 -12170294.80349  -9483287.95346  22653272.808    22653272.074         387.000
        13.000
 -24468030.30749 -19065964.45447  20403513.521    20403510.905         748.000
        69.000
 -13936234.29249 -10859382.66646  22700470.685    22700468.196         329.000
        13.000
   -707806.02348                                  24995095.190         145.000

 04  3  1  0 34 30.0000000  0  8G24G17G 4G 8G13G 7G10G 5
 -14828996.70749 -11555028.44846  22665593.409    22665590.202         345.000
        13.000
  -2495624.59348  -1944639.53544  24081245.660    24081243.533         133.000
         2.000
 -14646043.06649 -11412464.22046  21988945.223    21988943.433         462.000
        22.000
   -485767.19548                                  25159616.275         104.000

 -12182678.15549  -9492937.29946  22650916.562    22650915.422         384.000
        13.000
 -24464910.64649 -19063533.54747  20404107.152    20404104.611         752.000
        70.000
 -14012815.09349 -10919055.98546  22685899.124    22685895.627         337.000
        13.000
   -784922.42248   -611626.66744  24980421.927    24980420.105         149.000
         2.000
 04  3  1  0 35  0.0000000  0  8G24G17G 4G 8G13G 7G10G 5
 -14851296.77649 -11572405.12046  22661349.669    22661346.221         338.000
        13.000
  -2536973.48448  -1976859.40444  24073378.532    24073374.996         130.000
         2.000
 -14637997.52749 -11406194.96546  21990475.947    21990474.240         457.000
        21.000
   -470657.74848                                  25162490.778         102.000

 -12194626.74249  -9502247.87246  22648641.426    22648641.672         391.000
        13.000
 -24461384.47349 -19060785.87747  20404778.223    20404775.637         754.000
        70.000
 -14089051.83749 -10978461.21546  22671390.595    22671388.192         344.000
        14.000
   -861721.67748   -671470.22344  24965807.783    24965805.821         142.000
         2.000
 04  3  1  0 35 30.0000000  0  8G24G17G 4G 8G13G 7G10G 5
 -14873538.88449 -11589736.61546  22657117.228    22657113.894         345.000
        13.000
  -2578163.38048  -2008955.41844  24065541.525    24065536.378         126.000
         2.000
 -14629974.97649 -11399943.62046  21992003.208    21992001.057         461.000
        22.000
   -455870.42747                                  25165304.539          99.000

 -12206142.23549  -9511220.96546  22646450.760    22646450.694         400.000
        13.000
 -24457453.99849 -19057723.16747  20405526.128    20405523.569         755.000
        71.000
 -14164946.00849 -11037599.50746  22656949.048    22656946.081         347.000
        14.000
   -938205.23548                                  24951251.450         133.000

 04  3  1  0 36  0.0000000  0  8G24G17G 4G 8G13G 7G10G 5
 -14895725.45949 -11607024.84046  22652895.590    22652892.104         349.000
        13.000
  -2619196.98848  -2040929.64444  24057733.254    24057728.664         135.000
         2.000
 -14621977.68949 -11393711.96446  21993524.554    21993522.793         460.000
        22.000
   -441406.58647                                  25168056.995          90.000

 -12217224.43449  -9519856.42846  22644341.653    22644341.604         398.000
        13.000
 -24453119.50149 -19054345.63247  20406350.923    20406348.411         756.000
        70.000
 -14240497.64749 -11096470.88546  22642571.611    22642568.775         337.000
        13.000
  -1014372.58248                                  24936756.454         117.000

 04  3  1  0 36 30.0000000  0  8G24G17G 4G 8G13G 7G10G 5
 -14917857.32649 -11624270.45446  22648684.211    22648680.690         355.000
        13.000
  -2660074.61648  -2072782.30544  24049953.186    24049949.529         133.000
         2.000
 -14614005.74349 -11387500.05146  21995041.608    21995039.997         465.000
        23.000
   -427265.64848                                  25170748.842         123.000

 -12227871.06649  -9528152.48946  22642316.653    22642315.623         401.000
        14.000
 -24448379.17149 -19050651.86547  20407253.031    20407250.499         755.000
        70.000
 -14315704.93549 -11155073.94046  22628260.288    22628257.596         348.000
        14.000
  -1090221.29248                                  24922323.320         122.000

 04  3  1  0 37  0.0000000  0  8G24G17G 4G 8G13G 7G10G 5
 -14939928.21249 -11641468.53446  22644483.285    22644480.232         346.000
        13.000
  -2700790.19748  -2104508.73844  24042203.726    24042201.363         134.000
         2.000
