     2.10           OBSERVATION DATA    G (GPS)             RINEX VERSION / TYPE
teqc  2004Jan13     gpsops              20040302 00:03:49UTCPGM / RUN BY / DATE
Linux 2.0.36|Pentium II|gcc -static|Linux|486/DX+           COMMENT
BIT 2 OF LLI FLAGS DATA COLLECTED UNDER A/S CONDITION       COMMENT
CC2nonCC ESOC Version 6.5, 21 Mar 2012                      COMMENT
CC2nonCC executed 20151123 090148.405                       COMMENT
CC C1, P2 converted to non-CC type                          COMMENT
 average P1-C1 biases applied by CC2nonCC by PRN (ps):      COMMENT
    49          83  1603  -814   652  -551  -447   516 -1531COMMENT
   775        1649   460  -880  -283  -808   141 -5558  -931COMMENT
  -171   683         375   779  1373    84  -124   942  2124COMMENT
  -193                                                      COMMENT
ZAMB                                                        MARKER NAME
34601M001                                                   MARKER NUMBER
GGN                 JPL                                     OBSERVER / AGENCY
T145                ROGUE SNR-8000      3.2.32.11           REC # / TYPE / VERS
372                 AOAD/M_T        NONE                    ANT # / TYPE
  5422185.0218  2920890.1107 -1676726.9836                  APPROX POSITION XYZ
        0.0540        0.0000        0.0000                  ANTENNA: DELTA H/E/N
     1     1                                                WAVELENGTH FACT L1/2
     6    L1    L2    P2    C1    S1    S2                  # / TYPES OF OBSERV
    30.0000                                                 INTERVAL
                                                            COMMENT
This data is provided as a public service by NASA/JPL.      COMMENT
No warranty is expressed or implied regarding suitability   COMMENT
for use.  For further information, contact:                 COMMENT
Dave Stowers, NASA/JPL m/s 238-600                          COMMENT
4800 Oak Grove Drive, Pasadena CA 91109 USA                 COMMENT
                                                            COMMENT
    P1 =    P1  TurboRogue; =    Y1  Benchmark              COMMENT
    L1 = L1(P1) TurboRogue; = L1(Y1) Benchmark              COMMENT
    P2 =    P2  TurboRogue; =    Y2  Benchmark              COMMENT
    L2 = L2(P2) TurboRogue; = L2(Y2) Benchmark              COMMENT
 SNR is mapped to RINEX snr flag value [1,4-9]              COMMENT
    SNR:  >=316 >=100 >=31.6 >=10 >=3.2    >0 bad=0         COMMENT
L1 & L2:      9     8     7     6     5     4     1         COMMENT
teqc windowed: start @ 2004 Mar  1 00:00:00.000             COMMENT
teqc windowed: delta = 86399.000 sec                        COMMENT
  2004     3     1     0     0    0.0000000     GPS         TIME OF FIRST OBS
                                                            END OF HEADER
  4  3  1  0  0  0.0000000  0  8G 4G24G17G 8G13G 7G10G20
 -15210387.25849 -11852213.75246  21881555.514    21881553.571         523.000
        26.000
 -13082511.00248 -10194132.22445  22997940.188    22997936.608         293.000
         9.000
   -901411.67347         0.000           0.000    24707426.190          99.000
         0.000
  -2295560.87048         0.000           0.000    24815225.604         108.000
         0.000
 -10426045.56549  -8124134.17846  22985194.674    22985193.136         323.000
        10.000
 -23810771.89249 -18553815.41647  20528585.968    20528583.241         720.000
        64.000
  -8024179.31548  -6252590.89645  23825501.963    23825497.830         204.000
         5.000
    108509.13348     84599.87344  24899688.524    24899687.897         142.000
         2.000
  4  3  1  0  0 30.0000000  0  8G 4G24G17G 8G13G 7G10G20
 -15202856.41249 -11846345.54746  21882988.229    21882986.592         519.000
        26.000
 -13111703.23648 -10216879.38845  22992383.915    22992381.433         292.000
         9.000
   -955904.84648   -744859.61944  24697059.433    24697056.929         106.000
         1.000
  -2258867.94848         0.000           0.000    24822208.057         117.000
         0.000
 -10462882.33749  -8152838.12446  22978184.239    22978183.302         320.000
        10.000
 -23831671.01749 -18570100.43947  20524609.135    20524606.450         726.000
        64.000
  -8119740.97148  -6327054.40645  23807316.156    23807312.879         217.000
         5.000
    211532.61348    164877.94444  24919292.907    24919292.727         140.000
         2.000
  4  3  1  0  1  0.0000000  0  8G 4G24G17G 8G13G 7G10G20
 -15195279.58149 -11840441.50746  21884429.994    21884428.378         514.000
        26.000
 -13140752.67648 -10239515.27845  22986856.394    22986853.710         300.000
         9.000
  -1010181.60848         0.000           0.000    24686728.117         100.000
         0.000
  -2222466.97948         0.000           0.000    24829134.376         118.000
         0.000
 -10499437.69649  -8181322.78346  22971228.075    22971227.103         320.000
        10.000
 -23852271.05149 -18586152.40047  20520688.959    20520686.207         722.000
        64.000
  -8215089.19948  -6401351.64745  23789172.035    23789168.363         215.000
         4.000
    314603.68248    245193.06144  24938910.161    24938906.741         141.000
         2.000
  4  3  1  0  1 30.0000000  0  8G 4G24G17G 8G13G 7G10G20
 -15187648.20649 -11834494.96746  21885882.222    21885880.586         515.000
        26.000
 -13169650.76248 -10262033.22245  22981356.703    22981354.522         301.000
         9.000
  -1064232.26748         0.000           0.000    24676442.317         100.000
         0.000
  -2186348.66848         0.000           0.000    24836008.130         122.000
         0.000
 -10535699.14549  -8209578.42146  22964328.035    22964326.742         319.000
        10.000
 -23872560.12949 -18601962.06047  20516828.146    20516825.414         727.000
        64.000
  -8310211.84648  -6475473.08845  23771070.863    23771067.446         205.000
         4.000
    417730.20548    325551.42944  24958532.475    24958531.097         141.000
         2.000
  4  3  1  0  2  0.0000000  0  8G 4G24G17G 8G13G 7G10G20
 -15179977.85149 -11828518.05046  21887341.905    21887340.116         511.000
        26.000
 -13198412.72448 -10284445.10045  22975884.592    22975881.256         299.000
         9.000
  -1118071.68947         0.000           0.000    24666196.381          98.000
         0.000
  -2150528.25348         0.000           0.000    24842824.356         119.000
         0.000
 -10571678.27349  -8237614.07046  22957481.594    22957480.228         324.000
        10.000
 -23892550.73849 -18617539.14747  20513023.979    20513021.246         726.000
        65.000
  -8405120.94448  -6549428.12745  23753011.240    23753006.637         217.000
         5.000
    520895.50248    405939.92744  24978162.958    24978161.907         133.000
         2.000
  4  3  1  0  2 30.0000000  0  8G 4G24G17G 8G13G 7G10G20
 -15172271.39349 -11822512.99946  21888808.261    21888806.470         507.000
        26.000
 -13227041.40648 -10306753.13245  22970435.883    22970432.825         288.000
         9.000
  -1171702.29347         0.000           0.000    24655990.337          92.000
         0.000
  -2115008.11548         0.000           0.000    24849583.357         112.000
         0.000
 -10607374.23749  -8265429.08146  22950689.087    22950687.208         318.000
        10.000
 -23912242.77749 -18632883.58447  20509276.677    20509274.107         734.000
        64.000
  -8499816.06548  -6623216.42645  23734991.466    23734986.960         222.000
         6.000
    624095.38548         0.000           0.000    24997799.784         127.000
         0.000
  4  3  1  0  3  0.0000000  0  8G 4G24G17G 8G13G 7G10G20
 -15164521.47249 -11816474.08946  21890283.057    21890281.351         509.000
        26.000
 -13255529.52748 -10328951.62945  22965015.147    22965011.867         292.000
         9.000
  -1225115.78947         0.000           0.000    24645826.535          98.000
         0.000
  -2079780.83348         0.000           0.000    24856286.694         116.000
         0.000
 -10642775.64949  -8293014.56745  22943951.497    22943950.766         322.000
         9.000
 -23931625.85449 -18647987.26947  20505588.243    20505585.493         725.000
        65.000
  -8594286.62248  -6696829.74945  23717014.260    23717009.734         221.000
         5.000
    727336.03148         0.000           0.000    25017446.784         132.000
         0.000
  4  3  1  0  3 30.0000000  0  8G 4G24G17G 8G13G 7G10G20
 -15156731.96049 -11810404.32646  21891765.601    21891763.543         509.000
        26.000
 -13283880.99548 -10351043.65146  22959620.649    22959617.189         303.000
        10.000
  -1278315.44248         0.000           0.000    24635703.087         103.000
         0.000
  -2044849.58648         0.000           0.000    24862934.247         116.000
         0.000
 -10677882.76048  -8320370.73346  22937271.486    22937269.653         312.000
        10.000
 -23950700.85949 -18662850.90047  20501958.397    20501955.765         733.000
        65.000
  -8688532.94048  -6770268.33445  23699078.465    23699074.892         214.000
         5.000
    830612.36148    647277.80144  25037097.459    25037099.250         124.000
         2.000
  4  3  1  0  4  0.0000000  0  8G 4G24G17G 8G13G 7G10G20
 -15148908.50349 -11804308.11146  21893254.016    21893252.343         513.000
        26.000
 -13312101.38948 -10373033.53246  22954250.443    22954246.874         299.000
        10.000
  -1331306.37748  -1037380.74544  24625624.471    24625619.490         101.000
         2.000
  -2010219.69748         0.000           0.000    24869524.434         117.000
         0.000
 -10712697.43249  -8347499.01945  22930645.464    22930644.826         318.000
         9.000
 -23969470.29149 -18677476.42347  20498386.401    20498383.780         718.000
        64.000
  -8782557.15248  -6843533.85045  23681186.381    23681182.703         216.000
         5.000
    933917.80148    727775.60944  25056761.015    25056758.535         129.000
         2.000
  4  3  1  0  4 30.0000000  0  8G 4G24G17G 8G13G 7G10G20
 -15141055.14349 -11798188.59646  21894748.389    21894746.857         516.000
        25.000
 -13340194.63648 -10394924.33845  22948903.639    22948900.692         295.000
         9.000
  -1384091.74247  -1078512.07544  24615577.462    24615574.240          99.000
         1.000
  -1975894.66948         0.000           0.000    24876056.223         109.000
         0.000
 -10747219.88949  -8374399.61846  22924076.599    22924075.384         321.000
        10.000
 -23987935.46949 -18691864.86647  20494872.994    20494870.315         732.000
        64.000
  -8876360.28648  -6916627.10945  23663335.662    23663332.704         229.000
         5.000
   1037247.14148    808291.94644  25076422.254    25076420.731         120.000
         2.000
  4  3  1  0  5  0.0000000  0  8G 4G24G17G 8G13G 7G10G20
 -15133163.20449 -11792039.02046  21896249.971    21896248.659         518.000
        26.000
 -13368151.99548 -10416709.26146  22943584.318    22943580.685         296.000
        10.000
  -1436662.31148         0.000           0.000    24605570.639         107.000
         0.000
  -1941865.17847         0.000           0.000    24882531.191          99.000
         0.000
 -10781437.54349  -8401062.70046  22917565.281    22917564.014         326.000
        10.000
 -24006084.23949 -18706006.75647  20491419.146    20491416.392         720.000
        64.000
  -8969929.92648  -6989538.40345  23645529.460    23645526.904         233.000
         6.000
   1140608.06148         0.000           0.000    25096090.231         129.000
         0.000
  4  3  1  0  5 30.0000000  0  8G 4G24G17G 8G13G 7G10G20
 -15125237.13149 -11785862.84546  21897758.281    21897756.828         517.000
        26.000
 -13395977.81548 -10438391.68746  22938289.298    22938285.200         290.000
        10.000
  -1489022.02747         0.000           0.000    24595606.363          98.000
         0.000
  -1908135.33948         0.000           0.000    24888949.745         101.000
         0.000
 -10815351.00749  -8427488.74646  22911111.825    22911110.994         340.000
        11.000
 -24023918.23949 -18719903.37247  20488025.470    20488022.699         722.000
        64.000
  -9063267.13848  -7062268.60045  23627769.652    23627765.644         236.000
         6.000
   1243994.80148    969394.07444  25115764.562    25115763.166         112.000
         1.000
  4  3  1  0  6  0.0000000  0  8G 4G24G17G 8G13G 7G10G20
 -15117282.67949 -11779664.55746  21899272.171    21899270.603         519.000
        26.000
 -13423678.40748 -10459976.52346  22933018.539    22933014.487         296.000
        10.000
  -1541365.83347         0.000           0.000    24585683.518          74.000
         0.000
  -1874710.80848         0.000           0.000    24895310.233         108.000
         0.000
 -10848962.63649  -8453679.60246  22904715.656    22904714.387         333.000
        10.000
 -24041440.49449 -18733557.07147  20484691.150    20484688.507         726.000
        64.000
  -9156374.87148  -7134819.98545  23610049.874    23610047.131         220.000
         5.000
   1347400.29148   1049969.79044  25135440.802    25135441.489         123.000
         2.000
  4  3  1  0  6 30.0000000  0  8G 4G24G17G 8G13G 7G10G20
 -15109298.95349 -11773443.45346  21900791.207    21900789.921         522.000
        26.000
 -13451252.42148 -10481462.73746  22927770.387    22927767.113         293.000
        10.000
  -1594062.43847         0.000           0.000    24575792.525          70.000
         0.000
  -1841589.75647         0.000           0.000    24901612.597          97.000
         0.000
 -10882267.43249  -8479631.37246  22898379.021    22898376.554         329.000
        10.000
 -24058646.79749 -18746964.57447  20481416.784    20481414.102         719.000
        64.000
  -9249248.44248  -7207188.89145  23592377.111    23592373.722         225.000
         6.000
   1450824.55548   1130560.16544  25155122.692    25155121.676         109.000
         1.000
  4  3  1  0  7  0.0000000  0  7G 4G24G 8G13G 7G10G20
 -15101282.75249 -11767197.04746  21902316.805    21902315.282         523.000
        26.000
 -13478696.95648 -10502848.05846  22922548.368    22922544.572         292.000
        10.000
  -1808768.69948         0.000           0.000    24907858.553         107.000
         0.000
 -10915258.88549  -8505338.97446  22892100.183    22892098.653         331.000
        10.000
 -24075531.23649 -18760121.27447  20478203.836    20478201.176         721.000
        64.000
  -9341881.56948  -7279370.47245  23574749.503    23574746.391         245.000
         6.000
   1554269.51748   1211166.63844  25174812.157    25174807.161         120.000
         2.000
  4  3  1  0  7 30.0000000  0  8G 4G24G17G 8G13G 7G10G20
 -15093241.64549 -11760931.23446  21903847.201    21903845.517         528.000
        27.000
 -13506019.41148 -10524138.25546  22917348.823    22917344.906         288.000
        10.000
        -0.20258         0.000           0.000    24556146.053         109.000
         0.000
  -1776254.84448         0.000           0.000    24914045.605         111.000
         0.000
 -10947940.51849  -8530805.16546  22885881.415    22885879.393         324.000
        10.000
 -24092098.34449 -18773030.70447  20475051.230    20475048.464         716.000
        64.000
  -9434278.34948  -7351367.88645  23557167.593    23557163.965         247.000
         6.000
   1657726.59148   1291782.51344  25194497.317    25194494.095         113.000
         2.000
  4  3  1  0  8  0.0000000  0  8G 4G24G17G 8G13G 7G10G20
 -15085171.68249 -11754642.93746  21905382.878    21905381.227         529.000
        27.000
 -13533216.04148 -10545330.40946  22912172.085    22912169.568         289.000
        10.000
    -51323.48648    -39991.32744  24546382.985    24546379.380         113.000
         2.000
  -1744043.71048         0.000           0.000    24920175.156         105.000
         0.000
 -10980304.92749  -8556024.15846  22879722.036    22879720.402         319.000
        10.000
 -24108341.21549 -18785687.48047  20471960.432    20471957.646         720.000
        63.000
  -9526431.61248  -7423175.55145  23539630.906    23539627.684         242.000
         6.000
   1761198.68748         0.000           0.000    25214184.691         113.000
         0.000
  4  3  1  0  8 30.0000000  0  8G 4G24G17G 8G13G 7G10G20
 -15077078.42149 -11748336.48546  21906923.049    21906921.315         531.000
        27.000
 -13560292.54348 -10566428.95146  22907020.729    22907017.294         294.000
        10.000
   -102443.55347         0.000           0.000    24536650.821          97.000
         0.000
  -1712140.41748         0.000           0.000    24926246.586         122.000
         0.000
 -11012353.98349  -8580997.41646  22873622.726    22873621.816         326.000
        10.000
 -24124262.76149 -18798093.87447  20468930.471    20468927.753         716.000
        64.000
  -9618343.83548  -7494795.35945  23522141.856    23522137.296         246.000
         7.000
   1864678.91048         0.000           0.000    25233876.099         119.000
         0.000
  4  3  1  0  9  0.0000000  0  8G 4G24G17G 8G13G 7G10G20
 -15068959.41849 -11742009.97046  21908467.703    21908466.174         527.000
        27.000
 -13587246.29748 -10587431.83646  22901891.581    22901887.957         288.000
        10.000
   -153357.01148         0.000           0.000    24526962.237         106.000
         0.000
  -1680541.81048         0.000           0.000    24932259.292         127.000
         0.000
 -11044081.49349  -8605720.12946  22867585.598    22867584.311         328.000
        10.000
 -24139857.36349 -18810245.50847  20465962.756    20465960.088         716.000
        64.000
  -9710009.27448  -7566222.89745  23504697.973    23504694.002         258.000
         7.000
   1968168.72448         0.000           0.000    25253569.217         110.000
         0.000
  4  3  1  0  9 30.0000000  0  8G24G17G 4G 8G13G 7G10G20
 -13614077.51848 -10608339.24746  22896785.538    22896781.971         283.000
        10.000
   -204063.69548         0.000           0.000    24517313.762         113.000
         0.000
 -15060814.76449 -11735663.47346  21910017.685    21910016.151         527.000
        27.000
  -1649247.70448         0.000           0.000    24938214.561         134.000
         0.000
 -11075483.87849  -8630189.48446  22861610.554    22861608.515         336.000
        11.000
 -24155122.33249 -18822140.28547  20463057.950    20463055.241         716.000
        64.000
  -9801424.94048  -7637455.82445  23487300.661    23487298.182         250.000
         6.000
   2071666.80948   1614333.43544  25273263.852    25273264.697         120.000
         1.000
  4  3  1  0 10  0.0000000  0  8G24G17G 4G 8G13G 7G10G20
 -13640788.94448 -10629153.32045  22891703.073    22891699.006         285.000
         9.000
   -254565.84448   -198361.82944  24507706.451    24507703.484         113.000
         2.000
 -15052647.02749 -11729298.99546  21911572.368    21911570.332         522.000
        27.000
  -1618260.25548         0.000           0.000    24944110.940         124.000
         0.000
 -11106560.63949  -8654405.11846  22855696.594    22855694.965         342.000
        11.000
 -24170057.43549 -18833778.02347  20460215.918    20460213.236         723.000
        64.000
  -9892590.23648  -7708493.63945  23469953.389    23469949.914         260.000
         7.000
   2175169.23748         0.000           0.000    25292960.315         112.000
         0.000
  4  3  1  0 10 30.0000000  0  8G24G17G 4G 8G13G 7G10G20
 -13667380.35448 -10649873.86846  22886643.040    22886638.984         289.000
        10.000
   -304862.72548         0.000           0.000    24498132.296         114.000
         0.000
 -15044456.00849 -11722916.37246  21913130.625    21913129.022         521.000
        26.000
  -1587578.45048         0.000           0.000    24949949.606         126.000
         0.000
 -11137307.21749  -8678363.46246  22849845.630    22849844.320         352.000
        10.000
 -24184659.41349 -18845156.18447  20457437.158    20457434.578         725.000
        64.000
  -9983501.31648  -7779333.37845  23452652.818    23452650.059         254.000
         7.000
   2278675.52748   1775638.91044  25312659.937    25312656.335         112.000
         1.000
  4  3  1  0 11  0.0000000  0  8G24G17G 4G 8G13G 7G10G20
 -13693851.45648 -10670500.67346  22881604.797    22881601.753         292.000
        10.000
   -354953.25348         0.000           0.000    24488599.991         111.000
         0.000
 -15036241.02349 -11716515.07146  21914693.745    21914692.210         516.000
        26.000
  -1557201.18348         0.000           0.000    24955730.508         135.000
         0.000
 -11167719.76849  -8702061.53146  22844057.536    22844056.601         344.000
        11.000
 -24198924.96649 -18856272.19347  20454722.503    20454719.986         729.000
        65.000
 -10074154.64548  -7849972.25645  23435403.396    23435398.976         251.000
         7.000
   2382185.11448   1856295.73744  25332356.805    25332354.009         122.000
         2.000
  4  3  1  0 11 30.0000000  0  8G24G17G 4G 8G13G 7G10G20
 -13720213.72448 -10691042.66546  22876588.395    22876584.913         287.000
        10.000
   -404848.48248   -315465.05044  24479107.286    24479105.949         118.000
         1.000
 -15028013.42049 -11710103.93846  21916259.148    21916257.829         515.000
        26.000
  -1527139.53948         0.000           0.000    24961450.801         128.000
         0.000
 -11197806.08149  -8725505.38746  22838332.295    22838331.464         352.000
        11.000
 -24212862.68049 -18867132.74647  20452070.428    20452067.774         734.000
        65.000
 -10164558.39148  -7920416.66745  23418198.954    23418195.779         253.000
         7.000
   2485685.24048         0.000           0.000    25352049.520         113.000
         0.000
  4  3  1  0 12  0.0000000  0  8G24G17G 4G 8G13G 7G10G20
 -13746464.40948 -10711497.70946  22871593.888    22871589.728         289.000
        10.000
   -454545.31048         0.000           0.000    24469648.824         120.000
         0.000
 -15019770.49949 -11703680.86946  21917828.220    21917826.337         510.000
        26.000
  -1497390.14148         0.000           0.000    24967111.747         119.000
         0.000
 -11227560.04749  -8748690.28246  22832670.111    22832669.506         357.000
        11.000
 -24226467.04349 -18877733.54347  20449481.592    20449478.901         733.000
        66.000
 -10254706.61148  -7990661.96945  23401043.808    23401041.280         254.000
         7.000
   2589177.86648         0.000           0.000    25371743.098         112.000
         0.000
  4  3  1  0 12 30.0000000  0  8G24G17G 4G 8G13G 7G10G20
 -13772605.30648 -10731867.21746  22866618.966    22866615.181         288.000
        10.000
   -504044.80348   -392760.78744  24460233.387    24460228.849         117.000
         2.000
 -15011514.00249 -11697247.22246  21919399.453    21919397.622         510.000
        26.000
  -1467954.22448         0.000           0.000    24972713.306         110.000
         0.000
 -11256979.57449  -8771614.56346  22827072.428    22827071.235         364.000
        11.000
 -24239736.79049 -18888073.60247  20446956.396    20446953.681         730.000
        66.000
 -10344597.88448  -8060707.04945  23383938.392    23383935.545         251.000
         7.000
   2692659.93748   2098224.23944  25391436.702    25391435.012         119.000
         1.000
  4  3  1  0 13  0.0000000  0  8G24G17G 4G 8G13G 7G10G20
 -13798628.36348 -10752144.89046  22861666.530    22861663.077         285.000
        10.000
   -553338.83148   -431171.68444  24450849.766    24450848.888         118.000
         2.000
 -15003235.78349 -11690796.65346  21920974.352    21920972.738         505.000
        25.000
  -1438823.10148         0.000           0.000    24978256.888         127.000
         0.000
 -11286053.32449  -8794269.41846  22821539.615    22821538.797         372.000
        11.000
 -24252661.33949 -18898144.67547  20444497.090    20444494.287         732.000
        66.000
 -10434221.26148  -8130543.38145  23366884.538    23366880.507         260.000
         7.000
   2796138.53548         0.000           0.000    25411125.882         105.000
         0.000
  4  3  1  0 13 30.0000000  0  8G24G17G 4G 8G13G 7G10G20
 -13824536.65548 -10772333.13046  22856736.491    22856733.497         298.000
        10.000
   -602429.39348         0.000           0.000    24441506.863         116.000
         0.000
 -14994938.49049 -11684331.21946  21922553.441    21922551.784         506.000
        25.000
  -1409998.90948         0.000           0.000    24983741.791         113.000
         0.000
 -11314780.38349  -8816654.11646  22816073.142    22816072.155         371.000
        11.000
 -24265240.44049 -18907946.56547  20442103.091    20442100.508         729.000
        66.000
 -10523576.18348  -8200170.52245  23349881.390    23349876.525         249.000
         7.000
   2899609.79448         0.000           0.000    25430816.571         123.000
         0.000
  4  3  1  0 14  0.0000000  0  8G24G17G 4G 8G13G 7G10G20
 -13850336.68748 -10792437.04446  22851826.769    22851823.539         293.000
        10.000
   -651322.56948   -507522.55044  24432205.528    24432203.101         123.000
         1.000
 -14986628.43349 -11677855.83046  21924135.048    21924133.097         501.000
        25.000
  -1381487.45848         0.000           0.000    24989167.178         112.000
         0.000
 -11343163.84349  -8838771.07546  22810672.066    22810670.671         364.000
        11.000
 -24277477.65549 -18917482.05147  20439774.509    20439771.876         730.000
        65.000
 -10612665.85848  -8269590.98345  23332926.436    23332923.543         255.000
         7.000
   3003066.27848         0.000           0.000    25450502.916         114.000
         0.000
  4  3  1  0 14 30.0000000  0  8G24G17G 4G 8G13G 7G10G20
 -13876029.59748 -10812457.45546  22846937.126    22846934.285         291.000
        10.000
   -700019.34748   -545468.03144  24422939.289    24422936.351         118.000
         2.000
 -14978306.79949 -11671371.42846  21925718.410    21925716.499         499.000
        25.000
  -1353289.16648         0.000           0.000    24994533.209         113.000
         0.000
 -11371201.18149  -8860618.33146  22805335.938    22805335.355         366.000
        11.000
 -24289371.50049 -18926749.97547  20437511.147    20437508.493         726.000
        65.000
 -10701488.24548  -8338803.17445  23316024.041    23316021.102         258.000
         7.000
   3106505.74848         0.000           0.000    25470186.893         103.000
         0.000
  4  3  1  0 15  0.0000000  0  8G24G17G 4G 8G13G 7G10G20
 -13901620.48748 -10832398.37746  22842067.745    22842064.488         290.000
        10.000
   -748524.48548   -583264.17544  24413710.459    24413705.432         117.000
         2.000
 -14969978.51049 -11664881.83746  21927303.159    21927301.173         490.000
        25.000
  -1325408.80348         0.000           0.000    24999838.925         115.000
         0.000
 -11398893.99849  -8882197.12946  22800067.604    22800065.604         366.000
        11.000
 -24300924.18449 -18935752.05847  20435312.735    20435310.033         724.000
        66.000
 -10790045.48648  -8407808.74445  23299173.847    23299169.666         270.000
         8.000
   3209922.30848         0.000           0.000    25489866.623         114.000
         0.000
  4  3  1  0 15 30.0000000  0  8G24G17G 4G 8G13G 7G10G20
 -13927097.30848 -10852250.43246  22837220.732    22837216.294         290.000
        10.000
   -796825.20748   -620901.06344  24404520.549    24404515.366         136.000
         2.000
 -14961631.22749 -11658377.44446  21928891.747    21928889.687         489.000
        24.000
  -1297833.30048         0.000           0.000    25005086.045         115.000
         0.000
 -11426226.86849  -8903495.44346  22794865.743    22794864.563         375.000
        11.000
 -24312120.71649 -18944476.61947  20433182.079    20433179.368         722.000
        66.000
 -10878322.23448  -8476595.75945  23282374.137    23282370.811         269.000
         8.000
   3313326.72948         0.000           0.000    25509543.643         106.000
         0.000
  4  3  1  0 16  0.0000000  0  8G24G17G 4G 8G13G 7G10G20
 -13952475.81148 -10872025.87946  22832389.714    22832386.749         290.000
        10.000
   -844936.85048   -658390.64244  24395365.381    24395358.492         118.000
         2.000
 -14953280.64949 -11651870.48646  21930480.654    21930478.843         492.000
        24.000
  -1270577.71848         0.000           0.000    25010272.640         119.000
         0.000
 -11453211.64749  -8924522.52646  22789729.983    22789729.253         373.000
        11.000
 -24322973.95049 -18952933.67747  20431116.769    20431114.061         722.000
        65.000
 -10966330.89948  -8545173.86945  23265626.720    23265623.287         268.000
         8.000
   3416702.79848         0.000           0.000    25529215.708         103.000
         0.000
  4  3  1  0 16 30.0000000  0  8G24G17G 4G 8G13G 7G10G20
 -13977750.95448 -10891720.76746  22827580.344    22827576.997         288.000
        10.000
   -892854.30648         0.000           0.000    24386241.002         129.000
         0.000
 -14944921.70749 -11645357.01146  21932071.378    21932069.520         492.000
        24.000
  -1243636.59648         0.000           0.000    25015399.578         121.000
         0.000
 -11479840.19649  -8945272.02346  22784662.755    22784662.226         380.000
        11.000
 -24333476.49949 -18961117.47447  20429118.163    20429115.463         719.000
        65.000
 -11054063.69148  -8613537.02145  23248931.849    23248928.031         269.000
         8.000
   3520054.20348         0.000           0.000    25548883.023         103.000
         0.000
  4  3  1  0 17  0.0000000  0  8G24G17G 4G 8G13G 7G10G20
 -14002922.55548 -10911334.98346  22822791.113    22822787.346         294.000
        10.000
   -940576.87048   -732915.22344  24377163.177    24377159.443         128.000
         2.000
 -14936553.61049 -11638836.40546  21933663.239    21933661.787         491.000
        24.000
  -1217008.62848         0.000           0.000    25020466.445         119.000
         0.000
 -11506108.65449  -8965740.93746  22779663.693    22779663.369         377.000
        11.000
 -24343624.98849 -18969025.37847  20427186.929    20427184.321         723.000
        65.000
 -11141516.96248  -8681682.35845  23232288.966    23232286.396         282.000
         8.000
   3623380.24748         0.000           0.000    25568545.363         115.000
         0.000
  4  3  1  0 17 30.0000000  0  8G24G17G 4G 8G13G 7G10G20
 -14027989.64948 -10930867.76346  22818020.214    22818017.160         292.000
        10.000
   -988103.03948         0.000           0.000    24368115.246         121.000
         0.000
 -14928175.23449 -11632307.79046  21935258.067    21935256.230         491.000
        24.000
  -1190692.07048         0.000           0.000    25025474.533         122.000
         0.000
 -11532012.27949  -8985925.56446  22774735.692    22774734.055         380.000
        12.000
 -24353415.61949 -18976654.43447  20425323.864    20425321.150         717.000
        66.000
 -11228686.64748  -8749606.73445  23215701.610    23215698.676         285.000
         9.000
   3726681.25547         0.000           0.000    25588203.101          98.000
         0.000
  4  3  1  0 18  0.0000000  0  8G24G17G 4G 8G13G 7G10G20
 -14052958.26348 -10950323.80646  22813269.472    22813265.908         295.000
        10.000
  -1035438.38848   -806833.15744  24359112.097    24359108.189         128.000
         2.000
 -14919792.68249 -11625775.91846  21936852.964    21936851.396         490.000
        24.000
  -1164692.21348         0.000           0.000    25030421.631         111.000
         0.000
 -11557554.01049  -9005828.19146  22769875.119    22769873.547         380.000
        12.000
 -24362851.62249 -18984007.15947  20423528.369    20423525.555         721.000
        65.000
 -11315575.78748  -8817312.49045  23199167.556    23199164.274         292.000
         9.000
   3829950.10048         0.000           0.000    25607854.614         110.000
         0.000
  4  3  1  0 18 30.0000000  0  8G24G17G 4G 8G13G 7G10G20
 -14077831.89248 -10969705.82046  22808535.664    22808532.486         293.000
        10.000
  -1082585.73048   -843571.37244  24350137.862    24350135.388         114.000
         2.000
 -14911409.08249 -11619243.23046  21938448.171    21938446.530         487.000
        24.000
  -1139011.61348         0.000           0.000    25035308.532         112.000
         0.000
 -11582733.59449  -9025448.62846  22765083.572    22765082.036         385.000
        12.000
 -24371933.54949 -18991083.98047  20421799.949    20421797.163         713.000
        65.000
 -11402184.29348  -8884799.56945  23182686.483    23182682.425         279.000
         9.000
   3933182.65447         0.000           0.000    25627498.430          99.000
         0.000
  4  3  1  0 19  0.0000000  0  8G24G17G 4G 8G13G 7G10G20
 -14102611.56748 -10989014.69145  22803820.657    22803817.098         294.000
         9.000
  -1129545.92348         0.000           0.000    24341199.988         124.000
         0.000
 -14903024.81849 -11612710.02346  21940043.982    21940042.242         493.000
        24.000
  -1113650.60748         0.000           0.000    25040134.670         123.000
         0.000
 -11607548.57649  -9044784.93446  22760360.553    22760360.092         391.000
        12.000
 -24380659.80749 -18997883.65447  20420139.381    20420136.797         720.000
        65.000
 -11488510.12948  -8952066.38945  23166259.190    23166255.927         299.000
         9.000
   4036376.80347         0.000           0.000    25647135.135          85.000
         0.000
  4  3  1  0 19 30.0000000  0  8G24G17G 4G 8G13G 7G10G20
 -14127293.01748 -11008246.93746  22799123.716    22799120.330         294.000
        10.000
  -1176314.31048   -916606.50744  24332304.840    24332299.328         119.000
         2.000
 -14894635.76349 -11606173.08146  21941640.334    21941638.504         490.000
        24.000
  -1088604.01848         0.000           0.000    25044900.957         126.000
         0.000
 -11631991.19749  -9063831.13346  22755708.883    22755708.642         390.000
        12.000
 -24389023.18649 -19004400.56547  20418547.964    20418545.263         722.000
        66.000
 -11574546.06548  -9019107.32046  23149886.620    23149883.363         293.000
        10.000
   4139536.28948         0.000           0.000    25666766.685         100.000
         0.000
  4  3  1  0 20  0.0000000  0  8G24G17G 4G 8G13G 7G10G20
 -14151883.80248 -11027408.56446  22794444.653    22794440.709         289.000
        10.000
  -1222898.25748   -952905.61844  24323436.664    24323434.733         120.000
         1.000
 -14886248.98149 -11599637.91246  21943235.999    21943234.589         494.000
        24.000
  -1063878.54248         0.000           0.000    25049606.172         121.000
         0.000
 -11656065.64249  -9082590.42146  22751128.487    22751127.534         393.000
        12.000
 -24397028.62749 -19010638.56847  20417024.589    20417022.025         729.000
        66.000
 -11660296.55148  -9085925.81945  23133568.066    23133565.544         300.000
         9.000
   4242652.47347         0.000           0.000    25686388.302          88.000
         0.000
  4  3  1  0 20 30.0000000  0  7G24G17G 4G 8G13G 7G10
 -14176376.88248 -11046494.07046  22789783.052    22789779.586         285.000
        10.000
  -1269290.22348   -989055.20344  24314611.090    24314607.322         133.000
         2.000
 -14877857.25349 -11593098.88746  21944832.969    21944831.310         488.000
        24.000
  -1039466.50148         0.000           0.000    25054251.102         112.000
         0.000
 -11679761.40949  -9101054.64746  22746618.494    22746618.182         388.000
        12.000
 -24404666.40249 -19016590.08047  20415571.132    20415568.547         727.000
        66.000
 -11745751.61948  -9152514.13546  23117307.290    23117304.037         301.000
        10.000
  4  3  1  0 21  0.0000000  0  8G24G17G 4G 8G13G 7G10G 5
 -14200770.74448 -11065502.24946  22785141.325    22785137.797         291.000
        10.000
  -1315488.28148  -1025053.68644  24305819.925    24305815.902         126.000
         2.000
 -14869459.06349 -11586554.83046  21946431.445    21946429.644         495.000
        24.000
  -1015365.25948         0.000           0.000    25058837.518         116.000
         0.000
 -11703073.65049  -9119220.01446  22742182.268    22742181.935         383.000
        12.000
 -24411932.07949 -19022251.64147  20414188.508    20414185.910         727.000
        66.000
 -11830906.62048  -9218868.62946  23101103.157    23101099.757         306.000
        10.000
         0.23658         0.000           0.000    25396368.095         115.000
         0.000
  4  3  1  0 21 30.0000000  0  8G24G17G 4G 8G13G 7G10G 5
 -14225067.38948 -11084434.68346  22780516.964    22780514.119         290.000
        10.000
  -1361494.15848  -1060902.35244  24297068.827    24297061.276         125.000
         2.000
 -14861055.59049 -11580006.66146  21948030.287    21948028.525         494.000
        24.000
   -991575.91848         0.000           0.000    25063364.679         133.000
         0.000
 -11726001.01249  -9137085.47746  22737820.489    22737819.259         391.000
        12.000
 -24418824.91449 -19027622.67947  20412876.753    20412874.189         725.000
        66.000
 -11915760.33748  -9284988.35846  23084956.057    23084952.335         299.000
        10.000
    -84575.14448         0.000           0.000    25380271.411         110.000
         0.000
  4  3  1  0 22  0.0000000  0  8G24G17G 4G 8G13G 7G10G 5
 -14249284.50848 -11103305.14446  22775909.094    22775906.096         298.000
        10.000
  -1407325.29148  -1096614.89244  24288344.883    24288339.506         122.000
         2.000
 -14852664.96049 -11573468.49346  21949626.998    21949625.327         496.000
        24.000
   -968115.66248         0.000           0.000    25067828.651         110.000
         0.000
 -11748558.05249  -9154662.37646  22733527.722    22733526.505         379.000
        12.000
 -24425360.11749 -19032715.04147  20411633.249    20411630.562         724.000
        67.000
 -12000327.62648  -9350884.88846  23068862.963    23068859.501         298.000
        10.000
   -168898.98047         0.000           0.000    25364224.603          95.000
         0.000
  4  3  1  0 22 30.0000000  0  8G24G17G 4G 8G13G 7G10G 5
 -14273416.70848 -11122109.43946  22771316.813    22771313.578         293.000
        10.000
  -1452975.85148  -1132186.75344  24279658.554    24279651.714         116.000
         2.000
 -14844280.88549 -11566935.43646  21951222.318    21951220.711         493.000
        24.000
   -944977.71348         0.000           0.000    25072232.175         114.000
         0.000
 -11770735.60949  -9171943.57646  22729307.684    22729306.370         383.000
        13.000
 -24431529.40149 -19037522.27147  20410459.260    20410456.614         725.000
        67.000
 -12084599.68248  -9416551.36746  23052826.817    23052823.099         304.000
        10.000
   -252962.08547         0.000           0.000    25348227.779          88.000
         0.000
  4  3  1  0 23  0.0000000  0  8G24G17G 4G 8G13G 7G10G 5
 -14297455.98348 -11140841.31546  22766742.750    22766738.881         290.000
        10.000
  -1498437.61148  -1167611.45844  24271006.503    24271000.784         116.000
         2.000
 -14835895.21249 -11560401.13446  21952818.163    21952816.609         502.000
        24.000
   -922153.36548         0.000           0.000    25076575.017         130.000
         0.000
 -11792522.61949  -9188920.43646  22725160.907    22725160.420         381.000
        12.000
 -24437322.00649 -19042035.98347  20409356.942    20409354.237         723.000
        67.000
 -12168565.80648  -9481979.46346  23036848.214    23036844.939         304.000
        10.000
   -336753.44448         0.000           0.000    25332284.117         101.000
         0.000
  4  3  1  0 23 30.0000000  0  8G24G17G 4G 8G13G 7G10G 5
 -14321413.43948 -11159509.44146  22762183.969    22762180.131         298.000
        10.000
  -1543721.15348         0.000           0.000    24262383.186         114.000
         0.000
 -14827518.60249 -11553873.89546  21954411.973    21954410.450         497.000
        25.000
   -899652.69648         0.000           0.000    25080856.734         120.000
         0.000
 -11813926.54749  -9205598.80846  22721088.559    22721087.351         375.000
        12.000
 -24442746.45349 -19046262.82147  20408324.719    20408321.984         723.000
        67.000
 -12252233.90248  -9547175.33346  23020926.235    23020923.227         301.000
        10.000
   -420280.70647         0.000           0.000    25316387.924          87.000
         0.000
  4  3  1  0 24  0.0000000  0  8G24G17G 4G 8G13G 7G10G 5
 -14345285.72248 -11178111.18846  22757640.994    22757637.532         305.000
        11.000
  -1588823.12648  -1238041.69344  24253807.888    24253802.016         127.000
         2.000
 -14819147.61249 -11547351.02546  21956005.165    21956003.481         504.000
        24.000
   -877471.72248         0.000           0.000    25085077.590         110.000
         0.000
 -11834940.80849  -9221973.53546  22717089.366    22717088.613         379.000
        12.000
 -24447796.72849 -19050198.09447  20407363.718    20407361.015         728.000
        67.000
 -12335597.57248  -9612133.99746  23005063.431    23005059.497         295.000
        10.000
   -503537.67947   -392363.77944  25300549.573    25300544.928          93.000
         2.000
  4  3  1  0 24 30.0000000  0  8G24G17G 4G 8G13G 7G10G 5
 -14369070.66748 -11196644.90046  22753114.526    22753111.251         304.000
        11.000
  -1633740.92648  -1273042.51344  24245259.297    24245255.231         138.000
         2.000
 -14810779.55449 -11540830.45146  21957597.116    21957595.837         503.000
        24.000
   -855607.04248         0.000           0.000    25089237.994         106.000
         0.000
 -11855560.13449  -9238040.52046  22713166.107    22713164.892         380.000
        12.000
 -24452467.87049 -19053837.94047  20406474.760    20406472.125         728.000
        67.000
 -12418651.64148  -9676851.40346  22989258.030    22989254.720         298.000
        10.000
   -586518.34148   -457020.58845  25284758.306    25284755.202         111.000
         4.000
  4  3  1  0 25  0.0000000  0  8G24G17G 4G 8G13G 7G10G 5
 -14392773.09948 -11215114.29746  22748603.979    22748601.169         312.000
        11.000
  -1678478.79448  -1307903.14444  24236747.769    24236742.122         137.000
         2.000
 -14802418.81049 -11534315.57646  21959188.398    21959186.958         506.000
        24.000
   -834062.51848         0.000           0.000    25093337.792         116.000
         0.000
 -11875786.09949  -9253800.99246  22709316.698    22709315.846         372.000
        12.000
 -24456762.09349 -19057184.08247  20405657.567    20405654.973         731.000
        67.000
 -12501397.91248  -9741328.96946  22973511.695    22973508.450         292.000
        11.000
   -669224.29447   -521460.65046  25269019.001    25269015.723          95.000
        10.000
  4  3  1  0 25 30.0000000  0  8G24G17G 4G 8G13G 7G10G 5
 -14416390.76148 -11233517.64746  22744109.588    22744106.443         305.000
        11.000
  -1723034.40948         0.000           0.000    24228262.692         129.000
         0.000
 -14794062.91349 -11527804.47746  21960778.636    21960776.837         499.000
        24.000
   -812834.83048         0.000           0.000    25097377.607         123.000
         0.000
 -11895612.80249  -9269250.35046  22705544.168    22705543.101         374.000
        13.000
 -24460674.59449 -19060232.77947  20404913.180    20404910.558         734.000
        67.000
 -12583831.28248  -9805562.72346  22957825.620    22957822.387         300.000
        11.000
   -751650.14447   -585686.88846  25253333.581    25253330.057          97.000
        11.000
  4  3  1  0 26  0.0000000  0  8G24G17G 4G 8G13G 7G10G 5
 -14439931.16848 -11251860.79346  22739629.762    22739626.751         301.000
        10.000
  -1767415.34848  -1377204.30544  24219819.729    24219816.189         120.000
         2.000
 -14785719.30849 -11521302.95746  21962366.389    21962364.672         503.000
        24.000
   -791930.99848         0.000           0.000    25101355.394         122.000
         0.000
 -11915045.34549  -9284392.57346  22701845.651    22701845.167         373.000
        12.000
 -24464210.56249 -19062988.07447  20404240.145    20404237.485         729.000
        68.000
 -12665956.48448  -9869556.34946  22942196.958    22942194.372         302.000
        10.000
   -833800.59148   -649705.60345  25237701.187    25237698.404         104.000
         8.000
  4  3  1  0 26 30.0000000  0  8G24G17G 4G 8G13G 7G10G 5
 -14463392.89248 -11270142.64146  22735165.863    22735162.138         306.000
        12.000
  -1811619.84848  -1411649.33844  24211411.024    24211403.619         118.000
         2.000
 -14777386.09649 -11514809.53346  21963952.008    21963950.436         503.000
        24.000
   -771348.43248         0.000           0.000    25105271.944         125.000
         0.000
 -11934078.71149  -9299223.74646  22698224.052    22698223.209         372.000
        13.000
 -24467365.87849 -19065446.75647  20403639.767    20403637.102         731.000
        67.000
 -12747769.12948  -9933306.41646  22926628.922    22926625.880         299.000
        10.000
   -915671.30748   -713507.30344  25222119.410    25222118.651         104.000
         3.000
  4  3  1  0 27  0.0000000  0  8G24G17G 4G 8G13G 7G10G 5
 -14486777.74549 -11288364.58446  22730716.215    22730712.509         317.000
        11.000
  -1855649.39948  -1445958.01044  24203028.975    24203025.541         119.000
         2.000
 -14769064.56549 -11508325.21846  21965535.504    21965534.056         504.000
        24.000
   -751087.91648         0.000           0.000    25109127.495         120.000
         0.000
 -11952711.44849  -9313742.74146  22694677.751    22694677.424         369.000
        12.000
 -24470139.53449 -19067608.04147  20403112.071    20403109.365         735.000
        67.000
 -12829267.93048  -9996811.93546  22911120.512    22911116.978         300.000
        10.000
   -997259.98047   -777085.49044  25206594.668    25206592.428          91.000
         2.000
  4  3  1  0 27 30.0000000  0  7G24G17G 4G 8G13G 7G10
 -14510084.59248 -11306525.74646  22726280.915    22726277.220         315.000
        11.000
  -1899502.81048         0.000           0.000    24194681.049         122.000
         0.000
 -14760753.41649 -11501848.98546  21967116.765    21967115.458         500.000
        24.000
   -731147.34648         0.000           0.000    25112921.795         111.000
         0.000
 -11970939.25349  -9327946.21246  22691209.878    22691208.812         369.000
        12.000
 -24472528.01849 -19069469.19547  20402657.426    20402654.906         738.000
        67.000
 -12910448.86148 -10060069.76346  22895672.418    22895668.755         308.000
        11.000
  4  3  1  0 28  0.0000000  0  7G24G17G 4G 8G13G 7G10
 -14533318.01048 -11324629.68646  22721859.653    22721856.224         315.000
        11.000
  -1943184.05748  -1514166.74144  24186375.098    24186369.397         128.000
         2.000
 -14752456.70149 -11495384.00246  21968695.781    21968694.370         501.000
        24.000
   -711530.08648         0.000           0.000    25116654.902         116.000
         0.000
 -11988763.45349  -9341835.17746  22687817.962    22687817.002         369.000
        13.000
 -24474533.27549 -19071031.73047  20402275.861    20402273.285         737.000
        68.000
 -12991313.71549 -10123081.30446  22880283.958    22880280.984         319.000
        11.000
  4  3  1  0 28 30.0000000  0  8G24G17G 4G 8G13G 7G10G 5
 -14556471.97948 -11342671.72446  22717453.123    22717449.559         307.000
        11.000
  -1986686.86048  -1548065.06544  24178093.389    24178091.394         134.000
         2.000
 -14744167.87049 -11488925.16446  21970273.236    21970271.675         499.000
        24.000
   -692228.85448         0.000           0.000    25120327.294         104.000
         0.000
 -12006174.74849  -9355402.39846  22684505.027    22684503.850         369.000
        12.000
 -24476146.48349 -19072288.77347  20401968.779    20401966.210         733.000
        68.000
 -13071853.28148 -10185839.37346  22864957.404    22864954.255         310.000
        11.000
        -0.12257         0.000           0.000    25160342.360          77.000
         0.000
  4  3  1  0 29  0.0000000  0  7G24G17G 4G 8G13G 7G10
 -14579554.57449 -11360658.13946  22713061.017    22713057.438         319.000
        11.000
  -2030019.15148  -1581830.42544  24169849.625    24169845.999         142.000
         2.000
 -14735894.48249 -11482478.36346  21971847.616    21971846.099         497.000
        24.000
   -673250.76948         0.000           0.000    25123938.846         115.000
         0.000
 -12023178.12349  -9368651.76246  22681269.175    22681267.839         359.000
        12.000
 -24477373.27949 -19073244.71347  20401735.450    20401732.806         735.000
        68.000
 -13152072.84348 -10248348.08646  22849692.394    22849689.013         312.000
        12.000
  4  3  1  0 29 30.0000000  0  8G24G17G 4G 8G13G 7G10G 5
 -14602569.62049 -11378591.92946  22708681.339    22708677.684         319.000
        11.000
  -2073184.66948  -1615465.87044  24161634.176    24161630.859         129.000
         2.000
 -14727640.10849 -11476046.38046  21973418.423    21973416.767         492.000
        23.000
   -654598.72848         0.000           0.000    25127488.632         119.000
         0.000
 -12039774.49449  -9381583.97546  22678110.110    22678109.773         365.000
        12.000
 -24478214.95949 -19073900.56247  20401575.155    20401572.690         737.000
        67.000
 -13231973.25948 -10310608.10946  22834487.572    22834484.315         314.000
        12.000
        -0.27058         0.000           0.000    25129785.089         107.000
         0.000
  4  3  1  0 30  0.0000000  0  8G24G17G 4G 8G13G 7G10G 5
 -14625508.73549 -11396466.54846  22704316.368    22704312.679         324.000
        11.000
  -2116175.01648  -1648964.81544  24153453.362    24153449.590         125.000
         2.000
 -14719396.04449 -11469622.42746  21974987.030    21974985.685         493.000
        23.000
   -636263.51248         0.000           0.000    25130977.475         112.000
         0.000
 -12055952.70049  -9394190.34846  22675032.453    22675031.203         368.000
        12.000
 -24478660.92349 -19074248.06247  20401490.468    20401487.755         734.000
        67.000
 -13311543.74149 -10372611.05946  22819345.796    22819343.071         334.000
        13.000
    -79847.60348    -62217.95044  25114596.607    25114590.849         124.000
         2.000
  4  3  1  0 30 30.0000000  0  8G24G17G 4G 8G13G 7G10G 5
 -14648378.71949 -11414287.29346  22699964.194    22699960.542         324.000
        12.000
  -2158996.67848  -1682332.30644  24145304.887    24145301.283         127.000
         2.000
 -14711168.94449 -11463211.69446  21976552.364    21976550.991         485.000
        23.000
   -618250.61948         0.000           0.000    25134405.506         103.000
         0.000
 -12071716.00449  -9406473.41846  22672032.132    22672031.268         363.000
        12.000
 -24478715.50849 -19074290.59547  20401479.838    20401477.262         732.000
        68.000
 -13390788.19149 -10434359.95146  22804266.349    22804263.405         338.000
        13.000
   -159398.98648         0.000           0.000    25099453.063         131.000
         0.000
  4  3  1  0 31  0.0000000  0  8G24G17G 4G 8G13G 7G10G 5
 -14671177.60949 -11432052.65446  22695625.320    22695622.450         334.000
        12.000
  -2201647.46148  -1715566.68244  24137189.034    24137184.969         127.000
         2.000
 -14702955.95549 -11456811.95946  21978115.552    21978114.041         488.000
        23.000
   -600557.13047         0.000           0.000    25137772.182          99.000
         0.000
 -12087059.59749  -9418429.45646  22669112.114    22669111.626         368.000
        12.000
 -24478374.13049 -19074024.58547  20401544.996    20401542.374         737.000
        68.000
 -13469701.81649 -10495851.05146  22789249.874    22789246.380         330.000
        13.000
   -238648.99948         0.000           0.000    25084372.402         124.000
         0.000
  4  3  1  0 31 30.0000000  0  8G24G17G 4G 8G13G 7G10G 5
 -14693915.66049 -11449770.59046  22691298.714    22691295.307         331.000
        12.000
  -2244137.78848  -1748675.98644  24129106.548    24129099.600         129.000
         2.000
 -14694767.19449 -11450431.09946  21979673.507    21979672.129         479.000
        22.000
   -583192.30448         0.000           0.000    25141076.616         108.000
         0.000
 -12101991.02849  -9430064.31446  22666270.410    22666270.061         364.000
        12.000
 -24477644.80449 -19073456.27547  20401683.711    20401681.079         737.000
        68.000
 -13548292.34049 -10557090.38446  22774294.465    22774291.108         334.000
        13.000
   -317605.19948         0.000           0.000    25069346.843         100.000
         0.000
  4  3  1  0 32  0.0000000  0  8G24G17G 4G 8G13G 7G10G 5
 -14716598.42749 -11467445.45646  22686982.008    22686978.955         334.000
        12.000
  -2286472.67048         0.000           0.000    24121043.074         124.000
         0.000
 -14686607.44449 -11444072.84546  21981226.364    21981224.808         474.000
        22.000
   -566160.39548         0.000           0.000    25144317.964         113.000
         0.000
 -12116512.20649  -9441379.50146  22663507.908    22663506.832         366.000
        12.000
 -24476530.29949 -19072587.82947  20401895.830    20401893.140         737.000
        69.000
 -13626561.87749 -10618079.60346  22759399.643    22759396.782         331.000
        14.000
   -396269.71647         0.000           0.000    25054376.643          88.000
         0.000
  4  3  1  0 32 30.0000000  0  8G24G17G 4G 8G13G 7G10G 5
 -14739205.45349 -11485061.30846  22682680.283    22682676.918         334.000
        12.000
  -2328631.11048  -1814514.89044  24113022.796    24113020.368         127.000
         2.000
 -14678455.49449 -11437720.67946  21982777.980    21982776.035         469.000
        23.000
   -549439.29447         0.000           0.000    25147499.122          97.000
         0.000
 -12130599.63749  -9452356.70646  22660827.290    22660826.183         370.000
        12.000
 -24475007.35749 -19071401.11847  20402185.586    20402183.036         744.000
        68.000
 -13704486.95549 -10678800.40946  22744570.746    22744568.030         336.000
        13.000
   -474618.33947         0.000           0.000    25039466.996          90.000
         0.000
  4  3  1  0 33  0.0000000  0  8G24G17G 4G 8G13G 7G10G 5
 -14761745.84149 -11502625.23146  22678391.658    22678387.645         338.000
        13.000
  -2370622.71448  -1847235.57744  24105033.768    24105030.384         136.000
         2.000
 -14670320.65949 -11431381.83846  21984325.577    21984323.873         462.000
        22.000
   -533037.70147         0.000           0.000    25150619.825          90.000
         0.000
 -12144259.67849  -9463000.87446  22658227.476    22658226.820         374.000
        12.000
 -24473083.35849 -19069901.89947  20402551.602    20402549.083         741.000
        69.000
 -13782074.77449 -10739258.42446  22729806.570    22729803.648         337.000
        13.000
   -552658.17348         0.000           0.000    25024617.571         112.000
         0.000
  4  3  1  0 33 30.0000000  0  8G24G17G 4G 8G13G 7G10G 5
 -14784219.54349 -11520137.18246  22674113.980    22674111.241         345.000
        12.000
  -2412447.32848  -1879826.11444  24097072.740    24097070.673         127.000
         2.000
 -14662202.43749 -11425055.94646  21985870.163    21985868.686         461.000
        22.000
   -516954.32647         0.000           0.000    25153680.761          98.000
         0.000
 -12157489.90249  -9473310.12346  22655709.765    22655709.075         375.000
        13.000
 -24470755.95749 -19068088.33847  20402994.517    20402992.067         747.000
        69.000
 -13859322.13749 -10799451.14546  22715106.663    22715103.845         332.000
        13.000
   -630385.80448         0.000           0.000    25009826.673         128.000
         0.000
  4  3  1  0 34  0.0000000  0  8G24G17G 4G 8G13G 7G10G 5
 -14806634.30249 -11537603.21746  22669848.475    22669845.776         340.000
        13.000
  -2454112.46248  -1912292.46044  24089145.900    24089142.170         125.000
         2.000
 -14654107.91249 -11418748.52046  21987410.785    21987409.333         466.000
        22.000
   -501195.64347         0.000           0.000    25156679.542          96.000
         0.000
 -12170294.80349  -9483287.95346  22653273.302    22653272.568         387.000
        13.000
 -24468030.30749 -19065964.45447  20403513.356    20403510.740         748.000
        69.000
 -13936234.29249 -10859382.66646  22700470.226    22700467.737         329.000
        13.000
   -707806.02348         0.000           0.000    24995094.946         145.000
         0.000
  4  3  1  0 34 30.0000000  0  8G24G17G 4G 8G13G 7G10G 5
 -14828996.70749 -11555028.44846  22665593.521    22665590.314         345.000
        13.000
  -2495624.59348  -1944639.53544  24081245.418    24081243.291         133.000
         2.000
 -14646043.06649 -11412464.22046  21988945.704    21988943.914         462.000
        22.000
   -485767.19548         0.000           0.000    25159616.141         104.000
         0.000
 -12182678.15549  -9492937.29946  22650917.056    22650915.916         384.000
        13.000
 -24464910.64649 -19063533.54747  20404106.987    20404104.446         752.000
        70.000
 -14012815.09349 -10919055.98546  22685898.665    22685895.168         337.000
        13.000
   -784922.42248   -611626.66744  24980421.683    24980419.861         149.000
         2.000
  4  3  1  0 35  0.0000000  0  8G24G17G 4G 8G13G 7G10G 5
 -14851296.77649 -11572405.12046  22661349.781    22661346.333         338.000
        13.000
  -2536973.48448  -1976859.40444  24073378.290    24073374.754         130.000
         2.000
 -14637997.52749 -11406194.96546  21990476.428    21990474.721         457.000
        21.000
   -470657.74848         0.000           0.000    25162490.644         102.000
         0.000
 -12194626.74249  -9502247.87246  22648641.920    22648642.166         391.000
        13.000
 -24461384.47349 -19060785.87747  20404778.058    20404775.472         754.000
        70.000
 -14089051.83749 -10978461.21546  22671390.136    22671387.733         344.000
        14.000
   -861721.67748   -671470.22344  24965807.539    24965805.577         142.000
         2.000
  4  3  1  0 35 30.0000000  0  8G24G17G 4G 8G13G 7G10G 5
 -14873538.88449 -11589736.61546  22657117.340    22657114.006         345.000
        13.000
