     2.10           OBSERVATION DATA    G (GPS)             RINEX VERSION / TYPE
teqc  2002Mar14     agnes               20040302 00:28:11UTCPGM / RUN BY / DATE
ZIMM                                                        MARKER NAME
14001M004                                                   MARKER NUMBER
GPSBASE             SWISSTOPO                               OBSERVER / AGENCY
20224769            TRIMBLE 4700        Nav  1.30 / Boot  1 REC # / TYPE / VERS
     0                                                      RCV CLOCK OFFS APPL
99390               TRM29659.00     NONE                    ANT # / TYPE
  4331297.3380   567555.6400  4633133.7180                  APPROX POSITION XYZ
        0.0000        0.0000        0.0000                  ANTENNA: DELTA H/E/N
     1     1                                                WAVELENGTH FACT L1/2
     8    C1    P2    L1    L2    S1    S2    D1    D2      # / TYPES OF OBSERV
    30.0000                                                 INTERVAL
  2004     3     1     0     0    0.0000000     GPS         TIME OF FIRST OBS
Linux 2.0.36|Pentium II|gcc -static|Linux|486/DX+           COMMENT
GPSBASE 2.10 2270                       01-Mar-04 00:01:52  COMMENT
                                                            END OF HEADER
 04  3  1  0  0  0.0000000  0 10G13G29G 8G28G21G31G26G27G17G10
  25229440.518    25229436.958    15323306.977 3  11466154.281 1        35.000
        17.000        3815.610        2973.203
  21380238.168    21380233.990   -15156294.477 9 -11805028.205 6        51.000
        44.000       -1319.141       -1027.902
  20311924.696    20311920.174   -18349025.365 9 -14288793.548 8        51.000
        48.000        1812.891        1412.642
  21896688.183    21896683.740   -14275719.736 9 -11111677.795 5        52.000
        41.000       -1678.105       -1307.615
  24547643.582    24547637.891    -2119473.199 5  -1646608.849 1        42.000
        23.000        -491.011        -382.606
  24776207.979                     -123497.571 4                        38.000
                      -404.023
  21841240.512    21841237.039   -10810650.557 9  -9002222.506 4        51.000
        39.000       -2008.071       -1564.731
  22620982.175    22620978.029    -1601862.808 8  -1229425.317 3        48.000
        35.000        3142.403        2448.625
  23383494.396    23383494.209    -3103676.256 4  -2404703.461 1        38.000
        24.000        3401.016        2650.142
  20702671.849    20702667.896   -15480207.629 9 -12054603.833 7        50.000
        47.000        1777.881        1385.362
 04  3  1  0  0 30.0000000  0 10G13G29G 8G28G21G31G26G27G17G10
  25251228.250    25251224.358    15437802.511 3  11555371.582 1        36.000
        17.000        3817.358        2974.565
  21372728.182    21372724.089   -15195760.401 9 -11835780.858 6        52.000
        43.000       -1311.948       -1022.297
  20322313.458    20322309.183   -18294431.379 9 -14246252.777 8        53.000
        48.000        1826.782        1423.467
  21887147.268    21887142.812   -14325857.121 9 -11150745.862 5        52.000
        41.000       -1664.326       -1296.878
  24544893.643    24544887.188    -2133931.736 6  -1657875.251 1        43.000
        22.000        -472.715        -368.349
  24773950.091    24773946.408     -135363.497 4   -170060.500 1        38.000
        11.000        -386.987        -301.549
  21829797.086    21829793.543   -10870786.575 9  -9049081.727 4        51.000
        39.000       -2000.986       -1559.210
  22638934.892    22638930.889    -1507521.073 8  -1155912.279 3        49.000
        35.000        3147.144        2452.320
  23402938.873    23402936.298    -3001501.960 6  -2325087.118 1        43.000
        28.000        3410.562        2657.580
  20712874.227    20712870.251   -15426594.027 9 -12012827.004 7        53.000
        47.000        1796.504        1399.873
 04  3  1  0  1  0.0000000  0 10G13G29G 8G28G21G31G26G27G17G10
  25273026.972    25273023.520    15552356.646 3  11644634.510 1        35.000
        19.000        3819.668        2976.365
  21365260.056    21365255.891   -15235005.775 9 -11866361.665 6        52.000
        43.000       -1304.561       -1016.541
  20332782.074    20332777.991   -18239418.528 8 -14203385.614 8        49.000
        48.000        1840.659        1434.280
  21877686.291    21877681.665   -14375574.358 9 -11189486.550 5        51.000
        41.000       -1650.278       -1285.931
  24542244.835    24542240.792    -2147842.705 5  -1668714.965 1        41.000
        22.000        -454.536        -354.184
  24771787.604    24771785.231     -146719.836 3   -178909.523 1        36.000
        11.000        -370.068        -288.365
  21818395.162    21818390.534   -10930705.452 9  -9095771.746 4        50.000
        39.000       -1993.691       -1553.526
  22656914.495    22656910.845    -1413036.882 8  -1082288.249 3        49.000
        37.000        3151.812        2455.957
  23422438.117    23422435.011    -2899041.823 7  -2245248.141 1        45.000
        30.000        3419.937        2664.885
  20723183.337    20723179.834   -15372419.229 8 -11970612.902 7        49.000
        47.000        1815.137        1414.392
 04  3  1  0  1 30.0000000  0  9G29G 8G28G21G31G26G27G17G10
  21357834.360    21357830.093   -15274028.320 9 -11896768.832 6        52.000
        44.000       -1297.158       -1010.773
  20343330.412    20343325.969   -18183987.184 8 -14160192.363 8        49.000
        48.000        1854.517        1445.078
  21868306.150    21868301.491   -14424868.159 9 -11227897.297 5        52.000
        41.000       -1636.162       -1274.932
  24539702.188    24539695.988    -2161204.129 5  -1679126.428 1        42.000
        20.000        -436.348        -340.011
  24769724.927    24769721.492     -157563.615 1   -187359.230 1        32.000
         9.000        -353.306        -275.303
  21807034.672    21807030.284   -10990404.678 9  -9142290.617 4        50.000
        39.000       -1986.426       -1547.864
  22674921.372    22674917.804    -1318410.460 8  -1008553.381 3        48.000
        36.000        3156.392        2459.526
  23441988.634    23441985.303    -2796297.910 6  -2165187.944 1        43.000
        27.000        3429.321        2672.198
  20733599.331    20733595.466   -15317683.059 8 -11927961.355 7        49.000
        47.000        1833.770        1428.911
 04  3  1  0  2  0.0000000  0  9G29G 8G28G21G31G26G27G17G10
  21350451.747    21350447.557   -15312824.619 9 -11926999.710 6        52.000
        43.000       -1289.316       -1004.662
  20353958.179    20353953.979   -18128136.488 9 -14116672.337 8        52.000
        48.000        1868.828        1456.230
  21859007.129    21859002.585   -14473734.035 9 -11265974.581 5        52.000
        41.000       -1621.533       -1263.532
  24537266.010    24537256.998    -2174012.881 6  -1689107.443 1        44.000
        22.000        -417.500        -325.325
  24767760.028                     -167890.732 2                        34.000
                      -335.625
  21795716.892    21795712.603   -11049880.568 9  -9188635.456 4        50.000
        39.000       -1978.608       -1541.773
  22692955.054    22692951.108    -1223640.351 8   -934706.559 2        48.000
        34.000        3161.543        2463.540
  23461592.258    23461591.573    -2693271.351 4  -2084907.565 1        39.000
        25.000        3439.141        2679.850
  20744122.594    20744118.530   -15262383.923 9 -11884871.136 7        53.000
        47.000        1852.842        1443.773
 04  3  1  0  2 30.0000000  0  9G29G 8G28G21G31G26G27G17G10
  21343113.091    21343108.821   -15351389.430 9 -11957050.195 6        52.000
        43.000       -1281.724        -998.746
  20364666.743    20364662.217   -18071863.716 9 -14072823.419 7        54.000
        47.000        1882.661        1467.009
  21849791.001    21849786.297   -14522165.780 9 -11303713.594 5        52.000
        42.000       -1607.285       -1252.430
  24534934.441    24534926.615    -2186264.384 6  -1698654.040 1        43.000
        23.000        -399.180        -311.049
  24765893.841                     -177695.503 1                        31.000
                      -318.145
  21784442.239    21784438.191   -11109127.961 9  -9234802.239 5        50.000
        40.000       -1971.250       -1536.039
  22711017.390    22711013.330    -1128724.035 8   -860745.797 3        48.000
        35.000        3166.201        2467.170
  23481252.407    23481250.441    -2589961.411 5  -2004406.277 1        40.000
        27.000        3448.232        2686.934
  20754753.124    20754748.973   -15206518.737 9 -11841339.829 7        53.000
        47.000        1871.450        1458.273
 04  3  1  0  3  0.0000000  0  9G29G 8G28G21G31G26G27G17G10
  21335817.924    21335813.641   -15389725.587 9 -11986922.530 6        52.000
        44.000       -1273.906        -992.654
  20375454.322    20375450.126   -18015174.843 9 -14028650.280 8        54.000
        48.000        1896.665        1477.921
  21840657.034    21840652.132   -14570165.266 9 -11341115.781 5        52.000
        42.000       -1592.573       -1240.966
  24532706.549    24532702.211    -2197961.219 5  -1707768.403 1        40.000
        23.000        -380.503        -296.496
  24764127.414                     -186980.331 2                        34.000
                      -300.825
  21773210.821    21773206.493   -11168149.421 9  -9280792.984 4        50.000
        39.000       -1963.467       -1529.974
  22729106.503    22729102.410    -1033666.852 8   -786675.285 3        49.000
        35.000        3171.025        2470.929
  23500965.078    23500962.048    -2486375.369 5  -1923689.983 1        41.000
        26.000        3457.607        2694.240
  20765490.873    20765486.487   -15150092.763 9 -11797371.562 7        54.000
        47.000        1890.347        1472.997
 04  3  1  0  3 30.0000000  0  9G29G 8G28G21G31G26G27G17G10
  21328567.301    21328562.655   -15427828.663 9 -12016613.232 6        51.000
        44.000       -1266.147        -986.608
  20386321.389    20386317.183   -17958067.586 9 -13984151.114 7        53.000
        47.000        1910.605        1488.783
  21831606.228    21831601.141   -14617727.229 9 -11378177.034 5        52.000
        42.000       -1577.979       -1229.594
  24530587.668    24530582.082    -2209099.552 5  -1716447.718 1        41.000
        22.000        -361.924        -282.019
  24762459.931                     -195740.327 1                        30.000
                      -283.184
  21762023.202    21762019.194   -11226940.446 9  -9326604.159 4        50.000
        39.000       -1955.840       -1524.031
  22747222.165    22747218.957     -938466.577 7   -712493.276 3        47.000
        35.000        3175.781        2474.635
  23520728.672    23520726.524    -2382513.208 5  -1842758.471 1        40.000
        24.000        3466.665        2701.298
  20776335.727    20776331.105   -15093103.285 9 -11752964.195 7        54.000
        47.000        1909.131        1487.634
 04  3  1  0  4  0.0000000  0  9G29G 8G28G21G31G26G27G17G10
  21321360.358    21321356.022   -15465699.915 9 -12046123.289 6        52.000
        44.000       -1258.525        -980.669
  20397267.406    20397263.129   -17900545.975 9 -13939329.081 8        54.000
        48.000        1924.214        1499.387
  21822638.669    21822634.036   -14664851.713 9 -11414897.392 5        52.000
        41.000       -1563.520       -1218.328
  24528574.518    24528568.044    -2219680.663 5  -1724692.750 1        42.000
        20.000        -343.462        -267.633
  24760891.501                                                          28.000
                      -265.635
  21750879.087    21750875.057   -11285502.062 8  -9372236.566 4        49.000
        39.000       -1948.232       -1518.103
  22765364.877    22765361.210     -843126.812 7   -638202.559 3        47.000
        35.000        3180.337        2478.185
  23540543.573    23540542.051    -2278380.999 5  -1761616.431 1        41.000
        26.000        3475.513        2708.192
  20787286.930    20787282.423   -15035553.604 9 -11708120.299 7        55.000
        47.000        1927.607        1502.032
 04  3  1  0  4 30.0000000  0  9G29G 8G28G21G31G26G27G17G10
  21314197.796    21314193.732   -15503340.306 9 -12075453.458 6        52.000
        44.000       -1250.825        -974.669
  20408291.510    20408287.496   -17842613.599 9 -13894186.973 7        54.000
        47.000        1937.900        1510.052
  21813754.427    21813749.564   -14711538.915 9 -11451277.018 5        52.000
        42.000       -1549.004       -1207.016
  24526666.346    24526660.683    -2229705.985 5  -1732504.732 1        40.000
        21.000        -324.951        -253.209
  24759425.318                     -211687.989 3                        36.000
                      -248.291
  21739778.822    21739774.712   -11343835.076 8  -9417690.853 5        49.000
        40.000       -1940.693       -1512.229
  22783533.601    22783528.928     -747650.793 7   -563805.679 2        47.000
        34.000        3184.751        2481.624
  23560411.813    23560409.730    -2173983.635 5  -1680267.886 1        42.000
        28.000        3484.204        2714.964
  20798344.015    20798339.933   -14977447.116 9 -11662842.538 7        54.000
        47.000        1946.167        1516.494
 04  3  1  0  5  0.0000000  0  9G29G 8G28G21G31G26G27G17G10
  21307078.827    21307074.513   -15540750.081 9 -12104603.935 6        52.000
        44.000       -1243.125        -968.669
  20419393.239    20419389.228   -17784273.407 9 -13848727.077 7        54.000
        47.000        1951.455        1520.614
  21804953.302    21804949.199   -14757788.134 9 -11487315.355 5        52.000
        42.000       -1534.316       -1195.571
  24524865.440    24524859.203    -2239176.497 5  -1739884.365 1        42.000
        23.000        -306.470        -238.808
  24758056.443                     -218876.417 2                        33.000
                      -230.903
  21728721.643    21728718.179   -11401939.739 9  -9462967.203 5        50.000
        40.000       -1933.022       -1506.251
  22801727.688    22801723.718     -652041.359 8   -489304.832 3        48.000
        35.000        3189.175        2485.071
  23580326.019    23580323.897    -2069326.471 5  -1598716.850 1        40.000
        26.000        3492.808        2721.668
  20809506.844    20809503.057   -14918786.211 9 -11617132.751 7        54.000
        47.000        1964.585        1530.845
 04  3  1  0  5 30.0000000  0  9G29G 8G28G21G31G26G27G17G10
  21300004.652    21300000.435   -15577925.783 9 -12133572.014 6        53.000
        44.000       -1235.293        -962.566
  20430572.582    20430568.417   -17725524.655 9 -13802948.832 7        51.000
        47.000        1965.029        1531.192
  21796236.661    21796232.065   -14803595.099 9 -11523009.084 5        52.000
        42.000       -1519.492       -1184.020
  24523169.304    24523163.229    -2248089.074 3  -1746829.249 1        37.000
        22.000        -287.764        -224.231
  24756789.888                     -225537.154 1                        32.000
                      -213.086
  21717709.050    21717705.180   -11459812.334 9  -9508062.722 5        50.000
        40.000       -1925.195       -1500.152
  22819946.532    22819943.487     -556297.393 7   -414699.147 3        47.000
        35.000        3193.672        2488.575
  23600291.362    23600289.548    -1964410.427 5  -1516964.123 1        41.000
        27.000        3501.470        2728.418
  20820775.587    20820771.783   -14859569.402 9 -11570989.806 7        53.000
        47.000        1983.130        1545.296
 04  3  1  0  6  0.0000000  0  9G29G 8G28G21G31G26G27G17G10
  21292975.110    21292970.803   -15614865.153 9 -12162355.937 6        52.000
        44.000       -1227.378        -956.398
  20441830.192    20441825.931   -17666367.769 8 -13756852.560 7        48.000
        47.000        1978.701        1541.845
  21787604.777    21787599.406   -14848956.656 9 -11558355.731 5        52.000
        42.000       -1504.624       -1172.434
  24521576.541    24521573.908    -2256441.936 1  -1753337.941 1        32.000
        19.000        -269.209        -209.773
  24755622.882                     -231667.635 2                        33.000
                      -195.571
  21706741.165    21706737.179   -11517450.400 8  -9552975.480 5        49.000
        40.000       -1917.397       -1494.076
  22838191.890    22838188.204     -460418.846 7   -339988.631 2        47.000
        34.000        3198.223        2492.122
  23620304.552    23620302.057    -1859237.624 5  -1435011.325 1        40.000
        26.000        3509.927        2735.008
  20832149.863    20832145.873   -14799796.993 8 -11524413.916 7        48.000
        47.000        2001.685        1559.754
 04  3  1  0  6 30.0000000  0  9G29G 8G28G21G31G26G27G17G10
  21285990.801    21285986.546   -15651568.111 9 -12190955.632 6        52.000
        44.000       -1219.546        -950.296
  20453164.452    20453160.410   -17606805.323 8 -13710440.263 7        49.000
        47.000        1992.036        1552.236
  21779057.610    21779052.438   -14893871.947 9 -11593354.645 5        52.000
        42.000       -1489.893       -1160.955
  24520094.001    24520091.066    -2264235.261 3  -1759410.612 1        36.000
        19.000        -250.571        -195.250
  24754556.718                     -237267.412 1                        32.000
                      -178.237
  21695817.384    21695813.199   -11574853.790 8  -9597705.385 5        49.000
        40.000       -1909.663       -1488.049
  22856462.469    22856458.140     -364408.135 8   -265175.088 2        48.000
        34.000        3202.500        2495.455
  23640366.673    23640364.812    -1753812.526 5  -1352861.987 1        41.000
        24.000        3518.374        2741.590
  20843629.691    20843625.829   -14739470.984 8 -11477406.651 7        49.000
        47.000        2019.956        1573.992
 04  3  1  0  7  0.0000000  0  9G29G 8G28G21G31G26G27G17G10
  21279051.782    21279047.649   -15688034.622 9 -12219371.101 6        52.000
        44.000       -1211.650        -944.143
  20464575.690    20464571.497   -17546839.783 9 -13663713.869 7        54.000
        47.000        2005.527        1562.749
  21770595.682    21770591.217   -14938339.896 9 -11628004.981 5        52.000
        42.000       -1474.814       -1149.206
  24518719.632    24518715.126    -2271469.655 5  -1765047.813 1        40.000
        26.000        -231.904        -180.705
  24753592.737                     -242336.060 1                        32.000
                      -160.552
  21684938.857    21684934.752   -11632022.272 8  -9642252.247 5        48.000
        40.000       -1901.768       -1481.897
  22874757.493    22874753.080     -268267.378 7   -190260.208 2        47.000
        34.000        3206.860        2498.852
  23660475.870    23660473.020    -1648139.787 4  -1270519.575 1        39.000
        25.000        3526.431        2747.868
  20855214.569    20855210.483   -14678593.491 9 -11429969.661 7        54.000
        47.000        2038.364        1588.336
 04  3  1  0  7 30.0000000  0  9G29G 8G28G21G31G26G27G17G10
  21272157.494    21272153.484   -15724262.695 9 -12247600.772 6        52.000
        44.000       -1203.726        -937.968
  20476062.982    20476058.906   -17486472.302 9 -13616674.273 7        50.000
        47.000        2018.867        1573.143
  21762219.160    21762214.390   -14982357.749 9 -11662304.578 5        52.000
        42.000       -1459.863       -1137.556
  24517449.913    24517445.099    -2278143.810 4  -1770248.513 1        39.000
        23.000        -213.311        -166.216
  24752730.374                     -246871.502 1                        30.000
                      -142.559
  21674104.594    21674100.917   -11688953.768 7  -9686614.429 5        46.000
        40.000       -1893.799       -1475.687
  22893076.430    22893073.271     -171997.270 7   -115244.570 2        47.000
        34.000        3211.055        2502.121
  23680631.738    23680628.689    -1542221.648 5  -1187985.987 1        42.000
        25.000        3534.604        2754.237
  20866903.405    20866899.499   -14617164.860 8 -11382103.213 7        48.000
        47.000        2056.758        1602.668
 04  3  1  0  8  0.0000000  0  9G29G 8G28G21G31G26G27G17G10
  21265309.055    21265304.950   -15760252.243 9 -12275644.562 6        52.000
        44.000       -1195.698        -931.713
  20487626.469    20487622.323   -17425705.395 9 -13569323.432 7        50.000
        47.000        2032.183        1583.519
  21753928.602    21753924.044   -15025924.660 9 -11696252.816 5        52.000
        42.000       -1444.731       -1125.765
  24516285.543    24516281.059    -2284257.818 4  -1775012.702 1        38.000
        23.000        -194.565        -151.609
  24751965.328                                                          25.000
                      -124.604
  21663316.228    21663312.569   -11745648.135 8  -9730791.854 5        48.000
        40.000       -1885.918       -1469.547
  22911420.659    22911416.961      -75599.964 7    -40129.813 2        47.000
        34.000        3215.381        2505.492
  23700832.072    23700829.813    -1436063.127 5  -1105265.049 1        40.000
        25.000        3542.627        2760.488
  20878697.691    20878693.737   -14555187.418 9 -11333809.114 7        50.000
        47.000        2075.034        1616.910
 04  3  1  0  8 30.0000000  0  9G29G 8G28G21G31G26G27G17G10
  21258506.060    21258501.384   -15796003.443 9 -12303502.638 6        52.000
        44.000       -1187.842        -925.591
  20499265.316    20499261.627   -17364541.899 9 -13521663.572 7        53.000
        47.000        2045.283        1593.727
  21745724.020    21745719.278   -15069039.952 9 -11729849.134 5        51.000
        42.000       -1429.751       -1114.092
  24515228.299    24515223.626    -2289812.829 4  -1779341.301 1        38.000
        23.000        -175.688        -136.900
  24751308.813                     -254341.370 1                        29.000
                      -106.851
  21652572.858    21652569.203   -11802105.285 7  -9774784.427 5        46.000
        40.000       -1878.076       -1463.436
  22929788.398    22929784.112       20922.038 7     35082.153 2        46.000
        34.000        3219.341        2508.577
  23721079.112    23721076.132    -1329668.640 5  -1022360.271 1        42.000
        27.000        3550.215        2766.401
  20890595.350    20890591.582   -14492663.684 9 -11285089.341 7        52.000
        47.000        2093.115        1630.999
 04  3  1  0  9  0.0000000  0  9G29G 8G28G21G31G26G27G17G10
  21251749.456    21251745.152   -15831507.211 9 -12331167.913 6        52.000
        44.000       -1179.355        -918.978
  20510981.236    20510977.208   -17302975.419 9 -13473689.691 7        50.000
        47.000        2058.833        1604.285
  21737607.399    21737602.497   -15111694.043 9 -11763086.068 5        52.000
        42.000       -1414.136       -1101.924
  24514280.264    24514274.480    -2294800.408 4  -1783227.704 1        39.000
        23.000        -156.802        -122.183
  24750751.114                     -257266.555 1                        30.000
                       -88.545
  21641876.408    21641872.368   -11858316.032 7  -9818585.013 5        47.000
        40.000       -1869.604       -1456.835
  22948180.909    22948176.561      117575.355 7    110396.388 2        45.000
        33.000        3223.926        2512.150
  23741369.995    23741368.677    -1223033.546 4   -939268.042 1        39.000
        22.000        3558.457        2772.824
  20902598.913    20902594.800   -14429587.108 8 -11235938.779 7        49.000
        47.000        2111.743        1645.514
 04  3  1  0  9 30.0000000  0  9G29G 8G28G21G31G26G27G17G10
  21245040.039    21245035.813   -15866765.121 9 -12358641.601 7        52.000
        45.000       -1171.040        -912.499
  20522772.866    20522768.536   -17241010.434 9 -13425405.286 7        53.000
        47.000        2072.192        1614.695
  21729578.043    21729573.374   -15153887.606 9 -11795964.158 5        52.000
        42.000       -1398.677       -1089.878
  24513438.756    24513433.187    -2299222.652 5  -1786673.672 1        40.000
        23.000        -137.935        -107.481
  24750298.578                     -259650.054 1                        32.000
                       -70.254
  21631226.450    21631222.434   -11914281.884 8  -9862194.764 5        48.000
        40.000       -1861.309       -1450.370
  22966597.482    22966593.703      214356.165 7    185809.993 2        47.000
        33.000        3228.145        2515.437
  23761706.384    23761705.099    -1116164.205 4   -855993.214 1        39.000
        24.000        3566.299        2778.934
  20914706.147    20914702.112   -14365961.706 9 -11186360.558 7        53.000
        46.000        2130.020        1659.755
 04  3  1  0 10  0.0000000  0  9G29G 8G28G21G31G26G27G17G10
  21238377.660    21238373.460   -15901776.662 9 -12385923.313 6        52.000
        44.000       -1163.042        -906.266
  20534639.917    20534635.603   -17178649.069 9 -13376812.015 7        54.000
        47.000        2085.254        1624.873
  21721636.696    21721632.054   -15195619.346 9 -11828482.369 5        52.000
        41.000       -1383.428       -1077.996
  24512704.832    24512699.450    -2303079.781 5  -1789679.217 1        40.000
        23.000        -119.146         -92.841
  24749946.312                     -261491.337 1                        31.000
                       -52.349
  21620623.391    21620619.301   -11970001.983 8  -9905613.000 5        48.000
        40.000       -1853.325       -1444.150
  22985038.102    22985034.678      311262.553 7    261321.439 2        46.000
        33.000        3232.139        2518.550
  23782088.812    23782085.090    -1009064.398 5   -772538.929 1        41.000
        27.000        3573.569        2784.599
  20926917.754    20926913.919   -14301789.191 9 -11136356.017 7        54.000
        47.000        2148.091        1673.837
 04  3  1  0 10 30.0000000  0  9G29G 8G28G21G31G26G27G17G10
  21231761.382    21231757.128   -15936545.512 9 -12413015.919 6        52.000
        44.000       -1154.858        -899.890
  20546581.146    20546577.170   -17115897.853 9 -13327914.958 7        50.000
        47.000        2098.237        1634.990
  21713782.954    21713778.043   -15236892.279 9 -11860643.082 5        52.000
        42.000       -1368.135       -1066.079
  24512078.481    24512072.553    -2306376.278 4  -1792247.931 1        39.000
        24.000        -100.542         -78.344
  24749698.856                     -262793.951 1                        31.000
                       -34.375
  21610066.224    21610062.399   -12025480.086 7  -9948842.685 5        47.000
        41.000       -1845.200       -1437.818
  23003501.232    23003497.518      408288.574 7    336926.123 2        45.000
        34.000        3236.157        2521.681
  23802509.519    23802507.415     -901742.744 3   -688911.692 1        37.000
        24.000        3581.001        2790.390
  20939232.602    20939228.438   -14237075.668 9 -11085929.906 7        50.000
        46.000        2166.138        1687.900
 04  3  1  0 11  0.0000000  0  9G29G 8G28G21G31G26G27G17G10
  21225191.230    21225187.217   -15971072.724 9 -12439920.250 6        52.000
        44.000       -1146.890        -893.680
  20558595.530    20558591.526   -17052760.294 9 -13278716.864 7        53.000
        47.000        2110.986        1644.924
  21706016.226    21706011.525   -15277706.739 9 -11892446.545 5        52.000
        42.000       -1352.793       -1054.124
  24511557.264    24511551.332    -2309113.670 5  -1794380.988 1        41.000
        24.000         -81.782         -63.726
  24749553.801                     -263558.697 3                        36.000
                       -16.582
  21599554.602    21599550.621   -12080716.965 7  -9991884.400 5        46.000
        41.000       -1837.207       -1431.590
  23021986.995    23021983.074      505430.895 6    412621.435 1        44.000
        32.000        3239.966        2524.649
  23822974.233    23822971.804     -794204.821 5   -605115.900 1        42.000
        25.000        3588.145        2795.957
  20951649.329    20951645.787   -14171824.608 9 -11035084.947 7        53.000
        47.000        2183.931        1701.764
 04  3  1  0 11 30.0000000  0  9G29G 8G28G21G31G26G27G17G10
  21218668.015    21218663.707   -16005351.800 9 -12466631.212 6        53.000
        44.000       -1138.467        -887.117
  20570684.602    20570679.859   -16989233.030 9 -13229215.115 7        54.000
        46.000        2124.009        1655.072
  21698337.930    21698333.386   -15318055.443 9 -11923887.083 5        52.000
        42.000       -1337.222       -1041.991
  24511142.777    24511137.786    -2311286.167 5  -1796073.857 1        41.000
        22.000         -63.008         -49.097
  24749511.646                     -263779.173 2                        33.000
                         1.597
  21589090.502    21589086.510   -12135705.965 7 -10034732.965 5        46.000
        41.000       -1828.848       -1425.076
  23040495.609    23040491.885      602693.534 6    488410.480 2        44.000
        33.000        3244.116        2527.883
  23843480.635    23843477.652     -686448.537 6   -521150.013 1        44.000
        28.000        3595.420        2801.626
  20964169.283    20964165.503   -14106032.038 9 -10983818.030 7        53.000
        46.000        2202.114        1715.933
 04  3  1  0 12  0.0000000  0  9G29G 8G28G21G31G26G27G17G10
  21212191.296    21212187.009   -16039386.734 9 -12493151.929 6        52.000
        44.000       -1130.098        -880.596
  20582846.115    20582841.969   -16925322.645 9 -13179414.803 7        53.000
        47.000        2136.978        1665.177
  21690747.633    21690743.456   -15357941.923 9 -11954967.427 5        53.000
        42.000       -1321.514       -1029.751
  24510835.905    24510830.445    -2312898.845 5  -1797330.510 1        41.000
        21.000         -44.204         -34.445
  24749572.909                     -263459.266 2                        34.000
                        19.878
  21578673.044    21578669.141   -12190451.147 7 -10077391.533 5        47.000
        41.000       -1820.522       -1418.589
  23059025.563    23059022.074      700070.169 6    564288.377 2        43.000
        33.000        3248.174        2531.044
  23864023.099    23864023.022     -578482.677 4   -437020.780 1        39.000
        21.000        3602.490        2807.135
  20976790.825    20976786.846   -14039704.366 9 -10932134.131 7        53.000
        46.000        2220.112        1729.958
 04  3  1  0 12 30.0000000  0  9G29G 8G28G21G31G26G27G17G10
  21205762.811    21205758.698   -16073168.403 9 -12519475.300 7        53.000
        45.000       -1121.885        -874.196
  20595082.077    20595077.758   -16861023.052 9 -13129311.222 7        53.000
        46.000        2149.775        1675.150
  21683247.748    21683242.719   -15397356.234 9 -11985679.872 5        52.000
        42.000       -1305.874       -1017.564
  24510636.836    24510631.538    -2313943.312 5  -1798144.383 1        42.000
        23.000         -25.269         -19.690
  24749738.866                     -262589.789 3                        37.000
                        38.271
  21568303.556    21568299.230   -12244943.010 7 -10119852.719 5        47.000
        41.000       -1812.090       -1412.018
  23077579.095    23077575.071      797567.456 6    640260.282 2        43.000
        33.000        3251.904        2533.951
  23884611.358    23884609.193     -470302.613 6   -352724.565 1        44.000
        28.000        3609.536        2812.625
  20989515.543    20989511.792   -13972835.178 9 -10880028.296 7        52.000
        46.000        2237.983        1743.883
 04  3  1  0 13  0.0000000  0  9G29G 8G28G21G31G26G27G17G10
  21199382.871    21199378.473   -16106696.635 9 -12545601.195 6        52.000
        44.000       -1113.545        -867.697
  20607391.167    20607386.965   -16796336.647 9 -13078906.229 7        53.000
        47.000        2162.485        1685.053
  21675837.005    21675832.010   -15436297.927 9 -12016024.022 5        52.000
        42.000       -1290.361       -1005.476
  24510546.886    24510541.673    -2314420.353 5  -1798516.109 1        42.000
        24.000          -6.616          -5.155
  24750007.305    24750003.263     -261170.718 3   -268092.285 1        35.000
        15.000          56.328          43.892
  21557982.213    21557978.306   -12299181.422 7 -10162116.413 5        47.000
        41.000       -1803.892       -1405.630
  23096154.947    23096151.093      895183.404 5    716324.637 2        42.000
        33.000        3255.722        2536.927
  23905237.173    23905235.155     -361912.716 5   -268265.063 1        41.000
        22.000        3616.265        2817.869
  21002343.014    21002338.971   -13905426.971 9 -10827502.441 7        54.000
        46.000        2255.723        1757.706
 04  3  1  0 13 30.0000000  0  9G29G 8G28G21G31G26G27G17G10
  21193050.797    21193046.381   -16139972.260 9 -12571530.243 7        53.000
        45.000       -1105.122        -861.134
  20619773.629    20619769.275   -16731267.193 9 -13028202.752 7        54.000
        47.000        2175.205        1694.965
  21668516.835    21668512.068   -15474767.013 9 -12045999.916 5        53.000
        42.000       -1274.512        -993.126
  24510563.973    24510559.485    -2314331.504 6  -1798446.905 1        43.000
        26.000          12.300           9.584
  24750383.668    24750379.344     -259202.791 3   -266558.770 1        37.000
        16.000          74.536          58.080
  21547709.464    21547705.327   -12353167.016 8 -10204183.104 5        49.000
        41.000       -1795.322       -1398.952
  23114752.050    23114748.694      992914.525 5    792478.742 2        42.000
        34.000        3259.429        2539.815
  23925900.221    23925899.997     -253318.553 5   -183646.137 1        40.000
        26.000        3622.954        2823.081
  21015272.460    21015268.337   -13837483.133 9 -10774559.205 7        54.000
        47.000        2273.608        1771.643
 04  3  1  0 14  0.0000000  0  9G29G 8G28G21G31G26G27G17G10
  21186767.387    21186763.224   -16172991.357 9 -12597259.397 6        53.000
        44.000       -1096.470        -854.392
  20632229.019    20632224.894   -16665813.573 9 -12977199.943 7        53.000
        46.000        2188.022        1704.953
  21661286.884    21661282.497   -15512759.017 9 -12075604.056 5        52.000
        42.000       -1258.574        -980.707
  24510689.180    24510683.495    -2313673.716 6  -1797934.334 1        43.000
        23.000          31.274          24.370
  24750863.365    24750858.745     -256682.091 3   -264594.539 1        37.000
        18.000          93.125          72.565
  21537485.272    21537480.679   -12406895.725 8 -10246049.634 5        48.000
        41.000       -1786.807       -1392.317
  23133371.361    23133367.912     1090762.762 5    868724.088 1        41.000
        32.000        3263.301        2542.832
  23946605.465    23946602.892     -144520.517 6    -98868.587 1        43.000
        24.000        3629.858        2828.461
  21028303.688    21028299.777   -13769002.199 9 -10721197.448 7        54.000
        46.000        2291.455        1785.549
 04  3  1  0 14 30.0000000  0  9G29G 8G28G21G31G26G27G17G10
  21180532.205    21180528.035   -16205757.237 9 -12622791.251 7        53.000
        45.000       -1088.193        -847.943
  20644756.281    20644752.342   -16599981.584 9 -12925902.283 7        52.000
        46.000        2200.464        1714.647
  21654147.610    21654143.062   -15550276.665 9 -12104838.567 5        53.000
        42.000       -1242.827        -968.437
  24510922.523    24510916.016    -2312451.271 6  -1796981.817 1        43.000
        26.000          50.005          38.965
  24751446.755    24751442.505     -253612.092 4   -262202.321 1        39.000
        20.000         111.387          86.795
  21527308.595    21527304.900   -12460370.659 8 -10287718.393 5        48.000
        42.000       -1778.477       -1385.826
  23152013.365    23152009.490     1188722.391 5    945056.251 1        42.000
        32.000        3266.948        2545.674
  23967345.598    23967343.255      -35526.826 5    -13938.370 1        42.000
        28.000        3636.152        2833.365
  21041436.412    21041432.632   -13699989.965 9 -10667421.696 7        54.000
        46.000        2308.975        1799.201
 04  3  1  0 15  0.0000000  0  9G29G 8G28G21G31G26G27G17G10
  21174344.799    21174340.841   -16238270.334 9 -12648126.131 7        53.000
        45.000       -1079.385        -841.079
  20657355.585    20657351.440   -16533774.809 9 -12874312.598 7        53.000
        46.000        2213.315        1724.661
  21647098.745    21647093.883   -15587319.674 9 -12133703.236 5        52.000
        42.000       -1226.689        -955.862
  24511261.927    24511256.064    -2310665.536 6  -1795590.326 1        43.000
        23.000          69.048          53.804
  24752135.862    24752131.232     -249993.100 4   -259382.296 1        38.000
        20.000         129.980         101.283
  21517181.337    21517177.351   -12513592.048 8 -10329189.606 5        49.000
        41.000       -1769.585       -1378.897
  23170675.393    23170671.870     1286790.854 5   1021473.240 1        41.000
        32.000        3270.825        2548.695
  23988123.176    23988121.555       73657.643 6     71140.309 1        44.000
        24.000        3642.876        2838.605
  21054669.538    21054665.312   -13630449.586 9 -10613234.413 7        53.000
        46.000        2326.929        1813.191
 04  3  1  0 15 30.0000000  0  9G29G 8G28G21G31G26G27G17G10
  21168207.143    21168203.108   -16270524.944 9 -12673259.572 7        53.000
        45.000       -1070.898        -834.466
  20670025.806    20670021.742   -16467190.275 9 -12822428.539 7        53.000
        46.000        2225.796        1734.386
  21640141.173    21640136.167   -15623882.049 9 -12162193.376 5        52.000
        42.000       -1210.718        -943.416
  24511709.913    24511703.989    -2308311.898 6  -1793756.370 1        43.000
        23.000          87.910          68.501
  24752929.471    24752925.429     -245819.854 3   -256130.397 1        37.000
        21.000         148.350         115.597
  21507102.806    21507099.036   -12566554.182 8 -10370458.792 5        48.000
        42.000       -1761.069       -1372.262
  23189358.016    23189354.349     1384971.112 6   1097977.315 1        43.000
        32.000        3274.458        2551.526
  24008936.177    24008934.345      183033.851 6    156368.602 1        43.000
        26.000        3649.004        2843.380
  21068003.402    21067999.549   -13560378.195 9 -10558633.346 7        54.000
        46.000        2344.487        1826.873
 04  3  1  0 16  0.0000000  0  9G29G 8G28G21G31G26G27G17G10
  21162117.495    21162114.109   -16302524.726 9 -12698194.465 7        53.000
        45.000       -1062.334        -827.793
  20682766.938    20682762.826   -16400234.465 9 -12770255.178 7        54.000
        46.000        2238.145        1744.009
  21633274.547    21633269.602   -15659966.762 9 -12190311.312 5        52.000
        42.000       -1194.756        -930.979
  24512263.827    24512258.722    -2305394.966 5  -1791483.437 1        41.000
        23.000         106.743          83.176
  24753829.017    24753824.346     -241096.056 3   -252449.483 1        36.000
        21.000         166.719         129.911
  21497073.113    21497068.729   -12619260.477 9 -10411528.621 5        50.000
        42.000       -1752.544       -1365.619
  23208061.811    23208057.442     1483257.422 6   1174564.051 1        43.000
        32.000        3278.013        2554.296
  24029785.593    24029783.286      292593.794 6    241739.897 1        43.000
        26.000        3655.078        2848.113
  21081437.727    21081433.711   -13489781.934 9 -10503623.284 7        54.000
        46.000        2361.987        1840.510
 04  3  1  0 16 30.0000000  0  9G29G 8G28G21G31G26G27G17G10
  21156078.249    21156073.898   -16334262.899 9 -12722925.501 7        52.000
        45.000       -1053.496        -820.906
  20695579.788    20695575.401   -16332903.475 9 -12717789.472 7        52.000
        46.000        2250.664        1753.764
  21626500.027    21626495.203   -15695566.691 9 -12218051.498 5        53.000
        42.000       -1178.506        -918.316
  24512926.626    24512922.585    -2301909.090 5  -1788767.130 1        41.000
        23.000         125.771          98.004
  24754833.864    24754828.639     -235815.126 3   -248334.397 1        37.000
        22.000         185.366         144.441
  21487093.504    21487089.775   -12671704.072 9 -10452393.750 5        50.000
        42.000       -1743.716       -1358.740
  23226785.708    23226781.518     1581654.176 5   1251236.844 1        42.000
        32.000        3281.821        2557.263
  24050667.329    24050666.789      402339.346 4    327255.958 1        39.000
        21.000        3661.353        2853.002
  21094972.460    21094967.941   -13418656.897 9 -10448201.203 7        54.000
        46.000        2379.692        1854.306
 04  3  1  0 17  0.0000000  0  9G29G 8G28G21G31G26G27G17G10
  21150089.235    21150085.042   -16365733.828 9 -12747448.299 7        53.000
        45.000       -1044.546        -813.932
  20708464.454    20708460.294   -16265194.444 9 -12665029.179 7        53.000
        46.000        2263.281        1763.596
  21619818.669    21619813.676   -15730676.009 9 -12245409.394 6        53.000
        43.000       -1162.090        -905.525
  24513699.195    24513695.110    -2297849.622 4  -1785603.959 1        39.000
        21.000         144.951         112.949
  24755944.850    24755940.673     -229971.700 3   -243781.084 1        37.000
        22.000         204.238         159.147
  21477165.186    21477161.061   -12723879.130 9 -10493049.628 5        50.000
        42.000       -1734.712       -1351.724
  23245531.327    23245527.991     1680164.548 5   1327998.147 1        41.000
        32.000        3285.620        2560.223
  24071589.206    24071586.921      512271.445 6    412917.296 1        44.000
        24.000        3667.539        2857.823
  21108608.157    21108604.000   -13347000.129 9 -10392364.776 7        54.000
        46.000        2397.417        1868.117
 04  3  1  0 17 30.0000000  0  9G29G 8G28G21G31G26G27G17G10
  21144151.131    21144146.796   -16396941.047 9 -12771765.602 7        54.000
        45.000       -1035.864        -807.167
  20721420.158    20721415.272   -16197113.758 9 -12611979.307 7        54.000
        46.000        2275.454        1773.081
  21613230.456    21613225.835   -15765297.410 9 -12272387.079 5        52.000
        42.000       -1145.996        -892.984
  24514579.488    24514575.913    -2293220.999 5  -1781997.230 1        41.000
        22.000         163.774         127.616
  24757164.321    24757159.323     -223569.361 4   -238792.228 1        38.000
        22.000         222.764         173.582
  21467286.664    21467283.229   -12775789.054 9 -10533498.908 5        51.000
        42.000       -1726.001       -1344.936
  23264297.944    23264294.600     1778782.839 5   1404843.551 1        42.000
        32.000        3288.965        2562.830
  24092540.643    24092539.755      622382.113 5    498717.766 1        40.000
        20.000        3673.315        2862.324
  21122343.949    21122340.198   -13274817.965 9 -10336118.945 7        54.000
        46.000        2414.707        1881.590
 04  3  1  0 18  0.0000000  0  9G29G 8G28G21G31G26G27G17G10
  21138262.817    21138258.207   -16427884.254 9 -12795877.180 7        54.000
        45.000       -1026.978        -800.242
  20734445.129    20734440.722   -16128663.909 9 -12558641.746 7        54.000
        46.000        2287.881        1782.764
  21606735.340    21606730.530   -15799430.289 9 -12298984.112 6        52.000
        43.000       -1129.580        -880.192
  24515569.271    24515563.704    -2288024.260 6  -1777947.881 1        43.000
        22.000         182.720         142.379
  24758489.395    24758483.631     -216608.352 4   -233368.051 1        38.000
        22.000         241.313         188.036
  21457459.201    21457455.575   -12827433.395 9 -10573741.242 5        51.000
        42.000       -1716.953       -1337.885
  23283085.187    23283080.466     1877507.055 6   1481771.500 1        43.000
        32.000        3292.539        2565.615
  24113528.824    24113526.140      732666.921 6    584654.013 1        44.000
        23.000        3679.014        2866.764
  21136178.876    21136175.539   -13202112.951 9 -10279465.702 7        55.000
        46.000        2432.266        1895.272
 04  3  1  0 18 30.0000000  0  9G29G 8G28G21G31G26G27G17G10
  21132423.983    21132420.123   -16458566.104 9 -12819785.115 7        52.000
        45.000       -1018.442        -793.591
  20747540.040    20747535.312   -16059850.581 9 -12505020.972 7        53.000
        46.000        2299.771        1792.029
  21600332.527    21600327.718   -15833076.841 9 -12325202.184 5        52.000
        42.000       -1113.540        -867.694
  24516665.490    24516660.503    -2282263.029 6  -1773458.606 1        43.000
        22.000         201.309         156.864
  24759918.614    24759914.327     -209091.451 3   -227510.725 1        37.000
        20.000         259.678         202.346
  21447681.655    21447677.280   -12878814.891 9 -10613778.764 5        50.000
        42.000       -1708.442       -1331.254
  23301890.600    23301887.074     1976332.225 5   1558778.119 1        42.000
        31.000        3295.806        2568.160
  24134547.391    24134545.016      843118.851 6    670720.399 1        44.000
        27.000        3684.331        2870.907
  21150113.115    21150109.383   -13128890.394 9 -10222409.181 7        54.000
        46.000        2449.268        1908.520
 04  3  1  0 19  0.0000000  0  9G29G 8G28G21G31G26G27G17G10
  21126636.380    21126632.014   -16488981.135 9 -12843485.136 7        53.000
        45.000       -1009.341        -786.499
  20760704.444    20760700.484   -15990671.164 9 -12451114.924 7        53.000
        46.000        2312.090        1801.628
  21594023.326    21594018.586   -15866231.145 9 -12351036.684 5        53.000
        42.000       -1096.904        -854.731
  24517870.465    24517865.328    -2275932.944 5  -1768526.081 1        42.000
        22.000         220.439         171.771
  24761456.143    24761451.574     -201013.536 2   -221216.219 1        34.000
        18.000         278.760         217.215
  21437955.098    21437951.055   -12929927.766 9 -10653606.961 5        50.000
        42.000       -1699.219       -1324.067
  23320716.164    23320712.940     2075261.434 6   1635865.804 1        43.000
        31.000        3299.360        2570.930
  24155597.165    24155595.353      953738.518 6    756917.498 1        44.000
        25.000        3690.107        2875.408
  21164146.015    21164142.286   -13055147.602 9 -10164947.289 7        53.000
        46.000        2466.807        1922.187
 04  3  1  0 19 30.0000000  0  9G29G 8G28G21G31G26G27G17G10
  21120899.705    21120895.211   -16519128.403 9 -12866976.512 7        52.000
        45.000       -1000.347        -779.491
  20773938.259    20773934.181   -15921127.435 9 -12396925.009 7        51.000
        46.000        2324.253        1811.106
  21587808.001    21587803.169   -15898891.980 8 -12376486.667 5        49.000
        42.000       -1080.342        -841.825
  24519183.343    24519178.162    -2269034.761 5  -1763150.900 1        41.000
        24.000         239.565         186.674
  24763099.232    24763095.399     -192374.105 1   -214484.156 1        32.000
        16.000         297.305         231.666
  21428280.056    21428275.857   -12980770.926 9 -10693225.009 5        50.000
        42.000       -1690.205       -1317.043
  23339561.426    23339557.881     2174293.454 5   1713033.598 1        41.000
        31.000        3302.891        2573.681
  24176678.359    24176676.636     1064522.398 6    843242.657 1        44.000
        27.000        3695.537        2879.639
  21178277.326    21178273.560   -12980886.531 9 -10107081.533 7        52.000
        46.000        2484.072        1935.641
 04  3  1  0 20  0.0000000  0  9G29G 8G28G21G31G26G27G17G10
  21115214.184    21115209.948   -16549005.744 9 -12890257.534 7        54.000
        45.000        -991.318        -772.456
  20787241.000    20787236.973   -15851220.166 9 -12342451.810 7        52.000
        46.000        2336.396        1820.569
  21581687.363    21581682.682   -15931056.876 9 -12401550.201 6        53.000
        43.000       -1063.770        -828.911
  24520605.277    24520598.072    -2261567.151 5  -1757331.972 1        42.000
        23.000         258.433         201.376
  24764850.628    24764846.688     -183171.181 2   -207313.035 1        33.000
        17.000         316.211         246.398
  21418656.734    21418652.751   -13031342.010 9 -10732631.029 5        50.000
        42.000       -1681.089       -1309.939
  23358425.995    23358421.553     2273427.856 5   1790281.177 1        42.000
        30.000        3306.328        2576.360
  24197790.959    24197789.433     1175467.723 6    929693.455 1        44.000
        26.000        3700.938        2883.848
  21192507.201    21192503.404   -12906107.963 9 -10048812.530 7        54.000
        45.000        2501.318        1949.079
 04  3  1  0 20 30.0000000  0  9G29G 8G28G21G31G26G27G17G10
  21109580.285    21109576.103   -16578612.329 9 -12913327.587 7        53.000
        46.000        -982.422        -765.524
  20800613.112    20800608.670   -15780951.445 9 -12287696.955 7        53.000
        46.000        2348.203        1829.769
  21575661.118    21575656.295   -15962724.832 9 -12426226.511 6        53.000
        43.000       -1047.329        -816.101
  24522134.084    24522128.674    -2253530.481 5  -1751069.616 1        40.000
        23.000         277.417         216.169
  24766710.500    24766705.453     -173404.533 3   -199702.617 1        35.000
        16.000         334.932         260.986
  21409085.286    21409081.390   -13081640.071 8 -10771824.305 5        49.000
        42.000       -1672.105       -1302.939
  23377310.125    23377305.366     2372663.359 5   1867607.555 1        41.000
        31.000        3309.590        2578.901
  24218931.871    24218930.294     1286570.929 5   1016267.439 1        42.000
        22.000        3705.947        2887.751
  21206834.906    21206831.432   -12830814.017 9  -9990141.934 7        54.000
        45.000        2518.262        1962.282
 04  3  1  0 21  0.0000000  0  9G29G 8G28G21G31G26G27G17G10
  21103997.350    21103992.983   -16607949.622 9 -12936187.822 7        53.000
        45.000        -973.398        -758.492
  20814052.669    20814048.290   -15710325.472 9 -12232663.734 7        53.000
        46.000        2360.151        1839.079
  21569729.598    21569724.768   -15993896.745 9 -12450516.297 6        53.000
        43.000       -1030.752        -803.183
  24523772.425    24523765.844    -2244927.595 5  -1744366.128 1        41.000
        25.000         296.235         230.833
  24768675.083    24768670.865     -163075.952 3   -191654.348 1        35.000
        17.000         353.525         275.474
  21399565.584    21399561.711   -13131666.480 8 -10810805.900 5        48.000
        42.000       -1663.018       -1295.858
  23396211.680    23396208.462     2471996.130 5   1945009.680 1        40.000
        30.000        3312.739        2581.355
  24240104.836    24240102.555     1397826.035 6   1102959.652 1        43.000
        27.000        3710.977        2891.670
  21221260.563    21221256.801   -12755009.027 9  -9931073.130 7        54.000
        45.000        2535.381        1975.621
 04  3  1  0 21 30.0000000  0  9G29G 8G28G21G31G26G27G17G10
  21098466.112    21098461.767   -16637017.559 9 -12958838.157 7        54.000
        45.000        -964.258        -751.370
  20827559.520    20827555.158   -15639345.110 9 -12177354.353 7        53.000
        46.000        2372.085        1848.378
  21563892.185    21563887.357   -16024572.285 9 -12474419.297 6        53.000
        43.000       -1013.970        -790.106
  24525517.092    24525509.242    -2235759.647 5  -1737222.299 1        41.000
        22.000         315.259         245.656
  24770747.425    24770742.912     -152185.800 3   -183168.480 1        36.000
        17.000         372.583         290.324
  21390097.194    21390093.414   -13181421.028 8 -10849575.658 5        49.000
        42.000       -1653.779       -1288.659
  23415133.076    23415129.366     2571423.965 6   2022485.885 1        44.000
        31.000        3315.991        2583.889
  24261302.826    24261301.559     1509228.199 4   1189766.550 1        39.000
        21.000        3716.118        2895.676
  21235782.459    21235778.231   -12678695.783 9  -9871608.278 7        54.000
        45.000        2552.407        1988.889
 04  3  1  0 22  0.0000000  0  9G29G 8G28G21G31G26G27G17G10
  21092986.455    21092982.403   -16665812.131 8 -12981275.478 7        49.000
        46.000        -955.210        -744.319
  20841134.083    20841129.978   -15568009.455 9 -12121768.127 7        52.000
        46.000        2383.789        1857.498
  21558149.953    21558144.938   -16054747.491 8 -12497932.422 6        48.000
        43.000        -997.437        -777.223
  24527368.069    24527361.203    -2226024.314 5  -1729636.320 1        40.000
        21.000         333.970         260.236
  24772927.530    24772922.296     -140730.676 3   -174242.279 1        37.000
        20.000         391.338         304.939
  21380681.922    21380677.993   -13230899.509 8 -10888130.313 5        48.000
        42.000       -1644.678       -1281.567
  23434071.934    23434067.950     2670948.452 6   2100037.445 1        43.000
        32.000        3319.063        2586.283
  24282530.850    24282528.652     1620776.992 6   1276687.645 1        43.000
        24.000        3720.727        2899.268
  21250401.382    21250397.598   -12601873.281 9  -9811746.593 7        55.000
        45.000        2569.248        2002.011
 04  3  1  0 22 30.0000000  0  9G29G 8G28G21G31G26G27G17G10
  21087559.977    21087555.516   -16694330.732 9 -13003497.749 7        50.000
        45.000        -946.245        -737.334
  20854776.488    20854772.228   -15496318.406 9 -12065904.976 7        51.000
        45.000        2395.396        1866.542
  21552503.401    21552498.902   -16084419.011 8 -12521053.062 6        48.000
        43.000        -980.903        -764.340
  24529328.922    24529321.568    -2215719.875 3  -1721606.997 1        37.000
        20.000         352.720         274.847
  24775215.133    24775210.621     -128708.225 3   -164874.206 1        36.000
        20.000         410.029         319.503
  21371319.880    21371315.872   -13280099.111 8 -10926467.650 5        48.000
        42.000       -1635.503       -1274.418
  23453028.839    23453024.972     2770570.200 5   2177664.763 1        42.000
        30.000        3322.124        2588.668
  24303784.075    24303783.391     1732470.449 4   1363721.492 1        39.000
        21.000        3725.352        2902.871
  21265117.008    21265113.225   -12524541.501 9  -9751488.087 7        54.000
        45.000        2586.001        2015.066
 04  3  1  0 23  0.0000000  0  9G29G 8G28G21G31G26G27G17G10
  21082185.009    21082180.866   -16722574.123 9 -13025505.588 7        54.000
        45.000        -936.978        -730.112
  20868485.891    20868482.000   -15424275.825 9 -12009767.896 7        51.000
        45.000        2407.217        1875.753
  21546952.834    21546948.190   -16113587.709 9 -12543781.899 6        52.000
        43.000        -963.936        -751.119
  24531397.705    24531391.446    -2204848.954 3  -1713136.073 1        37.000
        19.000         371.528         289.503
  24777609.942    24777606.049     -116120.055 3   -155065.305 1        37.000
        18.000         428.975         334.266
  21362010.351    21362006.256   -13329020.733 8 -10964588.370 6        48.000
        43.000       -1626.216       -1267.181
  23472004.417    23472000.352     2870285.966 6   2255365.335 1        43.000
        29.000        3325.376        2591.202
  24325066.829    24325063.918     1844302.988 6   1450863.670 1        44.000
        23.000        3729.844        2906.372
  21279928.670    21279924.572   -12446704.706 9  -9690836.045 7        54.000
        45.000        2602.832        2028.181
 04  3  1  0 23 30.0000000  0  9G29G 8G28G21G31G26G27G17G10
  21076862.757    21076858.526   -16750541.751 9 -13047298.537 7        51.000
        45.000        -927.422        -722.666
  20882261.287    20882257.207   -15351883.923 9 -11953358.621 7        51.000
        45.000        2419.106        1885.018
  21541498.241    21541493.000   -16142252.670 9 -12566118.212 6        50.000
        43.000        -946.826        -737.787
  24533573.867    24533568.427    -2193412.023 3  -1704224.197 1        36.000
        20.000         390.913         304.608
  24780113.587    24780108.433     -102965.922 3   -144815.319 1        37.000
        19.000         448.057         349.135
  21352753.925    21352750.061   -13377663.338 8 -11002491.697 6        48.000
        43.000       -1616.519       -1259.625
  23490997.875    23490994.134     2970094.203 6   2333137.984 1        43.000
        30.000        3328.760        2593.839
  24346371.683    24346369.903     1956270.672 5   1538111.278 1        42.000
        22.000        3734.751        2910.196
  21294836.385    21294832.297   -12368365.043 9  -9629792.164 7        54.000
        45.000        2619.946        2041.517
 04  3  1  0 24  0.0000000  0  9G29G 8G28G21G31G26G27G17G10
  21071593.989    21071589.584   -16778230.175 9 -13068873.932 7        50.000
        45.000        -918.184        -715.468
  20896103.694    20896099.804   -15279142.505 9 -11896676.997 7        52.000
        45.000        2430.649        1894.013
  21536140.178    21536135.050   -16170410.360 8 -12588059.255 6        49.000
        43.000        -929.985        -724.664
  24535856.950    24535852.762    -2181407.282 2  -1694869.868 1        34.000
        21.000         409.863         319.374
  24782724.537    24782719.670      -89243.155 3   -134122.246 1        37.000
        20.000         467.085         363.962
  21343551.480    21343547.258   -13426023.555 8 -11040174.963 6        48.000
        43.000       -1607.104       -1252.289
  23510007.066    23510004.267     3069995.867 6   2410983.414 1        43.000
        29.000        3331.778        2596.190
  24367704.930    24367702.231     2068372.194 6   1625463.088 1        43.000
        22.000        3739.155        2913.627
  21309839.780    21309835.806   -12289522.117 9  -9568356.135 7        53.000
        45.000        2636.646        2054.529
 04  3  1  0 24 30.0000000  0  9G29G 8G28G21G31G26G27G17G10
  20766586.067    20766582.158   -16805636.657 9 -13090229.617 7        52.000
